"id","name","installed_capacity_MW","pumping_MW","type","country_code","lat","lon","dam_height_m","volume_Mm3","storage_capacity_MWh","avg_annual_generation_GWh"
"H1","Grande Dixence - Cleuson-Dixence (chandolin-fionnay-nendaz-bieudron)",2069,"","HDAM","CH",46.0731,7.4034,1748,400,1764300,1400
"H10","Chiotas entracque",1064,1184,"HPHS","IT",44.1775758,7.4165053,130,30.18,16860,""
"H15","Roncovalgrande UP_RONCOVALG_1PS - Roncovalgrande Pumped Storage Power Plant Italy",1016,784,"HPHS","IT",46.067588,8.731877,736.25,10,17700,""
"H1000","Lugo di nazza Lugo Di Nazza Hydroelectric Power Station France - Lugo Di Nazza Hydroelectric Power Station France",38.50318471,"","HDAM","FR",42.091,9.316,"","","",""
"H14","Presenzano UP_PRESENZAN_1 - Presenzano (Domenico Cimarosa) Pumped Storage Power Plant Italy",1005,1029,"HPHS","IT",41.380906,14.09146,495,6,15075,""
"H1002","Lipovec Lipovec Hydroelectric Power Plant Slovakia - Lipovec Hydroelectric Power Plant Slovakia",38.4,"","HROR","SK",49.13197,18.9114,"","","",""
"H1003","Sučany Sucany Hydroelectric Power Plant Slovakia - Sucany Hydroelectric Power Plant Slovakia",38.4,"","HROR","SK",49.10656,18.99204,"","","",""
"H1004","Feldkirchen",38.2,"","HROR","DE",47.96092,12.1561,"","","",204
"H1005","BARRIOS DE LUNA 1 (MORA LUNA)",38,"","HDAM","ES",42.466999,-5.883,300.3,308,252000,""
"H34","Malta hauptstufe Malta-Hauptstufe-KW - Malta Haupstufe (Rottau)  Pumped Storage Power Plant Austria",730,"","HDAM","AT",46.870564,13.329601,1106,6.2,16100,715
"H1008","Mavcice HE Mavcice 1 - Mavcice Hydroelectric Power Plant Slovenia",38,"","HDAM","SI",46.18387,14.40805,40,1.68,"",62
"H1009","Granfors",40,"","HDAM","SE",64.1833333,20.3833333,"","","",""
"H101","Tajo encantada TJE1",360,420,"HPHS","ES",36.908265,-4.763865,341,4,1000,""
"H17","Edolo UP_EDOLO_1 - Edolo Pumped Storage Hydroelectric Power Plant Italy",978,1120,"HPHS","IT",46.172153,10.344367,1265,17.04,4900,""
"H49","S.fiorano",568,210,"HPHS","IT",46.049856,10.351457,1424,38.8,130400,""
"H61","UP_SGIACOMO_3",559,248,"HPHS","IT",42.553001,13.556,656.6,1.69,2600,""
"H39","Centrale di Grosio - Lovero - Stazzona",535.3,"","HDAM","IT",46.489007,10.294052,591,1.2,"",900
"H55","Anapo c.le UP_ANAPO_C.L_1 - Anapo Pumped Storage Power Plant Italy",500,500,"HPHS","IT",37.115761,15.137157,300,5.6,4000,""
"H2","Dinorwig",1800,1728,"HPHS","UK",53.118744,-4.113624,536,6.7,10400,""
"H1018","PENADRADA 1",38,"","HDAM","ES",42.854,-6.459,"","","",""
"H1019","Kierikki",38,"","HROR","FI",65.372222,25.840278,18.2,"","",""
"H102","Polyfyto POLYFYTO - Polyfyto  Hydroelectric Power Plant Greece",375,"","HDAM","EL",40.3305,22.1253,105,1220,342000,584
"H1020","Arcesti",38,"","HDAM","RO",44.449583,24.312917,31,43.4,"",122
"H1021","Calimanesti",38,"","HDAM","RO",45.074583,24.364583,29,44.3,"",106
"H1022","Ionesti",38,"","HDAM","RO",44.857917,24.24625,34,24.9,"",125
"H1023","Zavideni",38,"","HDAM","RO",44.774583,24.27125,30,500,"",120
"H1024","Wyhlen",37.9,"","HROR","DE",47.5523554,7.6580881,"","","",""
"H1025","Argentiere bessee Argentiere-La Bessee Hydroelectric Power Station France - Argentiere-La Bessee Hydroelectric Power Station France",37.51592357,"","HDAM","FR",44.783,6.548,"","","",""
"H1026","Grono",37.5,"","HROR","CH",46.242012,9.153520004,"","","",""
"H1027","Qarrishta 1",37.5,"","HROR","AL",41.21956111,20.30383333,"","","",148
"H1028","Talarn Talarn Hydroelectric Power Plant Spain - Talarn Hydroelectric Power Plant Spain",37.36,"","HDAM","ES",42.17969,0.91314,"","","",""
"H1029","Manosque voix Manosque-Voix Hydroelectric Power Station France - Manosque-Voix Hydroelectric Power Station France",37.18405084,"","HROR","FR",43.877,5.863,"","","",""
"H103","PSHPP_BELMEKEN_1 - Belmeken Pumped Storage Hydroelectric Power Plant Bulgaria",375,104,"HPHS","BG",42.198002,23.862,640,42.72397094,640,321
"H1031","ENTREPENAS 1",37,"","HDAM","ES",40.493,-2.75,343.7,835,"",""
"H65","Kaprun-Oberstufe Limberg",592.8,610,"HPHS","AT",47.275002,12.756,365,88.06,245100,150.4
"H1033","Sikfors",40,"","HDAM","SE",65.525764,21.183168,"","","",""
"H1034","Skedvi",38,"","HDAM","SE",60.398171,15.808669,"","","",""
"H1035","Babeni",37,"","HDAM","RO",44.920417,24.250417,33,59.7,"",120
"H1036","Daesti",37,"","HDAM","RO",45.17875,24.369583,29,11.2,"",107
"H1037","Egets Egets Hydroelectric Power Station France - Egets Hydroelectric Power Station France",36.82484076,"","HDAM","FR",42.955,0.565,"","","",""
"H1038","HE Rijeka",36.8,"","HROR","HR",45.33499908,14.45199966,"","","",99.98
"H1039","Rheinau",36.8,"","HROR","CH",47.63891024,8.601661178,"","","",""
"H104","Miranda",369,"","HROR","PT",41.4886,-6.2656,60,"","",897.8
"H1040","Nußdorf",48,"","HROR","DE",47.74444,12.1348886,"","","",245
"H1042","Grangent Grangent Hydroelectric Power Station France - Grangent Hydroelectric Power Station France",36.52866242,"","HDAM","FR",45.467,4.248,"","","",""
"H1044","Sveta Peka Hydroelectric Power Plant Macedonia - Sveta Peka Hydroelectric Power Plant Macedonia",36.4,"","HDAM","MK",41.9249,21.2647,64,9.775,"",""
"H67","Galleto Nera-Tevere",461,"","HROR","IT",42.5641417,12.6405466,50,"","",""
"H30","Kopswerk 2 M1 - Kops II Pumped Storage Power Plant Austria",525,480,"HPHS","AT",46.975564,10.043049,818,29.25,2300,""
"H1048","Lovons Krv",37,"","HDAM","SE",63.829583,15.642083,16,495,"",142
"H1049","Grytfors",37,"","HDAM","SE",65.295466,19.11352,"","","",""
"H105","Monteynard MONTEYNARD - Monteyard-Avigonnet Hydroelectric Power Station France",366,"","HDAM","FR",44.96118,5.68874,153,275,77900,495
"H92","Orichella Timpagrande Calusia UP_ORTICA_1",414.7,"","HDAM","IT",39.17553,16.780345,1168,135,"",""
"H100","S.massenza - Vezzano molveno UP_S MASS CL_1",377,55,"HPHS","IT",46.067653,10.983605,580.9,32.7,44800,""
"H1052","Uvac Hydroelectric Power Plant Serbia - Uvac Hydroelectric Power Plant Serbia",36,"","HDAM","RS",43.4224,19.9295,"",213,"",""
"H75","Cruachan",440,440,"HPHS","UK",56.394104,-5.114319,46,11.3,7000,""
"H1054","St léonard St-Leonard Hydroelectric Power Plant Switzerland - St-Leonard Hydroelectric Power Plant Switzerland",36,"","HDAM","CH",46.26058771,7.44474053,"","","",""
"H1055","Porttipahta",36,"","HDAM","FI",68.10875,26.722083,38,1353,"",101
"H54","Silz SILZ 1",500,"","HDAM","AT",47.2666667,10.9333333,1465,3,8900,718
"H1057","Letten",36,36,"HPHS","SE",60.712207,12.667535,16,163.4,72120,65
"H1058","Rengard",36,"","HDAM","SE",64.933513,20.046481,"","","",""
"H1059","Aletsch",35.3,"","HROR","CH",46.35397488,8.042760235,"","","",""
"H106","HE Bajina Basta G1 - Bajina Basta Hydroelectric Power Plant Serbia",364,"","HDAM","RS",43.964001,19.41,90,218,30000,""
"H1060","Rosenheim",35.1,"","HROR","DE",47.83825,12.15333,"","","",""
"H1063","Sveg Sveg Hydroelectric Power Plant Sweden - Sveg Hydroelectric Power Plant Sweden",35.54140127,"","HDAM","SE",62.01812,14.2453105,"","","",""
"H1064","Vargön",35.3,"","HDAM","SE",58.355556,12.374444,20,9500,"",158
"H1065","Tanzmühle",35,"","HPHS","DE",49.552216,12.281256,"","","",""
"H159","Bargi UP_BARGI_CEN_1",330,330,"HPHS","IT",44.117039,11.04338,"","",2640,""
"H1068","Augst",35,"","HROR","CH",47.53676241,7.709688481,"","","",""
"H1069","RIBADELAGO 2",35,"","HDAM","ES",42.123001,-6.755,"","","",""
"H107","ORLIK - Orlik Hydroelectric Power Plant Czech Republic",364,"","HDAM","CZ",49.606998,14.182,91,716.5,"",300
"H1070","Enchanet Enchanet Hydroelectric Power Station France - Enchanet Hydroelectric Power Station France",35,"","HDAM","FR",45.082,2.194,"",93,"",66
"H1071","Ilanz stufe tavanasa",34.5,"","HROR","CH",46.77476376,9.195225579,"","","",""
"H1072","Linthal",34.4,"","HDAM","CH",46.91551045,8.987901562,"","","",""
"H1073","Vrhovo HE Vrhovo 1 - Vrhovo Hydroelectric Power Plant Slovenia",34.2,"","HDAM","SI",46.04415,15.22365,27,1.16,"",116
"H1074","Hafen",34.08,"","HROR","CH",49.14914941,8.233982642,"","","",""
"H60","Rodundwerk Rodund 1 2 - Rodund II Pumped Storage Power Plant Austria",493,327,"HPHS","AT",47.084928,9.8778575,353,2.24,1800,""
"H183","Taloro (Gusana - Cucchinadorza - Benzone) UP_TALORO1_1 - Tumuele Baddu Ozzana",314.3,240,"HPHS","IT",40.127148,9.140644,80,67.78,12480,388.505
"H112","Ffestiniog Ffestiniog Pumped Storage Power Station Wales UK - Ffestiniog Pumped Storage Power Station Wales UK",360,360,"HPHS","UK",52.980785,-3.968708,320,1.7,1730,""
"H144","Foyers falls Foyers FOYE-1 - Foyers Pumped Storage Power Station Scotland UK",305,300,"HPHS","UK",57.2553615,-4.493152,"",13.6,6300,226
"H108","Aguayo",360.6,360,"HPHS","ES",43.095804,-4.000656,328,"",3700,""
"H1081","QUERENO GR, 1",34,"","HDAM","ES",42.417,-6.832,"","","",""
"H1082","Obermatt",33.92,"","HROR","CH",46.8425235,8.372585756,"","","",""
"H1083","Bistrica I",22.5,"","HDAM","AL",39.9511,20.09778,23,0.58,"",100
"H1084","Le furcil",33.408,"","HROR","CH",47.03731052,6.752899473,"","","",""
"H1085","Pallazuit",33.4,"","HDAM","CH",45.98108849,7.189492432,"","","",""
"H1086","Göschenen andermatt",33.26,"","HDAM","CH",46.66736286,8.585314102,"","","",""
"H1087","SAN JUAN 1",33,"","HDAM","ES",40.373001,-4.312,276.6,138,104000,""
"H80","Reisseck Reisseck-Jahresspeicher-KW - Kolbnitz (Reisseck/Kreuzeck) Hydroelectric Power Plant Austria",430,"","HPHS","AT",47.0791667,13.3391667,46.5,7.8,31200,""
"H109","Aigle AIGLE 6 - L'Aigle Hydroelectric Generating Station France",360,"","HDAM","FR",45.24373,2.22483,92,220,"",""
"H1091","Ernen ERNE UNIT 3",33,"","HROR","CH",46.39116874,8.13015041,"","","",""
"H1092","SANTA MARINA 1",33,"","HDAM","ES",42.668999,-6.512,"","","",""
"H1094","Boštanj HE Bostanj 1 - Bostanj Hydroelectric Power Plant Slovenia",32.52,"","HROR","SI",46.01704,15.28121,"","","",109
"H93","Kaunertal",392,"","HDAM","AT",47.067783,10.665211,153,140,278800,661
"H111","Häusling Haeusling-KW - Haeusling Pumped Storage Power Plant Austria",360,"","HPHS","AT",47.146432,11.967219,186,86.7,244300,175.2
"H1097","Peltokoski",32.3,"","HROR","FI",60.14982,23.83376,"","","",""
"H1098","Vinon Vinon Hydroelectric Power Station France - Vinon Hydroelectric Power Station France",32.08598726,"","HDAM","FR",43.725,5.827,"","","",""
"H11","HE Derdap 1 G1 - Djerdap-1 (Iron Gate I) Hydroelectric Power Station Serbia",1083,"","HDAM","RS",44.668999,22.527,60,2100,343350,5650
"H110","Piva_G1 - Piva (Mratinje) Hydroelectric Power Plant Montenegro",360,"","HDAM","ME",43.272999,18.841999,190,790,"",860
"H3410","Obervermuntwerk II",360,360,"HPHS","AT",46.936111,10.0625,291,35.63076923,134690,""
"H115","Mayrhofen-KW - Mayrhofen Storage Power Plant Austria",355,"","HDAM","AT",47.158171,11.850272,744,6.6,7400,671.2
"H1103","Spjutmo",35,"","HDAM","SE",61.083948,14.318083,"","","",""
"H3411","Centrale di Premadio - S. Giacomo",254.5,"","HDAM","IT",46.4862865,10.3492706,651,187,"",""
"H196","Venaus UP_VENAUS_1 (Venasco)",244.2,"","HDAM","IT",45.161887,7.008396,"","","",273
"H226","Fadalto UP_FADALTO_1",240,210,"HPHS","IT",46.028439,12.300677,"","","",""
"H282","Naturno UP_CNTRLNTRNO_11",230,"","HDAM","IT",46.651148,10.993403,"","","",""
"H129","Altenwörth Altenwoerth-KW - Altenwoerth Hydroelectric Power Plant Austria",328,"","HROR","AT",48.374728,15.855343,37,"","",1967
"H152","Greifenstein Greifenstein-KW - Greifenstein Hydroelectric Power Plant Austria",293,"","HROR","AT",48.355951,16.241844,"","","",1717
"H153","KUHTAI 1",292,242,"HPHS","AT",47.208,11.006,"",2.2,2700,""
"H1110","Tabescan",32,"","HDAM","ES",42.646,1.26,"","","",""
"H1111","Solkan HE Solkan 1 - Solkan Hydroelectric Poqwer Plant Slovenia",31.98,"","HROR","SI",45.98441,13.65506,"","","",""
"H1113","Allement Allement Hydroelectric Power Station France - Allement Hydroelectric Power Station France",31.59235669,"","HDAM","FR",46.112,5.422,"","","",""
"H1114","Hričov Hricov Hydroelectric Power Plant Slovakia - Hricov Hydroelectric Power Plant Slovakia",31.5,"","HROR","SK",49.25737,18.68102,"","","",""
"H156","Aschach Aschach-KW - Aschach Hydroelectric Power Plant Austria",287,"","HROR","AT",48.385414,14.0227,34,"","",1686
"H1116","Laforsen",32,"","HROR","SE",61.937373,15.521949,"","","",""
"H1117","Upm schwedt",31.3,"","HROR","DE",50.8009765,13.2101955,"","","",""
"H1118","Beli Iskar + Mala Tsarkva + Simeonovo HPP",31.3,"","HDAM","BG",42.1373,23.5691,1160,15.1,"",69.3
"H324","Sloy SLOY SLOY-1 - Loch Sloy Hydroelectric Power Plant UK",152.5,"","HDAM","UK",56.261512,-4.763588,56,35.679,"",130
"H1122","Karsefors",31.4,"","HDAM","SE",56.501729,13.11362,"","","",""
"H198","Cimego UP_CIMEGO_1",229.9,"","HDAM","IT",45.923109,10.628414,738,12.26,"",388
"H1124","Montbovon",31,"","HROR","CH",46.48795246,7.048316905,"","","",""
"H188","Lünerseewerk Luenersee Pumped Storage Power Plant Austria - Luenersee Pumped Storage Power Plant Austria",280,224,"HDAM","AT",47.074251,9.874371,974,78.3,"",371
"H1126","Sault brenaz Sault Brenaz Hydroelectric Power Station France - Sault Brenaz Hydroelectric Power Station France",30.42331432,"","HROR","FR",45.846,5.418,"","","",""
"H1127","Oo Hydroelectric Power Station France - Oo Hydroelectric Power Station France",30,"","HDAM","FR",42.804,0.56,15,19.5,"",""
"H174","Ybbs persenbeug Ybbs-Persenbeug-KW - Ybbs-Persenburg Hydroelectric Power Plant Austria",254,"","HROR","AT",48.189357,15.067755,"","","",1335
"H178","Kopswerk I - Kops I Hydroelectric Power Plant Austria",245,"","HDAM","AT",46.976121,10.05145,122,13.65,"",""
"H1133","Sädvajaur sädva",31,"","HDAM","SE",66.467003,16.549485,31,605,"",118
"H224","Soverzene UP_SOVERZENE_1",213.5,"","HDAM","IT",46.201029,12.302334,284,5.9,"",710
"H258","Lanzada UP_LANZADA_1",212,"","HDAM","IT",46.268585,9.877013,174,68,"",""
"H273","S. floriano UP_SFLORIANO_2",180,"","HROR","IT",46.290466,11.245401,"","","",""
"H210","Somplago UP_TAGLIAMENTO_1",172.8,"","HDAM","IT",46.343237,13.067161,280,3.4,"",""
"H294","Mese UP_MESE_1",172.6,"","HROR","IT",46.304613,9.376503,"","","",523
"H182","Kaprun hauptstufe Kaprun-Hauptstufe-KW Limberg",240,"","HDAM","AT",47.259591,12.738799,858,81.17,159900,""
"H114","Villarodin VILLARODIN 1 - Villarodin Hydroelectric Power Station France",357,"","HDAM","FR",45.21466,6.71208,120,333,689900,660
"H1140","Pec Mlini Hydroelectric Power Plant Bosnia and Herzegovina - Pec Mlini Hydroelectric Power Plant Bosnia and Herzegovina",30,"","HDAM","BA",43.3375,17.3261,"",0.8,"",""
"H1141","Jajce II Hidroelektrana Bosnia and Herzegovin - Jajce II Hidroelektrana Bosnia and Herzegovin",30,"","HDAM","BA",44.4279,17.2404,"",1.3,"",""
"H1142","HE Doblar 1 - Doblar I Hydroelectric Poqwer Plant Slovenia",30,"","HDAM","SI",46.119999,13.69,"",3.6,"",""
"H1146","Chanrion",30,"","HROR","CH",45.99977203,7.350620833,"","","",""
"H1147","Les clées",30,"","HROR","CH",46.73112688,6.444992521,"","","",""
"H1148","Kuusankoski hydropower plant",30,"","HROR","FI",60.868056,26.70416,"","","",195
"H1149","Voikkaa hydropower plant",30,"","HROR","FI",60.868056,26.70416,"","","",""
"H194","Roßhag Rosshag-KW - Rosshag Pumped Storage Power Plant Austria",231,"","HDAM","AT",47.086876,11.774061,131,126.5,331100,""
"H1150","Costeshti Stinka / Stanca",30,"","HDAM","RO",47.84125,27.225417,43,1290,"",65
"H1152","Beaumont Beaumont Hydroelectric Power Station France - Beaumont Hydroelectric Power Station France",29.74724067,"","HROR","FR",43.735,5.753,"","","",""
"H1153","Saut mortier Saut Mortier Hydroelectric Power Station France - Saut Mortier Hydroelectric Power Station France",29.74724067,"","HROR","FR",46.372,5.642,"","","",""
"H1154","Marcillac - barrage la Valette",30,"","HDAM","FR",45.215,2.038,230,31,"",70
"H1155","Val beynette Val Beynette Hydroelectric Power Station France - Val Beynette Hydroelectric Power Station France",29.61783439,"","HDAM","FR",45.416,2.372,"","","",""
"H304","Taio S.Giustina Mezzocorona UP_NOCE_1",161,"","HDAM","IT",46.326132,11.063244,"","","",""
"H333","Pont ventoux",150,75,"HPHS","IT",45.141299,6.962786,520,"",540,""
"H116","DONZERE MONDRAGON - Bollene Hydroelectric Power Station France",345,"","HROR","FR",44.304001,4.742,26.7,"","",2032
"H130","Edison VENINA (UP_ALTOADDA_1)",146,"","HDAM","IT",46.160365,9.936609,"",11,"",276
"H343","Sondrio UP_SONDRIO_1",144,"","HDAM","IT",46.286138,10.265884,"","","",410
"H1162","SOBRON 1",29,"","HDAM","ES",42.820999,-3.157,"","","",""
"H1163","Galbeni",29,"","HDAM","RO",46.457917,26.952083,24,38.8,"",75
"H1164","Schaffhausen",28.9,"","HROR","CH",47.69312439,8.63042746,"","","",""
"H1166","Auzerette Auzerette Hydroelectric Power Station France - Auzerette Hydroelectric Power Station France",28.63057325,"","HDAM","FR",45.365,2.646,"","","",""
"H225","Wallsee mitterkirchen Wallsee-Mitterkirchen-KW - Wallsee- Mitterkirchen Hydroelectric Power Plant Austria",210,"","HROR","AT",48.166415,14.695103,"","","",1318
"H1168","Bannwil",28.5,"","HROR","CH",47.22937261,7.732298272,"","","",""
"H1169","Albbruck dogern",28.4,"","HROR","CH",47.58581763,8.132939485,"","","",""
"H1170","Lot Lot Hydroelectric Power Station France - Lot Hydroelectric Power Station France",28.23566879,"","HDAM","FR",44.663,2.664,"","","",""
"H242","Gerlos Gerlos-KW - Gerlos I-II Hydroelectric Power Plant Austria",200,"","HDAM","AT",47.233704,11.899669,610.5,0.85,1200,320.3
"H1172","Niederenbach",28.2,"","HDAM","CH",46.9957287,9.087131055,"","","",""
"H1173","Mokrice",28.05,"","HROR","SI",45.87102,15.67196,"","","",131
"H261","Melk Melk-KW - Melk Hydroelectric Power Plant Austria",187,"","HROR","AT",48.223472,15.304143,"","","",1221
"H375","Gargnano UP_GARGNANO_1",140,137,"HPHS","IT",45.703881,10.686097,431,"","",""
"H371","Provvidenza UP_PROVVIDEN_1",139,141,"HPHS","IT",42.511133,13.410606,"",217,147200,""
"H1178","Kraftwerksgruppe pfreimd",28,"","HROR","DE",49.55226,12.28127,"","","",""
"H278","Ottensheim wilhering Ottensheim-Wilhering-KW - Ottenheim-Wilhering Hydroelectric Power Plant Austria",179,"","HROR","AT",48.3165,14.151057,"","","",1153
"H1180","Spanchevo HPP",28,"","HDAM","BG",41.56265,23.56559,438,0.04,"",""
"H1185","Dernier",28,"","HDAM","CH",46.70209956,6.349937545,"","","",""
"H1186","ZUJAR",28,"","HDAM","ES",38.917,-5.479,"","","",""
"H1188","Kiskore hungary Kiskore Hydroelectric Power Plant Hungary - Kiskore Hydroelectric Power Plant Hungary",28,"","HDAM","HU",47.493163,20.514556,6.25,228.6,"",""
"H1189","Moux charmines Moux Charmines Hydroelectric Power Station France - Moux Charmines Hydroelectric Power Station France",27.6433121,"","HDAM","FR",46.277,5.554,"","","",""
"H119","Turlough hill Turlough Hill Unit 1 - Turlough Hill (Tomaneena) Pumped Storage Hydroelectric Power Plant Ireland",292,292,"HPHS","IE",53.0280556,-6.3930556,"",2.3,1800,""
"H1190","Wettingen dotieranlage",27.45,"","HROR","CH",47.45672815,8.32116358,"","","",""
"H1192","Licq atherey Licq-Atherey Hydroelectric Power Station France - Licq-Atherey Hydroelectric Power Station France",27.05095541,"","HDAM","FR",43.048,-0.886,"","","",""
"H1193","Kamyk republic Kamyk Hydroelectric Power Plant Czech Republic - Kamyk Hydroelectric Power Plant Czech Republic",27.04294606,"","HROR","CZ",49.633,14.2468,24,12.8,"",""
"H284","Wien freudenau Freudenau-KW - Freudenau Hydroelectric Power Plant Austria",172,"","HROR","AT",48.176872,16.481754,"","","",1052
"H290","Abwinden asten Abwinden-Asten-KW - Abwinden-Asten Hydroelectric Power Plant Austria",168,"","HROR","AT",48.248186,14.429929,"","","",995
"H1198","Parteboda",30,"","HROR","SE",62.517539,15.691329,"","","",""
"H1199","Aufkirchen",27,"","HROR","DE",48.3066864,11.858847,"","","",""
"H12","Goldisthal PSW Goldisthal PSS A - Goldisthal Pumped Storage Power Plant Germany",1060,1060,"HPHS","DE",50.50975864,11.02087498,302,12,8050,""
"H1200","Klippen",27,"","HDAM","SE",56.123701,13.11603,65,357,"",100
"H408","Entracque rovina UP_ETQ_ROVINA_1 - Entracque Chiotas-Piastra Pumped Storage Power Plant Italy",134,134,"HPHS","IT",44.22573,7.39012,598,"",2000,""
"H380","Morasco",133,"","HDAM","IT",46.376886,8.425713,64,26,"",""
"H1203","Robbia",27,"","HDAM","CH",46.34826422,10.06109217,"","","",""
"H1204","REGUEIRO (MAO) 1",27,"","HDAM","ES",42.342999,-7.475,"","","",""
"H1205","Kaltimo",27,"","HROR","FI",62.807917,30.179583,30,2000,"",14
"H1206","Kurkiaska",27,"","HROR","FI",67.4167,26.6,"","","",83.1
"H1207","Siuronkoski",26.56,"","HROR","DE",49.29579526,10.67152366,"","","",""
"H1208","Neuägeri gmde menzingen",26.44,"","HROR","CH",47.70069822,10.62564126,"","","",""
"H1209","Orsières",26.4,"","HROR","CH",46.02109359,7.142307646,"","","",""
"H121","Bitsch",340,"","HDAM","CH",46.33364617,8.00759904,750,9.2,16300,563.5
"H1210","Beauvoir Beauvoir Hydroelectric Power Station France - Beauvoir Hydroelectric Power Station France",26.36687241,"","HROR","FR",45.121,5.319,"","","",""
"H1211","Dobšiná",26.32,"","HPHS","SK",48.80591,20.38578,"","","",""
"H1212","Dravograd HE Dravograd 1 - Dravograd Hydroelectric Poqwer Plant Slovenia",26.19,"","HROR","SI",46.58558,15.01881,"","","",142
"H262","Vermuntwerk Vermunt Hydroelectric Power Plant Austria",157,"","HDAM","AT",46.96845,10.05986,53,5.3,"",""
"H1217","Öjeforsen",27,"","HDAM","SE",62.486721,16.067976,"","","",""
"H1218","Asele",27,"","HDAM","SE",64.098361,17.306503,"","","",""
"H1219","Eitting",26,"","HROR","DE",48.3585905,11.8821921,"","","",""
"H122","Aguieira - G1 - Aguieira Hydroelectric Power Plant Brazil",336,270,"HPHS","PT",40.340285,-8.196778,71.6,304,39200,209
"H1220","Ewz",26,"","HROR","CH",46.70408174,9.464068527,"","","",""
"H1221","Neubrigg",26,"","HROR","CH",46.39618146,8.134244927,"","","",""
"H1222","Rabiusa realta",26,"","HROR","CH",46.76491138,9.417903085,"","","",""
"H394","Valpelline UP_VALPELLIN_1",130,"","HDAM","IT",45.825196,7.333163,962,105.48,"",330
"H405","Avise UP_AVISE_1",126.5,"","HDAM","IT",45.700913,7.193059,972,2.345,"",""
"H362","Feldsee Kraftwerk Feldsee - Feldsee Pumped Storage Power Plant Austria",140,"","HPHS","AT",46.9985746,13.0418733,"",1.65,"",""
"H247","Jochenstein Jochenstein Hydroelectric Power Plant Austria - Jochenstein Hydroelectric Power Plant Austria",66,"","HROR","AT",48.5191878,13.7079666,"","","",850
"H123","Raul Mare (Retezat) Hydroelectric Power Station Romania - Raul Mare (Retezat) Hydroelectric Power Station Romania",335,"","HDAM","RO",45.3391,22.7213,168,220,"",650
"H1232","Tiefencastel west",26,"","HROR","CH",46.66440166,9.562703474,"","","",""
"H1233","Slatina",26,"","HDAM","RO",44.407917,24.354583,26,19.2,"",82
"H1234","Santa Luzia",25.9,"","HDAM","PT",40.5,-7.51,76,50.5,34200,54
"H1235","Nové mesto Nove Mesto n,V, Hydroelectric Power Plant Slovakia - Nove Mesto n,V, Hydroelectric Power Plant Slovakia",25.7,"","HROR","SK",48.77245,17.85146,"","","",""
"H1236","Beznau",25.7,"","HROR","CH",47.55780513,8.23714123,"","","",""
"H36","Żarnowiec Zarnowiec H1 - Zarnowiec Pumped Storage Hydroelectric Power Plant Poland",716,800,"HPHS","PL",54.722272,18.082356,119.3,"",6000,""
"H1238","Horná streda Horna Streda Hydroelectric Power Plant Slovakia - Horna Streda Hydroelectric Power Plant Slovakia",25.5,"","HROR","SK",48.66046,17.85503,"","","",""
"H1239","Kostolná Kostolna Hydroelectric Power Plant Slovakia - Kostolna Hydroelectric Power Plant Slovakia",25.5,"","HROR","SK",48.86096,17.96874,"","","",""
"H124","Pournari",334,"","HDAM","EL",39.1845,21.0255,87,730,50000,540
"H1240","Dabbsjö",26,"","HDAM","SE",64.607742,15.465791,45,337,"",97
"H1241","LA SERENA",25,"","HDAM","ES",38.912998,-5.413,125,3219,421000,""
"H425","Malta oberstufe Malta-Oberstufe-KW - Malta Oberstufe Pumped Storage Power Plant Austria",120,"","HDAM","AT",47.065944,13.353102,200,200,588300,37.4
"H427","Schwarzach Kaprun-Schwarzach-KW Limberg",120,"","HDAM","AT",47.315375,13.138786,138.7,1.8,"",482
"H478","Oschenik innerfragant Innerfragant Pumped Storage Power Plant Austria - Innerfragant Pumped Storage Power Plant Austria",108,100,"HPHS","AT",47.1374819,12.3273397,110,30,"",""
"H487","KW Laufenburg",106,"","HROR","AT",47.662998,13.607,"","","",""
"H1047","Hintermuhr",104,86,"HPHS","AT",47.79940564,13.04399014,"",15,"",""
"H125","Juktan",26,"","HDAM","SE",65.29,17.22,275,"","",""
"H1250","Medvode HE Medvode 1 - Medvode Hydroelectric Poqwer Plant Slovenia",25,"","HDAM","SI",46.14578,14.41438,30,7,"",77
"H1251","Gars",25,"","HROR","DE",48.15395,12.31107,"","","",""
"H1252","Geisling",25,"","HROR","DE",48.974806,12.344002,"","","",""
"H1253","Broc",25,"","HROR","CH",46.60985762,7.109306753,"","","",""
"H1254","Teufelsbruck",25,"","HROR","DE",48.05736,12.22093,"","","",""
"H1255","Uppenborn",25,"","HROR","DE",48.473474,11.95481,"","","",""
"H1256","Juktans Storjuktan- Dammen",26,"","HDAM","SE",65.292975,17.2233,22,577,"",""
"H423","Cardano UP_CARDANO_1",121,"","HROR","IT",46.494973,11.395485,"","","",""
"H428","Lana UP_LANA_1",120,"","HROR","IT",46.6073775,11.1613274,"","","",""
"H429","Isola serafini",120,"","HROR","IT",45.089969,9.93657,"","","",""
"H126","Trängslet Trangslet G1 - Trängslet Hydroelectric Power Plant Sweden",330,"","HDAM","SE",61.381645,13.731379,125,880,"",670
"H455","Capriati UP_CAPRIATI_1",120,113,"HPHS","IT",41.476824,14.128279,654,"","",""
"H436","Riva garda nuovo",117,"","HPHS","IT",45.883103,10.837735,"","","",""
"H518","Braunau simbach",100,"","HROR","AT",48.244957,13.0075,"","","",549
"H521","Kraftwerk außerfragant Kraftwerk Ausserfragant",100,"","HDAM","AT",46.9380556,13.1097222,"","","",""
"H523","Glendoe Hydro GLNDO-1",100,"","HDAM","UK",57.132999,-4.683,632,8,"",180
"H1265","Shkopet",24,"","HDAM","AL",41.692083,19.832917,35.6,140,"",94
"H1268","Lostallo",25,"","HROR","CH",46.32195766,9.209030788,"","","",""
"H1269","KAVO Koivukoski III",25,"","HROR","FI",64.2267,27.7356,"","","",""
"H127","Vietas Vietas G1 - Vietas Hydroelectric Power Station Sweden",330,"","HDAM","SE",67.493432,18.353512,83,5900,"",1010
"H1270","Kokkosniva",25,"","HROR","FI",66.91193,26.265552,"","","",79
"H1271","Mankala",25,"","HROR","FI",60.91714,26.182494,"","","",""
"H1272","Varosa",25,"","HDAM","PT",41.07,-7.46,"",12.9,"",60
"H1273","Russein",24.87,"","HROR","CH",46.72028184,8.898568347,"","","",""
"H1274","Krpeľany Kreplany Hydroelectric Power Plant Slovakia - Kreplany Hydroelectric Power Plant Slovakia",24.75,"","HROR","SK",49.12796,19.0955,"","","",""
"H1275","Eygliers Eygliers Hydroelectric Power Station France - Eygliers Hydroelectric Power Station France",24.68152866,"","HDAM","FR",44.672,6.65,"","","",""
"H1276","Hautefage Hautefage Hydroelectric Power Station France - Hautefage Hydroelectric Power Station France",24.68152866,"","HDAM","FR",45.06,1.994,"","","",""
"H1277","Cernaleve 1/2",24.4,"","HROR","AL",42.02941667,20.55555278,"","","",111.34
"H1279","Bele 1/2",16,"","HROR","AL",42.06903611,20.46006667,"","","",108.53
"H1280","Oresheke",24.26,"","HROR","AL",42.02874167,20.53076389,"","","",108.5
"H1281","Kalin + Kamenitsa + Pastra + Rila HPP",24.2,"","HDAM","BG",42.07,23.13,1800,2.2,"",""
"H1282","Wasserburg",24.1,"","HROR","DE",48.05699,12.22074,"","","",""
"H1283","Miljacka - Maljacka Hydroelectric Power Plant Croatia Croatia",24,"","HROR","HR",44.001999,16.018999,"","","",""
"H344","Schärding neuhaus",96,"","HROR","AT",48.4355526,13.44094485,"","","",541
"H1285","Detzem",24,"","HROR","DE",49.810941,6.843882,"","","",""
"H559","Annabrücke Annabruecke Hydroelectric Power Plant Austria - Annabruecke Hydroelectric Power Plant Austria",90,"","HROR","AT",46.561407,14.479829,"","","",390
"H1287","Vittjärv Vittjarv Hydroelectric Power Station Sweden - Vittjarv Hydroelectric Power Station Sweden",25.14110477,"","HDAM","SE",65.8460275,21.5538235,"","","",""
"H463","Montorio UP_MONTORIO_1",110,"","HROR","IT",42.6612893,13.6983524,"","","",""
"H464","Torbole UP_TORBOLE_1",110,"","HROR","IT",45.882608,10.882742,"","","",""
"H570","Gemeinschaftskraftwerk inn",89,"","HROR","AT",47.062954,10.662868,"","","",414
"H511","Seled glorenza SELED GLORENZA",101.6,"","HDAM","IT",46.6879187,10.5465492,"","","",""
"H571","Imst",89,"","HROR","AT",47.212246,10.721519,"","","",550
"H1292","Cunovo Hydroelectric Power Plant Slovakia - Cunovo Hydroelectric Power Plant Slovakia",24,"","HROR","SK",48.02987,17.2254,"","","",""
"H643","Errochty ERRO-1",75,"","HDAM","UK",56.707001,-4.02,42,32.48,"",103
"H645","Fasnakyle FASN-1",74,"","HROR","UK",57.382,-4.881,"","","",254
"H1298","Peuffeyre",24,"","HROR","CH",46.26598336,7.061717565,"","","",""
"H1299","Raiva Raiva - Raiva Hydroelectric Power Plant Portugal",24,"","HDAM","PT",40.3095,-8.2488,34,12,"",44.9
"H13","Markersbach PSW Markersbach PSS A - Markersbach Pumped Storage Power Plant Germany",1045.2,1050,"HPHS","DE",50.51938,12.87976,285,6.3,3989,""
"H512","Mucone",101.44,"","HDAM","IT",39.476646,16.290828,"","","",""
"H1300","Myllykosken vesivoimalaitos VVA2",24,"","HROR","FI",60.868056,26.70416,"","","",15
"H1301","Chaudanne Chaudanne Hydroelectric Power Station France - Chaudanne Hydroelectric Power Station France",23.99044586,"","HDAM","FR",43.848,6.544,"","","",""
"H1302","Turtmann",23.9,"","HDAM","CH",46.29540226,7.685998364,33,0.78,"",""
"H1303","Hagneck",23.87,"","HROR","CH",47.05962457,7.178008446,"","","",""
"H1304","Bergheim",23.7,"","HROR","DE",48.750807,11.273237,"","","",""
"H575","Feistritz ludmannsdorf Feistritz-Ludmannsdorf-KW - Feistritz-Ludmannsdorf Hydroelectric Power Plant Austria",88,"","HDAM","AT",46.534807,14.170814,"","","",""
"H1307","Flumenthal",23.4,"","HROR","CH",47.22910691,7.589951686,"","","",""
"H1308","Monthey vièze",23.4,"","HROR","CH",46.24926021,6.947207053,"","","",""
"H1309","Vila Cova",23.4,"","HROR","PT",40.22,-7.43,"","","",64
"H131","Ricobayo RICOBA II1 - Ricobayo Hydroelectric Power Plant Spain",326.57,"","HDAM","ES",41.5260254,-5.9845018,302.9,1145,"",""
"H1310","Vohburg",23.3,"","HROR","DE",48.778103,11.60119,"","","",""
"H1311","Stammham",23.2,"","HROR","DE",48.24932,12.86469,"","","",""
"H377","Ceresole - Rosone (Locana)",98.6,"","HDAM","IT",45.435348,7.418466,813,34,"",250
"H534","Cogolo",98,"","HROR","IT",46.362907,10.672964,"","","",""
"H540","Boazzo",95,"","HDAM","IT",45.947196,10.62107,"","","",""
"H572","Bressanone",89,"","HROR","IT",46.71503251,11.65597916,"","","",""
"H582","Castelbello",87,"","HROR","IT",46.628316,10.906664,"","","",""
"H618","Gaudalami - Piana degli Albanesi",85,80,"HPHS","IT",37.9937488,13.2882915,"","","",""
"H581","Edling Edling-KW - Edling Hydroelectric Power Plant Austria",87,"","HROR","AT",46.628959,14.701371,"","","",401
"H132","MEQUINENZA",324,"","HDAM","ES",41.368999,0.274,81,1533.8,265000,593
"H1321","Ruppoldingen",23,"","HROR","CH",47.31229156,7.877702174,"","","",""
"H1322","Racova",23,"","HDAM","RO",46.695417,26.712917,20,8.66,"",60
"H1323","Cize bolozon Cize Bolozon Hydroelectric Power Station France - Cize Bolozon Hydroelectric Power Station France",22.70700637,"","HDAM","FR",46.211,5.465,"","","",""
"H1325","Stechovice-I Hydroelectric Power Plant Czech Republic - Stechovice-I Hydroelectric Power Plant Czech Republic",22.5,"","HDAM","CZ",49.84625,14.42176,22.5,11.2,"",""
"H1326","Sklope Sklope - Sklope Hydroelectric Power Plant Croatia Croatia",22.5,"","HROR","HR",44.6895,15.2706,"","","",84.6
"H1327","Kokalyane HPP",22.4,"","HDAM","BG",42.58398,23.42819,98.5,2.7,"",""
"H1328","Stara Zagora HPP",22.4,"","HROR","BG",42.4452,25.6364,132,142.4,"",62
"H1329","Pfrombach",22.3,"","HROR","DE",48.44132,11.99233,"","","",""
"H133","Biasca",324,"","HDAM","CH",46.33498852,8.982649599,92,4.6,"",658
"H1331","Triouzoune Hydroelectric Power Station France - Triouzoune Hydroelectric Power Station France",22,"","HDAM","FR",45.347,2.349,27,24,"",""
"H1332","Touvedo Touvedo - Touvedo Hydroelectric Power Plant Portugal",22,"","HDAM","PT",41.8124,-8.354,42,4.5,200,66.8
"H399","Passau ingling",86,"","HROR","AT",48.5534887,13.43444355,"","","",504
"H586","Walgauwerk Walgau Hydroelectric Power Plant Austria",86,"","HROR","AT",47.198858,9.669638,"","","",""
"H1337","Martigny bourg",22,"","HROR","CH",46.08830987,7.059069767,"","","",""
"H1338","Halvfari",24,"","HDAM","SE",62.41656,13.531137,"","","",""
"H596","Castrocucco",83,"","HDAM","IT",40.026604,15.774674,"","","",""
"H134","Sainte Helene - La Coche",320,340,"HPHS","FR",45.49667,6.51038,34,2.1,930,""
"H3314","Telessio - Eugio - Rosone",82.4,"","HDAM","IT",45.433313,7.417422,1217,27.95,"",200
"H1341","Kokin Brod Hydroelectric Power Plant Serbia - Kokin Brod Hydroelectric Power Plant Serbia",22.7,"","HDAM","RS",43.5189,19.8115,"",250,"",""
"H1342","Seekraftwerk zervreila",22,"","HDAM","CH",46.57894959,9.119315564,151,"","",""
"H1343","Lura 1/3",16.22,"","HROR","AL",41.81460833,20.21796944,"","",49.52,106.616528
"H1344","Orava Orava Hydroelectric Power Plant Slovakia - Orava Hydroelectric Power Plant Slovakia",21.75,"","HROR","SK",49.37534,19.55849,"","","",""
"H1346","Tuilieres Tuilieres Hydroelectric Power Station France - Tuilieres Hydroelectric Power Station France",21.63435685,"","HROR","FR",44.845,0.633,"","","",""
"H1347","Straubing",21.5,"","HROR","DE",48.89659,12.55752,"","","",""
"H135","PSW Hohenwarte II PSS A",320,"","HPHS","DE",50.615002,11.492,304,3,2027,""
"H1350","Saint cassien Saint Cassien Hydroelectric Power Station France - Saint Cassien Hydroelectric Power Station France",21.42356688,"","HDAM","FR",43.602,6.841,"","","",""
"H1351","Hällforsens",22,"","HDAM","SE",64.58337,18.69227,"","","",""
"H1352","Pirin HPP",21.2,"","HDAM","BG",41.5745,23.5626,456,0.06,"",""
"H1355","Näs Nas Hydroelectric Power Plant Sweden - Nas Hydroelectric Power Plant Sweden",21.34713376,"","HDAM","SE",60.1749285,16.476273,"","","",""
"H619","Baschi",80,"","HDAM","IT",42.672832,12.21796,"","","",""
"H642","Albi Magisano",73,"","HDAM","IT",39.01339,16.6279,"","","",""
"H608","Kraftwerk Oschenik",81,"","HPHS","AT",46.987999,13.106,"","","",""
"H3433","Lochaber",65,"","HDAM","UK",56.889722,-4.673333,48,40,"",""
"H136","Kastraki KASTRAKI - Kastraki Hydroelectric Power Plant Greece",320,"","HDAM","EL",38.7415,21.3642,95.7,950,25000,930
"H1361","BELESII",21,"","HDAM","ES",42.629002,-7.712,"","","",""
"H1362","HE Moste 1 - Moste Hydroelectric Power Plant Slovenia",21,"","HDAM","SI",46.417,14.133,60,5.464,"",56
"H1363","Leppikoski",21,"","HROR","FI",64.33,27.8,"","","",""
"H1364","Vajukoski",21,"","HROR","FI",67.691433,26.802883,"","","",81
"H1365","Colibita",21,"","HDAM","RO",47.165417,24.877917,92,75.22,"",41
"H1366","Spina isola",20.9,"","HDAM","CH",46.43113436,9.206999104,45,6.5,"",""
"H1367","Bürglen unterschächen",20.8,"","HROR","CH",46.87652924,8.663371668,"","","",""
"H1368","Calancasca",20.8,"","HROR","CH",46.23920795,9.118549621,"","","",""
"H1369","Lanau Lanau Hydroelectric Power Station France - Lanau Hydroelectric Power Station France",20.73248408,"","HDAM","FR",44.891,3.003,"","","",""
"H137","Ritsem Ritsem G1 - Ritsem Hydro Power Station Sweden",304,"","HDAM","SE",67.729796,17.48494,173,600,"",491
"H50","Porąbka żar Porabka Zar H1 - Porabka-Zar Pumped Storage Power Plant Poland",540,"","HPHS","PL",49.7704966,19.2116631,440,"",2000,""
"H1371","Wernisberg",20.4,"","HROR","CH",46.99621882,8.651244257,"","","",""
"H1372","Haminan höyrykattilalaitos",20.3,"","HROR","DE",51.520132,14.337383,"","","",""
"H1373","Ponte de Jugais",20.3,"","HROR","PT",40.23,-7.42,"","","",57
"H1374","Brillanne & Brillanne I & II Hydroelectric Power Station France - Brillanne I & II Hydroelectric Power Station France",20.28220955,"","HROR","FR",43.921,5.925,"","","",""
"H1375","Bittenbrunn",20.2,"","HROR","DE",48.734459,11.14382,"","","",""
"H1376","Wynau",20.2,"","HROR","CH",47.25625228,7.786083656,"","","",""
"H616","Rosegg st, jakob Rosegg-St, Jakob-KW - Rosegg-St, Jakob Hydroelectric Power Plant Austria",80,"","HROR","AT",46.569737,14.026774,"","","",""
"H624","Schwabeck Schwabeck-KW - Schwabeck Hydroelectric Power Plant Austria",79,"","HROR","AT",46.658193,14.873028,"","","",""
"H1382","Matfors",21,"","HDAM","SE",62.291942,17.381985,"","","",""
"H1383","Volgsjöfors",20,"","HDAM","SE",64.307632,15.71261,"","","",""
"H1384","Plave HE Plave - Plave II Hydroelectric Poqwer Plant Slovenia",20,"","HROR","SI",46.05256,13.60608,"","","",""
"H1385","Hemfurth",20,"","HDAM","DE",51.167139,9.046832,45,199.3,"",""
"H1386","Lehmen",20,"","HROR","DE",50.274724,7.458957,"","","",""
"H1387","Bremgarten zufikon",20,"","HROR","CH",47.34365443,8.345628025,"","","",""
"H1388","Wintrich",20,"","HROR","DE",49.879784,6.948762,"","","",""
"H1389","Alfta",20,"","HROR","SE",61.341075,16.006847,"","","",""
"H139","Sfikia SFIKIA - Sfikia Hydroelectric Power Plant Greece",315,315,"HPHS","EL",40.3856573,22.2113777,81,18,1320,""
"H393","Edison Cedegolo",72,"","HROR","IT",46.243788,10.457249,"","","",""
"H677","Cadarese",68,"","HROR","IT",46.262983,8.327813,"","","",""
"H684","Torrite",67,"","HDAM","IT",44.12125,10.404598,"","","",""
"H739","Chiavenna",66.9,"","HROR","IT",46.307194,9.395236,"","","",""
"H698","Nove",65,"","HROR","IT",45.9766667,12.3033333,"","","",""
"H758","Satriano",64.9,"","HROR","IT",38.666883,16.481205,"","","",""
"H708","Lasa",64,"","HDAM","IT",46.616614,10.700159,"","","",""
"H3412","Centrale di Ampezzo",62.1,"","HDAM","IT",46.4277312,12.7834987,480,66,"",""
"H717","Ponte gardena",62,"","HROR","IT",46.597121,11.530879,"","","",""
"H3426","Edison Belviso",62,"","HROR","IT",46.160817,10.086202,"","","",128
"H738","Bussento",60,"","HROR","IT",40.139505,15.554868,"","","",""
"H140","VISEGRAD - Visegrad Hydroelectric Power Plant Bosnia and Herzegovina",315,"","HDAM","BA",43.759998,19.289,79.5,161,"",1120
"H625","Jenbach",79,"","HROR","AT",47.393249,11.788647,"","","",""
"H725","Clunie Cascade CLUN-1",61,"","HDAM","UK",56.771999,-3.353,21,36.359,"",186
"H3432","Rheidol",55.975,"","HROR","UK",52.4076,-3.8772,"","","",""
"H870","Rannoch RANN-1",48,"","HROR","UK",56.699001,-4.408,6,64,"",187
"H904","Lochay",45,"","HROR","UK",56.509998,-4.228,"","","",175
"H1407","Luzzone",20,"","HROR","CH",46.56525608,8.96078316,"","","",""
"H1408","DOMENO",20,"","HDAM","ES",39.738998,-0.929,"","","",""
"H1409","LAS PICADAS 1",20,"","HDAM","ES",40.333,-4.249,"","","",""
"H141","Puente Bibey",285,68,"HPHS","ES",42.263793,-7.387519,361,"","",""
"H1410","Ingolstadt",19.8,"","HROR","DE",48.750317,11.412153,"","","",""
"H241","Solina Solina - Solina Pumped Storage Hydroelectric Power Plant Poland",200,"","HPHS","PL",49.3958323,22.4606916,"","",840,""
"H1413","Perach",19.4,"","HROR","DE",48.0261021,12.789632,"","","",""
"H1415","Prem",19.2,"","HROR","DE",47.692726,10.797592,"","","",""
"H1416","Raven Hydroelectric Power Plant Macedonia - Raven Hydroelectric Power Plant Macedonia",19.2,"","HROR","MK",41.7791,20.8563,"","","",""
"H1417","Cassarate franscinone",19.14,"","HROR","CH",46.04799263,8.97466556,"","","",""
"H982","Clachan CLAC-1",40,"","HROR","UK",56.282002,-4.93,"","","",82
"H1419","Reichenau",19.06,"","HROR","CH",46.83773371,9.447331014,"","","",""
"H1420","Monceaux La Virolle Hydroelectric Power Station France - Monceaux La Virolle Hydroelectric Power Station France",19,"","HDAM","FR",45.576,1.84,32,20.5,"",""
"H626","Schwabeck-KW - Schwabeck Hydroelectric Power Plant Austria",79,"","HDAM","AT",46.658001,14.873,"","","",""
"H640","Ferlach maria rain Ferlach-Maria Rain-KW - Ferlach-Maria Rain Hydroelectric Power Plant Austria",75,"","HDAM","AT",46.546625,14.298528,"","","",""
"H740","Vinadio",60,"","HROR","IT",44.309025,7.176025,"","","",""
"H3427","Edison Ganda",60,"","HDAM","IT",46.171156,10.06145,137,50,"",104
"H3428","Edison Sonico",60,"","HROR","IT",46.161206,10.352905,"","","",148.9
"H858","Lovero",57.9,"","HROR","IT",45.811688,10.06896,109,"","",""
"H774","Ardenno",56,"","HROR","IT",46.164292,9.644944,"","","",""
"H1429","EDESSAIOS",19,"","HROR","EL",40.804001,22.056684,"","","",""
"H143","Perucica Hydroelectric Power Plant Montenegro - Perucica Hydroelectric Power Plant Montenegro",307,"","HROR","ME",42.6718,18.9951,"","","",1300
"H1430","He Plave 1 - Plave I Hydroelectric Poqwer Plant Slovenia",19,"","HDAM","SI",46.042,13.598,"",0.96,"",""
"H1431","Kandergrund",19,"","HROR","CH",46.5427474,7.6594866,"","","",""
"H1432","PEAREII",19,"","HDAM","ES",42.465,-7.724,"","","",""
"H1433","Bertoldsheim",18.9,"","HROR","DE",48.735932,11.020923,"","","",""
"H1434","Ladce",18.9,"","HROR","SK",49.04976,18.29794,"","","",""
"H1435","Trier",18.8,"","HROR","DE",49.728029,6.624451,"","","",""
"H1436","Parki",20,"","HDAM","SE",66.830913,18.97472,28,460,"",86
"H1437","Spiez",18.66,"","HROR","CH",46.69665104,7.664951472,"","","",""
"H1015","Deanie",38,"","HROR","UK",57.382,-4.881,"","","",92
"H1439","Enkirch",18.4,"","HROR","DE",49.97667,7.127777,"","","",""
"H1053","Moriston Cascade CEAN-1",36,"","HROR","UK",57.155998,-4.936,"","","",153
"H1440","Oelberg",18.3,"","HDAM","CH",46.80170595,7.167340809,"","","",""
"H1441","Truel Truel Hydroelectric Power Station France - Truel Hydroelectric Power Station France",18.25398859,"","HROR","FR",44.06,2.769,"","","",""
"H473","Ering",73,"","HROR","AT",48.29207045,13.1589383,"","","",434
"H656","Großraming",72,"","HROR","AT",47.892954,14.512341,"","","",270
"H1444","Erlenbach",18,"","HROR","CH",46.65688216,7.548118912,"","","",""
"H1445","Yngeredsfors",18.8,"","HDAM","SE",57.0531,12.778165,"","","",""
"H775","Monastero",56,"","HROR","IT",46.171791,9.430139,"","","",""
"H789","Andonno c,",55,"","HROR","IT",44.314628,7.482432,"","","",""
"H790","Val noana",55,"","HDAM","IT",46.149311,11.789193,"","","",""
"H843","Montjovet",50,"","HROR","IT",45.707963,7.67411,"","","",""
"H844","Pieve vergonte",50,"","HROR","IT",46.012976,8.260816,"","","",""
"H845","Verampio",50,"","HROR","IT",46.210781,8.320614,"","","",""
"H2485","Nus",48,"","HROR","IT",45.7395178,7.4459142,"","","",""
"H865","Acquoria",48,"","HROR","IT",41.960922,12.798884,"","","",""
"H866","Bordogna",48,"","HROR","IT",45.951788,9.700749,"","","",""
"H3429","maentwrog",35.3,"","HROR","UK",52.946,-3.9879,"","","",""
"H1078","Luichart",34,"","HDAM","UK",57.775002,-4.955,16,62,"",135
"H1459","Sanetsch",18,"","HDAM","CH",46.37642613,7.277999853,42,2.6,"",""
"H1460","PORTO",18,"","HDAM","ES",42.161999,-6.921,"","","",""
"H1461","Kuurna",18,"","HROR","FI",60.291349,25.31687,"","","",""
"H1462","Lugasu",18,"","HDAM","RO",47.059583,22.30375,29,65.4,"",35
"H1463","Tileagd",18,"","HDAM","RO",47.07875,22.207917,37,52.9,"",35
"H1464","Altheim",17.8,"","HROR","DE",51.536513,14.382898,"","","",""
"H1466","Dallenwil",17.75,"","HROR","CH",46.91166368,8.393608875,"","","",""
"H1467","Turinge",18,"","HDAM","SE",59.2,17.45,"","","",""
"H867","Carona",48,"","HDAM","IT",46.02139,9.78285,"","","",""
"H868","Cassino",48,"","HROR","IT",41.48762,13.831513,"","","",""
"H869","Varzo",48,"","HROR","IT",46.20668,8.252412,"","","",""
"H679","Reißeck-Tagesspeicher-KW",68,"","HDAM","AT",47.077999,13.417,"",17.15,68600,54.8
"H690","Kraftwerk Wurten",66,"","HDAM","AT",46.987999,13.106,502,2.58,"",""
"H705","Hieflau erzbach",64,"","HDAM","AT",47.6057785,14.7429955,83.5,1.66,"",388
"H560","Oberaudorf ebbs",60,"","HROR","AT",47.641244,12.198715,"","","",268
"H1480","Keltti hydropower plant",17,"","HROR","FI",60.875636,26.712925,"","","",""
"H1481","Tyrvään vesivoimalaitos",17,"","HROR","FI",61.34537,22.905473,"","","",""
"H1482","Aarau stadt",16.93,"","HROR","CH",47.39478173,8.035874583,"","","",""
"H1483","Kaufering",16.7,"","HROR","DE",48.084026,10.864936,"","","",""
"H1484","Flasjön",17.38661001,"","HDAM","SE",60.0833333,13.9833333,55,400,"",64
"H1485","Dornau",16.6,"","HROR","DE",47.8001993,10.9026434,"","","",""
"H1487","Dubnica Dubnica nad Vahom Hydroelectric Power Plant Slovakia - Dubnica nad Vahom Hydroelectric Power Plant Slovakia",16.5,"","HROR","SK",48.96319,18.1451,"","","",""
"H1488","Klosters",16.5,"","HDAM","CH",46.86101451,9.895574046,"","","",""
"H1079","Tummel Bridge TUMB-1",34,"","HROR","UK",56.673,-4.147,"","","",142
"H149","Malgovert",297,"","HDAM","FR",45.61787,6.79074,180,230,407100,""
"H1490","Klosters Hydroelectric Power Plant Switzerland - Klosters Hydroelectric Power Plant Switzerland",16.5,"","HROR","CH",46.861086,9.895629,"","","",""
"H1491","Fankel",16.4,"","HROR","DE",50.123918,7.225915,"","","",""
"H1492","Müden",16.4,"","HROR","DE",52.521937,10.360381,"","","",""
"H1493","Neef",16.4,"","HROR","DE",50.087362,7.135809,"","","",""
"H1496","Lazer le Lazer (Le) Hydroelectric Power Station France - Lazer (Le) Hydroelectric Power Station France",16.28980892,"","HDAM","FR",44.346,5.868,"","","",""
"H1497","Niederaichbach",16.2,"","HROR","DE",48.6039132,12.3023425,"","","",""
"H1498","Trenčín Trencin Hydroelectric Power Plant Slovakia - Trencin Hydroelectric Power Plant Slovakia",16.1,"","HROR","SK",48.90208,18.05579,"","","",""
"H1499","Zwingen obermatt",16.03,"","HROR","CH",47.43649446,7.523992778,"","","",""
"H880","Bussolengo",47,"","HROR","IT",45.469186,10.850584,"","","",""
"H150","Montelimar MONTELIMAR - Chateauneuf Du Rhone Hydroelectric Power Station France",285,"","HROR","FR",44.59281,4.72593,19,"","",""
"H735","Amlach",60,"","HROR","AT",46.8142048,12.761757,"","","",""
"H753","Soelk-KW",59,"","HDAM","AT",47.433998,13.949,"","","",206
"H759","Hieflau-KW",58,"","HDAM","AT",47.602001,14.764,"","","",""
"H822","St, pantaleon",52,"","HROR","AT",48.224936,14.53116,"","","",239
"H1506","Heimbach",16,"","HROR","DE",50.628568,6.451776,"","","",""
"H1507","Koblenz",16,"","HROR","DE",50.365855,7.58171,"","","",""
"H889","Palazzo",46,"","HROR","IT",39.799101,15.90748,"","","",""
"H890","Caffaro",46,"","HROR","IT",45.82078451,10.52706957,"","","",132.7
"H151","Chastang CHASTANG (LE) 1 - Chastang Hydroelectric Generating Station France",293,"","HDAM","FR",45.15185,2.00985,85,187,"",""
"H918","Sistema Alto Flumendosa Bau Muggeris Sa Teula",45.6,"","HDAM","IT",39.9622222,9.5055556,58.7,58.48,"",99.897
"H841","Koralpe Koralpe Pumped Storage Power Plant Austria - Koralpe Pumped Storage Power Plant Austria",50,38,"HPHS","AT",46.6407766,14.9488018,"",16.2,"",""
"H864","Nussdorf Vienna",6.5,"","HROR","AT",48.29849,16.348,"","","",24.7
"H678","Kreuzeck-Tagesspeicher-KW",45,"","HDAM","AT",47.083,13.411,"","","",163
"H1514","Vranov",16,"","HDAM","CZ",48.907917,15.817083,59,122.665,"",""
"H912","Böckstein",44.5,"","HDAM","AT",47.79940564,13.04399014,"","","",""
"H1521","Lieksankoski",16,"","HROR","FI",63.338769,30.031884,"","","",76.3
"H1522","Hateg",16,"","HDAM","RO",45.59125,22.95875,32,12.5,"",21
"H1523","Alarcon Alarcon Hydroelectric Power Plant Spain - Alarcon Hydroelectric Power Plant Spain",15.89,"","HDAM","ES",39.565,-2.113056,523.9,1118,"",""
"H1524","Bisisthal",15.8,"","HROR","CH",46.94662168,8.827997746,"","","",""
"H1525","Sernf",15.7,"","HROR","CH",46.9957287,9.087131055,"","","",""
"H1526","Bullerforsen",16.69114561,"","HDAM","SE",60.508889,15.436944,"","","",""
"H1527","Montcherand",15.5,"","HROR","CH",46.72720572,6.513486623,"","","",""
"H1529","Morobbia",15.5,"","HROR","CH",46.16806361,9.016899527,"","","",""
"H927","Staning",43,"","HROR","AT",48.098607,14.468763,"","","",""
"H1531","Aarberg Aarberg Hydroelectric Power Plant Switzerland - Aarberg Hydroelectric Power Plant Switzerland",15.2,"","HROR","CH",47.0378524,7.271927211,"","","",""
"H1532","BEMBEZAR",15,"","HDAM","ES",37.903,-5.207,56.9,342,53000,""
"H1533","GUADALMENA 1",15,"","HDAM","ES",38.356998,-2.921,103,347,86000,""
"H956","Malta unterstufe Malta-Unterstufe-KW - Malta Unterstufe (Moellbruecke) Hydroelectric Power Plant Austria",41,"","HDAM","AT",46.8332,13.360071,"",0.5,"",120
"H1542","Ilava Ilava Hydroelectric Power Plant Slovakia - Ilava Hydroelectric Power Plant Slovakia",15,"","HROR","SK",49.00567,18.23494,"","","",""
"H1543","Bigge",15,"","HROR","DE",51.093173,7.86272,"","","",""
"H1544","Dingolfing",15,"","HROR","DE",48.63404,12.48369,"","","",""
"H1545","Fätschbach",15,"","HROR","CH",46.91551045,8.987901562,"","","",""
"H1546","Kubel",15,"","HROR","CH",47.40190948,9.323640638,"","","",""
"H971","Ternberg",40,"","HROR","AT",47.941095,14.35266,"","","",""
"H1548","Skymnäs",15.6,"","HDAM","SE",62.9166667,15.0166667,"","","",""
"H903","Pont st. martin",45,"","HROR","IT",45.595361,7.794514,"","","",""
"H928","S, angelo",43,"","HDAM","IT",42.55,12.6833333,"","","",""
"H929","Dossi",43,"","HDAM","IT",46.034193,10.005855,"","","",""
"H930","Rovesca",43,"","HDAM","IT",46.060376,8.114612,"","","",""
"H435","Isolato spluga ISOLATO SPLUGA",42.8,"","HDAM","IT",46.443064,9.334613,641.55,32,"",50
"H1264","Inverawe INAW-1",25,"","HROR","UK",56.408001,-5.112,"",10,"",106
"H1293","Grudie Bridge GRUB-1",24,"","HROR","UK",57.775002,-4.955,"","","",87
"H1294","Shin SHIN-1",24,"","HROR","UK",57.944,-4.417,"","","",125
"H3430","Glenlee",24,"","HROR","UK",54.941,-3.9278,"","","",""
"H990","Losenstein",39,"","HROR","AT",47.923315,14.433857,"","","",""
"H1561","Niederried Niederried-Radelfingen Hydroelectric Power Plant Switzerland - Niederried-Radelfingen Hydroelectric Power Plant Switzerland",15,"","HROR","CH",47.00317218,7.241135671,"","","",""
"H1562","BEJO",15,"","HDAM","ES",43.112,-4.441,"","","",""
"H1564","Pankakoski",15.3,"","HROR","FI",63.323397,30.143619,"","","",66.1
"H1565","Valcele",15,"","HDAM","RO",44.982917,24.742083,35,54.8,"",28
"H1566","Zigoneni",15,"","HDAM","RO",45.082917,24.662917,29,13.3,"",26
"H1567","Gummering",14.8,"","HROR","DE",48.622456,12.398037,"","","",""
"H1568","Blybergs kraftverk",15,"","HDAM","SE",61.146912,14.146147,"","","",""
"H1569","Unteraa melchaa",14.31,"","HROR","CH",46.87706055,7.998592231,"","","",""
"H157","CORTES 1",284,"","HDAM","ES",39.242199,-0.8782,"","","",""
"H1570","Unteropfingen",14.2,"","HROR","DE",48.0612649,10.1284379,"","","",""
"H1571","Bannalp",14.1,"","HDAM","CH",46.88030374,8.421259962,32,1.7,"",""
"H1572","Traryd",14.4,"","HDAM","SE",56.584337,13.756098,"","","",""
"H1007","Garsten st, ulrich",38,"","HROR","AT",48.018488,14.411714,"","","",""
"H1032","Weyer",37,"","HROR","AT",48.14650327,14.1176033,"","","",""
"H1578","Landafors",14.08315411,"","HDAM","SE",61.25,16.6333333,"","","",""
"H1579","Schwammenauel",14,"","HROR","DE",50.628507,6.479111,"","","",""
"H1580","Melchsee frutt",14,"","HDAM","CH",46.79964631,8.281452614,16,2.73,"",""
"H1001","Pracomune",42,35.6,"HPHS","IT",46.5478079,11.0070771,377,"","",""
"H941","Signayes",42,"","HROR","IT",45.73736,7.316601,"","","",""
"H2482","Centrale di Covalou",41,"","HROR","IT",45.7743331,7.5951308,"","","",""
"H957","Creva",41,"","HROR","IT",46.15,8.3,"","","",""
"H959","Pallanzeno",41,"","HROR","IT",46.04202073,8.259487152,"","","",""
"H978","Brunico",40,"","HDAM","IT",46.79343,11.983386,"","","",""
"H979","Champagne",40,"","HROR","IT",45.701758,7.2079,197,"","",151
"H980","Sospirolo",40,"","HDAM","IT",46.1394444,12.0677778,"","","",""
"H1589","Stalvedro aet",14,"","HROR","CH",46.51741111,8.677666938,"","","",""
"H981","Villa",40,"","HDAM","IT",41.961334,14.342717,"","","",""
"H1056","Kreuzbergmaut Kreuzbergmaut Hydroelectric Power Plant Austria - Kreuzbergmaut Hydroelectric Power Plant Austria",35.7,"","HROR","AT",47.441364,13.210862,"","","",""
"H1076","Rosenau",34,"","HROR","AT",47.992886,14.376871,"","","",""
"H1088","Arnstein-KW",33,"","HDAM","AT",47.049999,15.194,"","","",""
"H1095","St, johann St, Johann Hydroelectric Power Plant Austria - St, Johann Hydroelectric Power Plant Austria",32.5,"","HROR","AT",47.338685,13.197147,"","","",""
"H1096","Urreiting Urreiting Hydroelectric Power Plant Austria - Urreiting Hydroelectric Power Plant Austria",32.5,"","HROR","AT",47.374752,13.210196,"","","",""
"H1596","Motala",14,"","HDAM","SE",58.560479,15.082435,25,170,"",42
"H1598","Arpasu",14,"","HDAM","RO",45.79375,24.595417,20,7.35,"",36
"H1599","Avrig",14,"","HDAM","RO",45.745417,24.39125,23,10.8,"",39
"H160","Mapragg - Gigerwald G1",280,159,"HPHS","CH",46.948002,9.482,147,3.34,3080,""
"H1600","Scoreiu",14,"","HDAM","RO",45.77875,24.512917,22,5.2,"",37
"H1601","Vistea",14,"","HDAM","RO",45.80875,24.749583,20,4.25,"",33
"H1602","Voila",14,"","HDAM","RO",45.835417,24.860417,26,12.25,"",29
"H1603","Rajan 1/2",13.92,"","HROR","AL",40.26653611,20.52168611,"","","",71.3
"H1605","Gideabacka",14,"","HDAM","SE",63.331136,19.126693,"","","",""
"H1606","Zeltingen",13.6,"","HROR","DE",49.951074,7.023166,"","","",""
"H1607","Lixhe Lixhe Hydroelectric Power Plant Belgium - Lixhe Hydroelectric Power Plant Belgium",13.52147303,"","HROR","BE",50.7517,5.6863,"","","",""
"H1609","Claux Claux Hydroelectric Power Station France - Claux Hydroelectric Power Station France",13.32802548,"","HDAM","FR",44.876,6.48,"","","",""
"H161","Hidroelektrana Velebit / Velebit pump",276,240,"HPHS","HR",44.2007328,15.6811168,517,12.3,14800,430
"H1610","Monsin Monsin Hydroelectric Power Plant Belgium - Monsin Hydroelectric Power Plant Belgium",13.31865094,"","HROR","BE",50.6517,5.6308,"","","",""
"H1611","Klusi",13.3,"","HDAM","CH",47.60841976,7.977832342,"","","",""
"H1612","Sabugueiro I",13.2,"","HDAM","PT",40.23,-7.39,28.24,15.28,30560,48
"H1613","Desterro",13.2,"","HROR","PT",40.23,-7.41,"","","",40
"H1614","Strekov republic Strekov Hydroelectric Power Plant Czech Republic - Strekov Hydroelectric Power Plant Czech Republic",13.18343621,"","HROR","CZ",50.6386,14.0478,17,10.96,"",""
"H1101","Bischofshofen Bischofshofen Hydroelectric Power Plant Austria - Bischofshofen Hydroelectric Power Plant Austria",32,"","HROR","AT",47.4069,13.220614,"","","",""
"H1102","Werfen pfarrwerfen Werfen-Pfarrwerfen Hydroelectric Power Plant Austria - Werfen-Pfarrwerfen Hydroelectric Power Plant Austria",32,"","HROR","AT",47.472081,13.193148,"","","",""
"H1618","Arniberg",13,"","HROR","CH",46.76899448,8.665904129,"","","",""
"H1108","Kraftwerk Zirknitz",32,"","HDAM","AT",47.009998,13.01,"","","",""
"H162","Kilforsen Kilforsen Hydroelectric Power Plant Sweden - Kilforsen Hydroelectric Power Plant Sweden",275,"","HDAM","SE",63.5493995,16.7128525,41,7,"",931
"H991","Agri",39,"","HDAM","IT",40.289012,16.139079,"","","",""
"H992","Caoria",39,"","HDAM","IT",46.2,11.6833333,"","","",""
"H993","Crego",39,"","HROR","IT",46.210781,8.320614,"","","",""
"H891","Quart",38.5,"","HROR","IT",45.740261,7.466604,"","","",""
"H1010","Ala",38,"","HROR","IT",45.758995,11.000182,"","","",""
"H1011","Campo",38,"","HROR","IT",46.221592,9.449839,"","","",""
"H1012","Cividate",38,"","HROR","IT",45.942493,10.277462,"","","",178
"H1627","Dala",13,"","HROR","CH",46.31872947,7.623784583,"","","",""
"H1109","Langkampfen-M1",32,"","HDAM","AT",47.560001,12.139,"","","",""
"H1115","Nassfeld",31.5,"","HPHS","AT",47.05,13.05,"","","",""
"H1631","VILLANUA",13,"","HDAM","ES",42.706001,-0.52,"","","",""
"H1632","DUQUE",13,"","HDAM","ES",36.919998,-3.344,"","","",""
"H1633","NUEVO CHORRO",13,"","HDAM","ES",36.879002,-4.791,"","","",""
"H1634","PAMPANEIRA 1",13,"","HDAM","ES",36.939999,-3.343,"","","",""
"H1635","Katerman vesivoimalaitos",13,"","HROR","FI",64.127489,29.502344,"","","",""
"H1637","Permantokoski",13,"","HROR","FI",66.492336,26.128326,"","","",51
"H1638","Obernach",12.8,"","HROR","DE",47.554694,11.291366,"","","",""
"H1639","Vrben Hydroelectric Power Plant Macedonia - Vrben Hydroelectric Power Plant Macedonia",12.8,"","HROR","MK",41.7166,20.7219,"","","",""
"H1641","Kalimantsi Hydroelectric Power Plant Macedonia - Kalimantsi Hydroelectric Power Plant Macedonia",12.6,"","HDAM","MK",41.97115,22.57809,92,127,"",""
"H1642","Ettling",12.6,"","HROR","DE",48.6960722,12.7977619,"","","",""
"H1643","Landau",12.6,"","HROR","DE",48.667862,12.660027,"","","",""
"H1644","Pielweichs",12.6,"","HROR","DE",49.79434,10.1813,"","","",""
"H1646","Lottefors",13.76,"","HDAM","SE",61.4166667,16.4,"","","",""
"H1647","Brigels tavanasa",12.5,"","HROR","CH",46.75806217,9.071746229,"","","",""
"H301","Włocławek Wloclawek - Wloclawek Hydroelectric Power Plant Poland",162,"","HDAM","PL",52.6564,19.1339,24,408,"",723
"H165","MONTELIMAR - Chateauneuf Du Rhone Hydroelectric Power Station France",270,"","HROR","FR",44.499001,4.708,18,"","",""
"H1650","Unterbergen",12.4,"","HROR","DE",48.237449,10.92718,"","","",""
"H1651","Tannheim",12.3,"","HROR","DE",48.00795,10.118537,"","","",""
"H1653","Scheuring",12.2,"","HROR","DE",48.180229,10.8833102,"","","",""
"H1654","Burentobel",12.2,"","HROR","CH",47.0282456,8.647927727,"","","",""
"H1655","Prittriching",12.1,"","HROR","DE",48.21062,10.904933,"","","",""
"H1656","Serrig",12.1,"","HROR","DE",49.566954,6.592348,"","","",""
"H166","Central Hidroelectrica de Conso",267,216,"HPHS","ES",42.166873,-7.175245,193,"","",""
"H1125","Remsach",30.9,"","HDAM","AT",47.1333333,13.1333333,"","","",""
"H1131","Krippau",30,"","HROR","AT",47.703511,14.689298,"","","",""
"H1665","Skogaby",12.5,"","HDAM","SE",56.530556,13.183333,"","","",""
"H1666","Isenthal bolzbach",12,"","HROR","CH",46.89920756,8.593407132,"","","",""
"H1667","Merching",12,"","HROR","DE",48.2704497,10.9773463,"","","",""
"H1668","Schwabstadl",12,"","HROR","DE",48.148375,10.867023,"","","",""
"H1669","Sils",12,"","HDAM","SE",63.3264934,14.5811578,"","","",""
"H167","Vouglans VOUGLANS - Vouglans Hydroelectric Power Station France",285,"","HDAM","FR",46.39734,5.66556,130,592.4,"",300
"H1670","Mockfjärd",12,"","HDAM","SE",60.501506,14.964287,"","","",""
"H1013","Marlengo",38,"","HROR","IT",46.65261772,11.14545822,"","","",""
"H1014","Regoledo",38,"","HROR","IT",46.135091,9.551643,"","","",""
"H3425","Edison VEDELLO (UP_ALTOADDA_1)",37.32,"","HDAM","IT",46.15944,9.929995,387,9.06,"",75
"H1045","Campo moro",37,37,"HPHS","IT",46.2695803,9.8720987,96,11,"",33
"H1050","Caneva",36,"","HROR","IT",45.9688889,12.4497222,"","","",""
"H1051","Sampeyre",36,"","HROR","IT",44.579631,7.184521,"","","",""
"H1677","Refrain",12,"","HROR","CH",47.18769382,6.873117372,"","","",""
"H1132","Schönau",30,"","HROR","AT",47.775426,14.650605,"","","",""
"H1139","Krippau-KW",30,"","HDAM","AT",47.682999,14.7,"","","",""
"H1680","Vir I",12,"","HDAM","CZ",49.56625,16.30875,78,53.142,"",""
"H1684","Vadeni",12,"","HDAM","RO",45.057917,23.267917,25,4.76,"",25
"H1685","Felsenau Felsenau Hydroelectric Power Plant Switzerland - Felsenau Hydroelectric Power Plant Switzerland",11.94,"","HROR","CH",46.96844294,7.439421064,"","","",""
"H1686","Oberpeiching",11.9,"","HROR","DE",48.646423,10.879086,"","","",""
"H1687","Champcella Champcella Hydroelectric Power Station France - Champcella Hydroelectric Power Station France",11.84713376,"","HDAM","FR",44.737,6.575,"","","",""
"H1688","Rhue Rhue (La) Hydroelectric Power Station France - Rhue (La) Hydroelectric Power Station France",11.84713376,"","HDAM","FR",45.415,2.499,"","","",""
"H1689","Langarica 1/2/3",11.82,"","HROR","AL",40.3098,20.47698056,"","","",49.98
"H169","Tierfehd limmern Tierfehd - Limmern GPSW - Linth–Limmern (Tierfehd) Hydroelectric Power Stations Switzerland",306,"","HDAM","CH",46.87611534,8.987029349,"",92,700,322.6
"H1167","Obervermunt Hydroelectric Power Plant Austria - Obervermunt Hydroelectric Power Plant Austria",30,"","HDAM","AT",46.927448,10.0536,291,2.969230769,"",""
"H1691","Taschinas Hydroelectric Power Plant Switzerland - Taschinas Hydroelectric Power Plant Switzerland",11.5,"","HDAM","CH",46.98247,9.645755,"",0.025,"",""
"H1693","Gabi Gabi Hydroelectric Power Plant Switzerland - Gabi Hydroelectric Power Plant Switzerland",11.33,"","HROR","CH",46.18821153,8.070066985,"","","",""
"H1694","Taschinas",11.33,"","HROR","CH",46.98284123,9.644863303,"","","",""
"H1696","Meitingen",11.3,"","HROR","DE",48.546994,10.86507,"","","",""
"H1697","Mutt",11.3,"","HROR","CH",46.01146382,7.738553163,"","","",""
"H1699","Hermansboda",12,"","HDAM","SE",62.5418,15.8434,"","","",""
"H1066","Brossasco",35,"","HROR","IT",44.568632,7.361724,"","","",""
"H170","Handeck Handeck 2 Hydroelectric Power Plant Switzerland - Handeck 2 Hydroelectric Power Plant Switzerland",215.6,"","HDAM","CH",46.6168313,8.307587128,"","","",261.8
"H1700","Mühltal",11.2,"","HROR","DE",47.99629724,11.48542787,"","","",""
"H3416","Kraftwerk Alberschwende",30,"","HROR","AT",47.470464,9.862094,96,"","",""
"H1706","Dettingen",11,"","HROR","DE",48.527536,9.3488325,"","","",""
"H1707","Alrance Alrance Hydroelectric Power Station France - Alrance Hydroelectric Power Station France",11,"","HPHS","FR",44.1035517,2.6946591,"","","",""
"H3311","Centrale di Contrasto Adrano",35,"","HDAM","IT",37.65189,14.805299,"","","",""
"H3312","Valsoera - Telessio",34.4,"","HPHS","IT",45.487814,7.395236,555,7.7,"",40
"H171","Zadeje Vau Dejes Vau i Deja - VADEJG1",250,"","HDAM","AL",42.009998,19.625,60,680,"",1510
"H3413","Centrale di San Bernardo",34.2,"","HDAM","IT",46.3420087,9.3687663,1014,20,"",56
"H1711","Sembrancher",11,"","HROR","CH",46.079152,7.156727248,"","","",""
"H1171","Wiestal",28.22,"","HDAM","AT",47.79940564,13.04399014,"","","",""
"H1713","MAKROHORI-I",11,"","HROR","EL",40.541462,22.262665,"","","",""
"H1714","Nechranice",11,"","HDAM","CZ",50.36625,13.412917,52,287.562,"",""
"H3431","Kendoon",24,"","HROR","UK",55.0736,-4.1408,"","","",""
"H1716","Nansa Falls (Peña de Bejo hdam - Rozadio ror - Celis ror - Herrerías ror)",48.7,"","HDAM","ES",43.133094,-4.3884443,116,11.8,"",""
"H1717","Matarakoski",11,"","HROR","FI",67.636463,26.781735,"","","",31.3
"H1718","Budeasa",11,"","HDAM","RO",44.91625,24.82125,33,54.9,"",""
"H1719","Piatra Neamt",11,"","HDAM","RO",46.932917,26.337917,27,10,"",52
"H1720","Pont tine coussy loudze",10.99,"","HROR","CH",46.34778507,7.044325779,"","","",""
"H1721","Rain",10.9,"","HROR","DE",48.692383,10.897786,"","","",""
"H1722","Im roos",10.86,"","HROR","CH",47.25854028,9.129602014,"","","",""
"H1724","Plan dessous",10.7,"","HROR","CH",46.49920897,6.385808677,"","","",""
"H1725","Sublin",10.61,"","HROR","CH",46.26509974,7.040192582,"","","",""
"H1728","Upm schongau",10.5,"","HROR","DE",47.803187,10.904254,"","","",""
"H1729","Rüchlig dotierzentrale",10.4,"","HROR","CH",47.39942457,8.051028325,"","","",""
"H1730","Dessau",10.3,"","HROR","DE",47.739292,10.825702,"","","",""
"H1731","LOUROS",10.3,"","HROR","EL",39.251598,20.8648,"","","",""
"H1732","Alexander Stambolyski Hydro Power Site",10.24,"","HDAM","BG",43.1213,25.171,50,200,"",""
"H1733","Faimingen",10.1,"","HROR","DE",48.558394,10.411764,"","","",""
"H1734","Urspring",10.1,"","HROR","DE",47.71598,10.825785,"","","",""
"H1175","Lavamünd Lavamuend-KW - Lavamuend Hydroelectric Power Plant Austria",28,"","HROR","AT",46.643429,14.937028,"","","",""
"H1179","Lavamuend-KW - Lavamuend Hydroelectric Power Plant Austria",28,"","HDAM","AT",46.644001,14.938,"","","",""
"H1197","Bodendorf paal",27,"","HDAM","AT",47.107717,14.065156,"","","",""
"H1741","Nissaström",11.2,"","HDAM","SE",56.841854,13.008626,"","","",""
"H1742","Höchstädt",10,"","HROR","DE",48.603156,10.582724,"","","",""
"H1743","Tremorgio",10,"","HDAM","CH",46.49021144,8.736704246,"","","",""
"H1744","Noppikoski",10,"","HDAM","SE",61.489883,14.709516,"","","",""
"H1077","Arsie'",34,"","HROR","IT",45.983007,11.758295,"","","",""
"H1104","Montelungo",32,"","HROR","IT",41.405919,13.985517,"","","",""
"H1105","Pelos",32,"","HROR","IT",46.5041667,12.4736111,"","","",""
"H1106","Quero",32,"","HROR","IT",45.921807,11.9315,"","","",""
"H1107","Teglia",32,"","HROR","IT",44.375151,9.878882,"","","",""
"H175","Porsi Porsi G3 - Porsi Hydroelectric Power Plant Sweden",274,"","HDAM","SE",66.428961,20.653796,"","","",1147
"H2483","Centrale di Isollaz",32,"","HROR","IT",45.6892628,7.71111,"","","",""
"H1123","Vizzola t,",31,"","HROR","IT",45.6317,8.6865,"","","",""
"H2487","Saint-Clair",31,"","HROR","IT",45.7425728,7.6221486,"","","",""
"H1134","Bolognano",30,"","HROR","IT",42.218136,13.960105,"","","",""
"H1135","Chavonne",30,"","HROR","IT",45.701758,7.2079,"","","",""
"H1136","Farneta",30,"","HROR","IT",44.352857,10.625599,"","","",""
"H1137","Ponte marm",30,"","HROR","IT",46.376886,8.425713,"","","",""
"H1138","Stazzona",30,"","HROR","IT",46.203898,10.133854,"","","",""
"H3310","Radicone Troina",29.8,"","HDAM","IT",37.829642,14.576644,940,50,"",50
"H176","Valdecanas",247,168,"HPHS","ES",39.77787,-5.612464,116,1446,664000,""
"H1216","Altenmarkt",26,"","HROR","AT",46.7666667,15.55,"","","",""
"H1226","Neuötting",26,"","HROR","AT",48.249729,12.691057,"","","",""
"H1227","Pernegg-KW",26,"","HDAM","AT",47.362,15.338,"","","",""
"H1194","Funsingau-KW - Funsingau Hydroelectric Power Plant Austria",25,"","HDAM","AT",47.235001,12.058,117.9,50.7,84500,27
"H1245","Kellerberg Kellerberg-KW - Kellersberg Hydroelectric Power Plant Austria",25,"","HROR","AT",46.669879,13.725482,"","","",""
"H1765","Ivoz-Ramet - Ivoz-Ramet",10,"","HROR","BE",50.5922,5.4613,"","","",""
"H1359","St Fillans SFIL-1",21,"","HROR","UK",56.401001,-4.122,"","","",75
"H1769","PORTODEMOUROS",10,"","HDAM","ES",42.855,-8.189,"","",39000,""
"H1246","Villach Villach-KW - Villach Hydroelectric Power Plant Austria",25,"","HROR","AT",46.632859,13.829237,"","","",""
"H1771","Maneciu",10,"","HDAM","RO",45.332917,25.987917,78,60,"",""
"H1772","Paltinu",10,"","HDAM","RO",45.249583,25.735417,108,53.67,"",30
"H1773","Weserkraftwerk bremen",9.9,"","HROR","DE",53.061134,8.864937,"","","",""
"H1247","Landl",25,"","HROR","AT",47.651131,14.750286,"","","",""
"H1775","Ellgau",9.7,"","HROR","DE",48.596746,10.8789,"","","",""
"H1776","Schattenhalb",9.7,"","HROR","CH",46.719447,8.184582968,"","","",""
"H1777","Cambeyrac Cambeyrac Hydroelectric Power Station France - Cambeyrac Hydroelectric Power Station France",9.675159236,"","HDAM","FR",44.655,2.574,"","","",""
"H1778","Aegina",9.67,"","HDAM","CH",46.46817414,8.369523304,"","","",""
"H1779","Gental Fuhren Hydroelectric Power Plant Switzerland - Fuhren Hydroelectric Power Plant Switzerland",9.6,"","HDAM","CH",46.72719109,8.333697249,"","","",""
"H1248","Mühlrading",25,"","HROR","AT",48.131686,14.473996,"","","",""
"H1780","Matka Hydroelectric Power Plant Macedonia - Matka Hydroelectric Power Plant Macedonia",9.6,"","HROR","MK",41.9528,21.2982,"","","",""
"H1781","Hnevkovice",9.6,"","HDAM","CZ",49.180417,14.447083,31,22.2,"",""
"H1782","Palü",9.5,"","HDAM","CH",46.37249504,10.02897447,"","","",""
"H1783","Plessurwerk",9.4,"","HROR","CH",46.84043063,9.542505418,"","","",""
"H1784","Vrane republic Vrane Hydroelectric Power Plant Czech Republic - Vrane Hydroelectric Power Plant Czech Republic",9.383902285,"","HDAM","CZ",49.9381,14.3749,10,11.1,"",""
"H1785","Glattalp",9.3,"","HROR","CH",46.91761881,8.845498864,"","","",""
"H1786","Sllabinje",13.8,"","HROR","AL",40.96899722,20.51337222,"","","",50
"H1787","Aarewerk thun",9.15,"","HROR","CH",46.7616833,7.616856002,"","","",""
"H1788","Beverce robertville Beverce (Robertville) Hydroelectric Power Project Belgium - Beverce (Robertville) Hydroelectric Power Project Belgium",9.082802548,"","HDAM","BE",50.4387,6.0386,"","","",""
"H179","Bolarque 1/2/3",240.2,"","HPHS","ES",40.362584,-2.819307,36,23,"",""
"H1249","Bösdornau Boesdornau-KW - Boesdornau Hydroelectric Power Plant Austria",25,"","HDAM","AT",47.15192,11.833298,"","","",""
"H1798","Viforsens",10,"","HDAM","SE",62.311094,17.172947,"","","",""
"H1799","Fornowerk löbbia",9,"","HROR","CH",46.37495221,9.658900883,"","","",""
"H18","JM ORIOL 1 - Jose Maria de Oriol (Alcantara) Hydroelectric Power Plant Spain",934,"","HDAM","ES",39.730301,-6.8849,130,3162,970100,1850
"H1800","Simmenfluh",9,"","HROR","CH",46.67279879,7.622640841,"","","",""
"H1158","Chatillon",29,"","HROR","IT",45.751663,7.617507,"","","",""
"H1159","Chievo",29,"","HROR","IT",45.45,10.9333333,"","","",""
"H1160","Hone",29,"","HROR","IT",45.613561,7.738513,"","","",""
"H1161","Stanga",29,"","HROR","IT",46.1111111,12.1002778,"","","",""
"H1176","Casteldelf",28,"","HDAM","IT",44.58963,7.069818,"","","",""
"H1262","Kellerberg-KW - Kellersberg Hydroelectric Power Plant Austria",25,"","HDAM","AT",46.669998,13.725,"","","",""
"H1263","Villach-KW - Villach Hydroelectric Power Plant Austria",25,"","HDAM","AT",46.632,13.829,"","","",""
"H181","Kegums hpp Kegums HPP - Kegums Hydroelectric Power Plant Latvia",240.1,"","HROR","LV",56.7405,24.7113,"","","",825
"H1812","Alange",9,"","HDAM","ES",38.78625,-6.270417,67,852,"",""
"H1816","Stadsforsens kraftverk",8.98,"","HROR","CH",48.80179747,6.691959264,"","","",""
"H1817","Giumaglio",8.94,"","HROR","CH",46.28241272,8.669718834,"","","",""
"H1818","Muota",8.8,"","HROR","CH",46.97100515,8.782496692,"","","",""
"H1819","Senhora de Porto",8.8,"","HROR","PT",41.34,-8.11,"","","",19
"H1284","Paternion Paternion-KW - Paternion Hydroelectric Power Plant Austria",24,"","HROR","AT",46.720841,13.645572,"","","",""
"H1820","Pumade",8.791,"","HROR","CH",46.73094792,9.729148482,"","","",""
"H1821","Bocki",8.7,"","HROR","CH",46.84096379,8.63214556,"","","",""
"H1822","Champsec",8.7,"","HROR","CH",46.05712536,7.248063884,"","","",""
"H1823","Seujet Seujet Hydroelectric Power Plant Switzerland - Seujet Hydroelectric Power Plant Switzerland",8.7,"","HROR","CH",46.20311975,6.134471586,"","","",""
"H1824","Leringsforsen",9,"","HDAM","SE",62.590859,16.40657,18,360,"",30
"H1286","Dießbach",24,"","HDAM","AT",47.5166667,12.8333333,"","","",""
"H1826","Buoholzbach wolfenschiessen",8.6,"","HROR","CH",46.91414649,8.39791988,"","","",""
"H1827","Lessoc",8.56,"","HROR","CH",46.5060508,7.053267128,"","","",""
"H1177","Vobarno",28,"","HDAM","IT",45.640087,10.503473,"","","",""
"H1832","Kallnach",8.3,"","HROR","CH",47.02149902,7.22817749,"","","",""
"H1833","Illsee",8.2,"","HPHS","CH",46.28325198,7.688797733,25,6.49,"",""
"H1834","Largue Largue Hydroelectric Power Station France - Largue Hydroelectric Power Station France",8.112883819,"","HROR","FR",43.854,5.859,"","","",""
"H315","Żydowo ZydowoPS - Zydowo Pumped Storage Hydroelectric Power Plant Poland",157,136,"HPHS","PL",54.0216713,16.7385445,"","",6600,""
"H1836","Trebinje II Hydroelectric Power Plant Bosnia and Herzegovina - Trebinje II Hydroelectric Power Plant Bosnia and Herzegovina",8,"","HDAM","BA",42.70664,18.3805,33.5,15.9,"",""
"H184","Rance tidal RANCE - Rance Tidal Hydroelectric Power Station France",240,"","HPHS","FR",48.6180022,-2.0238876,27,184,"",""
"H1840","Vässinkoski",8.693305006,"","HDAM","SE",61.490515,14.712678,28,73,"",23
"H1291","Paternion-KW - Paternion Hydroelectric Power Plant Austria",24,"","HDAM","AT",46.721001,13.645,"","","",""
"H3331","Centrale Santu Miali",27.5,"","HDAM","IT",39.5366292,8.9544651,115,1.4,"",""
"H1201","Cencenighe",27,"","HROR","IT",46.343118,11.973394,"","","",""
"H1202","Suviana",27,"","HDAM","IT",44.170457,11.088812,"","","",""
"H1224","Corenno",26,"","HROR","IT",46.075987,9.304638,"","","",""
"H1225","Predazzo",26,"","HROR","IT",46.308814,11.599686,"","","",""
"H1257","Barcis",25,"","HROR","IT",46.1597222,12.6594444,"","","",""
"H1258","Gallicano",25,"","HROR","IT",44.057349,10.4452,"","","",""
"H1259","Lappago",25,"","HDAM","IT",46.890931,11.860181,"","","",""
"H185","Valeira Valeira - G1 - Valeira Hydroelectric Power Plant Portugal",240,"","HROR","PT",41.1605,-7.3742,"","","",610.7
"H1260","Penna",25,"","HROR","IT",43.417645,11.723338,"","","",""
"H1261","Prati vizze",25,"","HROR","IT",46.85,11.3833333,"","","",""
"H2486","Maën Perreres",25,"","HDAM","IT",45.8717692,7.6067958,483,0.007,"",""
"H1288","Agordo",24,"","HROR","IT",46.2855556,12.0375,"","","",""
"H1854","Vouvry",8,"","HDAM","CH",46.33612447,6.881481154,"","","",""
"H1305","Wald",23.5,"","HDAM","AT",47.9044444,13.0263889,"","","",""
"H1856","GHIONA",8,"","HROR","EL",38.546509,22.354761,"","","",""
"H1401","Aigas",20,"","HROR","UK",57.382,-4.881,"","","",60
"H1858","Barzia HPP",8,"","HDAM","BG",43.19,23.167,251,0.03,"",""
"H186","HPP_SESTRIMO - Sestrimo Hydroelectric Power Plant Bulgaria",240,291,"HDAM","BG",42.233002,23.950001,539,0.42,"",291
"H1862","Bassalt",8,"","HDAM","SE",56.75,13.2833333,"","","",""
"H591","Dychów Dychow - Dychow Pumped Storage Hydroelectric Power Plant Poland",92,20,"HPHS","PL",51.9863325,15.0608199,"","",250,""
"H1865","Petrohan HPP",7.8,"","HDAM","BG",43.12,23.12,529,0.14,"",""
"H1869","Sorpesee",7.42,"","HPHS","DE",51.3510404,7.9680569,"","","",""
"H187","Bort BORT 1 - Bort Les Orgues Hydroelectric Power Station France",232.2,"","HDAM","FR",45.41269,2.49862,125,477.4,"",310
"H1870","Golubic Golubic - Golubic Hydroelectric Power Plant Croatia Croatia",7.404458599,"","HDAM","HR",44.09,16.2204,"","","",""
"H603","Niedzica Niedzica Pumped Storage Power Plant Poland - Niedzica Pumped Storage Power Plant Poland",92,"","HDAM","PL",49.4099645,20.3267659,"","",600,""
"H1873","Storavan bergnäs krv",8,"","HDAM","SE",65.6833333,18.1666667,21,778,"",27
"H1874","Solis",7.3,"","HROR","CH",46.68192209,9.525213,"","","",""
"H1876","Massaboden",7.2,"","HROR","CH",46.33299753,8.011358473,"","","",""
"H1877","Molinis lüen",7.2,"","HROR","CH",46.82844281,9.606149925,"","","",""
"H855","Roznow Roznow Hydroelectric Power Plant Poland - Roznow Hydroelectric Power Plant Poland",50,"","HDAM","PL",49.7614,20.6631,"","","",""
"H1879","Urdiceto",7.1,"","HPHS","ES",42.6334211,0.218018,"","","",""
"H1319","Landl-KW",23,"","HDAM","AT",47.660999,14.73,"","","",""
"H1880","STRATOS-II - Stratos Hydroelectric Power Plant Greece",7,"","HROR","EL",38.675804,21.32589,26,80,"",""
"H1335","Fisching",22,"","HROR","AT",47.1743,14.723143,"","","",""
"H1889","Cavaglia",7,"","HDAM","CH",46.36809688,10.03630585,"","","",""
"H189","Orlovac Orlovac - Orlovac Hydroelectric Power Plant Croatia",237,"","HPHS","HR",43.6737,16.784,380,782,"",""
"H1890","Kappelerhof",7,"","HROR","CH",47.48455391,8.292831925,"","","",""
"H1336","Pernegg",22,"","HROR","AT",47.365229,15.334486,"","","",""
"H1289","Cavilla",24,"","HDAM","IT",45.919705,11.730896,"","","",""
"H1290","Triano",24,"","HROR","IT",42.360941,14.138007,"","","",""
"H3414","Centrale di Prestone",23.5,"","HDAM","IT",46.392704,9.353384,184.93,1.76,"",73
"H1313","Bardonecchia",23,"","HDAM","IT",45.078338,6.703201,"","","",""
"H1314","Calice",23,"","HROR","IT",46.11650217,8.293132782,"","","",""
"H1897","Medjuvrsje Hydroelectric Power Plant Serbia - Medjuvrsje Hydroelectric Power Plant Serbia",7,"","HROR","RS",43.909,20.2327,"","","",""
"H1402","Ceannacroc",20,"","HROR","UK",57.155998,-4.936,"","","",87
"H1899","Koprinka HPP (Kaplan)",7,"","HDAM","BG",42.6125,25.3198,24,142.4,"",12.7
"H1905","Puntarikoski",7,"","HROR","FI",62.825417,29.475417,14,2390,"",11
"H1906","Bondo",6.9,"","HROR","CH",46.33399639,9.55121329,"","","",""
"H1908","Ampsin neuville Ampsin Neuville Hydroelectric Power Plant Belgium - Ampsin Neuville Hydroelectric Power Plant Belgium",6.693129151,"","HROR","BE",50.5335,5.2962,"","","",""
"H1237","Koronowo Koronowo Hydroelectric Power Plant Poland - Koronowo Hydroelectric Power Plant Poland",26,"","HDAM","PL",53.2753,17.9527,"","","",""
"H1910","Rumblar",6.62,"","HROR","CH",46.91761881,8.845498864,"","","",""
"H1911","Lizun",6.6,"","HROR","CH",46.38064012,9.657963276,"","","",""
"H1912","Tasnan",6.6,"","HROR","CH",46.7776529,10.22572094,"","","",""
"H1914","Murg plätz",6.5,"","HROR","CH",47.09244923,9.207882246,"","","",""
"H1915","Pintrun",6.48,"","HROR","CH",46.81485776,9.348830644,"","","",""
"H1918","Teich Teich Hydroelectric Power Station France - Teich Hydroelectric Power Station France",6.219745223,"","HDAM","FR",42.71,1.864,"","","",""
"H192","Portas Las",233,"","HDAM","ES",42.11625,-7.212083,141,536,906,154
"H1920","Ganterbach saltina",6.1,"","HROR","CH",46.30442675,8.004178335,"","","",""
"H1921","Schlappin",6.1,"","HROR","CH",46.88504801,9.878557901,"","","",""
"H1922","Andenne seilles Andenne-Seilles Hydroelectric Power Plant Belgium - Andenne-Seilles Hydroelectric Power Plant Belgium",6.084662865,"","HROR","BE",50.4928,5.07,"","","",""
"H1358","Fisching-KW",21,"","HDAM","AT",47.18,14.764,"","","",""
"H1924","Barco",6.02,"","HROR","CH",46.79314558,9.273645124,"","","",""
"H1925","Ebro",6,"","HDAM","ES",42.974583,-4.04875,212.9932676,541,314,""
"H1380","Klaus",20,"","HROR","AT",47.82845,14.157217,"","","",""
"H1381","Lebring",20,"","HROR","AT",46.857847,15.5373,"","","",""
"H1400","Lebring-KW",20,"","HDAM","AT",46.858002,15.538,"","","",""
"H1422","Gössendorf",19,"","HROR","AT",46.997841,15.467519,"","","",""
"H1423","Kalsdorf",19,"","HROR","AT",46.944097,15.50363,"","","",""
"H1937","Ovcar Banja Hydroelectric Power Plant Serbia - Ovcar Banja Hydroelectric Power Plant Serbia",6,"","HDAM","RS",43.8995,20.1803,"",1.5,"",""
"H1403","Invergarry",20,"","HROR","UK",57.077999,-4.781,"","","",78
"H1404","Kilmorack",20,"","HROR","UK",57.382,-4.881,"","","",58
"H1442","Wallnerau salzachstufe Wallnerau-Salzachstufe-KW - Wallnerau Salzach Hydroelectric Power Plant Austria",18,"","HROR","AT",47.3158445,13.1409435,"","","",38.3
"H1947","Bishnica 1/2",5.9,"","HROR","AL",39.9169,20.1374,"","","",25.82
"H1948","Nylstar",5.885,"","HROR","CH",46.74500448,8.4181444,"","","",""
"H1949","Susasca",5.86,"","HROR","CH",46.75519301,10.08403667,"","","",""
"H195","P_AOOU - Aoos (Piges Aoos) Hydroelectric Power Plant Greece",230,"","HDAM","EL",39.836109,21.066389,78,180,242000,""
"H1951","Reserv, péteille vétroz",5.774,"","HROR","CH",46.22691179,7.273259309,"","","",""
"H1952","Flums pravizin äuli",5.77,"","HROR","CH",47.0864243,9.3345384,"","","",""
"H1953","Farmhispania",5.75,"","HROR","SK",48.26891,18.52822,"","","",""
"H1954","Aue dotierzentrale",5.7,"","HROR","CH",47.46945285,8.309635082,"","","",""
"H1956","Fužine",5.7,"","HPHS","HR",45.3049852,14.7148369,49,1.23,"",4.524
"H1959","Goule",5.6,"","HROR","CH",47.22870019,6.928538356,"","","",""
"H1315","Pian della rocca",23,"","HROR","IT",43.978948,10.545703,"","","",""
"H1960","Neuhausen",5.6,"","HROR","CH",47.67988066,8.614946567,"","","",""
"H1965","Ozalj Ozalj - Ozalj Hydroelectric Power Plant Croatia Croatia",5.5,"","HROR","HR",45.6143,15.4778,"","","",24.32
"H1966","Heid goreux Heid-de-Goreux Hydroelectric Power Plant Belgium - Heid-de-Goreux Hydroelectric Power Plant Belgium",5.476196578,"","HROR","BE",50.426,5.7328,"","","",""
"H1967","Balforsens krv",7.302376205,"","HDAM","SE",64.655189,18.48563,"","","",""
"H1370","Tresna Tresna Hydroelectric Power Plant Poland - Tresna Hydroelectric Power Plant Poland",21,"","HDAM","PL",49.7473,19.2075,"","","",""
"H197","SILS KHR",247,"","HDAM","CH",46.703999,9.466,"","","",""
"H1970","Diablerets",5.4,"","HDAM","CH",46.35306411,7.154650449,"","","",""
"H1971","Hopflauenen leimboden",5.4,"","HROR","CH",46.71511341,8.277516982,"","","",""
"H1973","HE Glava Zete",5.36,"","HROR","ME",42.6,18.98,"","","",""
"H1975","Charmey perré",5.27,"","HROR","CH",46.61458556,7.161756538,"","","",""
"H1978","Brügg",5.2,"","HROR","CH",47.1191459,7.258099814,"","","",""
"H1979","Tannuwald",5.2,"","HROR","CH",46.14994099,8.107936687,"","","",""
"H1316","Salisano",23,"","HROR","IT",42.259328,12.745778,"","","",""
"H1981","Ladral",5.1,"","HROR","CH",46.77141573,9.118769914,"","","",""
"H1982","Sauterot hérémence lysa",5.1,"","HROR","CH",46.16999739,7.406536074,"","","",""
"H1983","Bortel mittelstufe",5.01,"","HDAM","CH",46.29774273,8.060825209,"","","",""
"H1998","Arosa litzirüti",5,"","HROR","CH",46.80004935,9.705911981,"","","",""
"H1999","Engeweiher",5,"","HPHS","CH",47.69348408,8.630435553,"","","",""
"H1418","Culligran",19.1,"","HROR","UK",57.382,-4.881,60,3,"",59
"H20","Montezic MONTEZIC 1 - Montezic Pump Storage Hydroelectric Power Station France",910,840,"HPHS","FR",44.73766,2.64342,423,34,36400,""
"H2000","Letten",5,"","HROR","CH",47.38701259,8.532321933,"","","",""
"H1443","Laufnitzdorf",18,"","HROR","AT",47.292402,15.323134,"","","",""
"H1317","Volturno",23,"","HROR","IT",41.625824,14.089016,"","","",""
"H1318","Zuino",23,"","HROR","IT",45.712165,7.882814,"","","",""
"H1476","Kraftwerk Woella",17,"","HROR","AT",46.875,13.138,"","","",""
"H1477","Kraftwerk Freibach",17,"","HROR","AT",46.59,14.573,"","","",""
"H1478","Mellach und Kuehlwasserturbine-KW",17,"","HROR","AT",46.910999,15.486,"","","",""
"H1479","Weinzoedl-KW",17,"","HROR","AT",47.109001,15.392,"","","",""
"H1438","Mossford",18.6,"","HROR","UK",57.6166,-4.76,"","","",121
"H201","BELESAR 1",225,"","HDAM","ES",42.628502,-7.7122,207.3,655,"",113
"H2013","Chanza",5,"","HDAM","ES",37.562083,-7.520417,85,341,"",""
"H1502","St, veit St, Veit-KW - St, Veit Hydroelectric Power Plant Austria",16,"","HROR","AT",47.321488,13.174577,"","","",67
"H202","Krångede Krangede Hydroelectric Power Plant Sweden - Krangede Hydroelectric Power Plant Sweden",250,"","HDAM","SE",63.14623,16.0706,20,60,"",1650
"H2020","Jaruga Jaruga Hydroelectric Power Plant Croatia Croatia - Jaruga Hydroelectric Power Plant Croatia Croatia",4.867730292,"","HROR","HR",43.805,15.9626,"","","",""
"H2021","Combe garot",4.86,"","HROR","CH",46.96231911,6.796397588,"","","",""
"H2023","Romero alvarez temporal",4.8,"","HROR","CH",47.56071885,9.098823995,"","","",""
"H2024","GLAFKOS-II",4.8,"","HROR","EL",38.190485,21.800672,"","","",""
"H2025","Hüribach",4.7,"","HROR","CH",46.97100515,8.782496692,"","","",""
"H2026","Holta",4.7,"","HROR","AL",40.92728056,20.22091667,"","","",23.3
"H2027","Langed",5.45,"","HDAM","SE",58.924253,12.307601,"","","",""
"H203","Saint pierre cognet",223,"","HROR","FR",44.87249,5.77319,"","","",""
"H2031","Svartafors",4.624838263,"","HDAM","SE",58.450011,15.491865,"","","",""
"H2032","Thusis",4.6,"","HROR","CH",46.69014862,9.442884084,"","","",""
"H2034","Plons",4.5,"","HROR","CH",47.05405739,9.40001024,"","","",""
"H2035","Risi",4.5,"","HROR","CH",47.09467832,9.056713556,"","","",""
"H2037","Islas",4.4,"","HROR","CH",46.50561958,9.857289017,"","","",""
"H2038","Muttsee",4.4,"","HDAM","CH",46.84643309,9.012795156,35,23.43,"",""
"H2039","Usine du chanet",4.4,"","HROR","CH",46.95925861,6.828886453,"","","",""
"H204","Hpp mariselu / Mărișelu",221,"","HDAM","RO",46.6679,23.059,92,212,"",560
"H2040","Muranzina",4.38,"","HROR","CH",46.71499832,9.883992952,"","","",""
"H2042","Stechelberg",4.3,"","HROR","CH",46.54472644,7.899907479,"","","",""
"H2043","Verzasca tenero",4.25,"","HROR","CH",46.18165823,8.853309454,"","","",""
"H2044","Ferrera",4.23,"","HROR","CH",46.74350502,8.986493632,"","","",""
"H2045","Spina valbella",4.2,"","HROR","CH",46.43113436,9.206999104,"","","",""
"H2048","ORELLANA",4,"","HDAM","ES",38.986,-5.538,9.083477155,808,20,""
"H205","MORALETS GR 1 GENERAC",221,219,"HPHS","ES",42.569,0.757,753,"",27000,""
"H206","Bärenburg",220.76,"","HDAM","CH",46.59019154,9.421427226,64,1,"",488
"H1503","Dionysen",16,"","HROR","AT",47.4166667,15.2833333,"","","",""
"H1455","Orrin",18,"","HDAM","UK",57.775002,-4.955,45,59.466,"",80
"H1456","Quoich",18,"","HROR","UK",57.155998,-4.936,"","","",87
"H2072","Anjalankoski",20,"","HROR","FI",65.93956,25.043108,"","","",130
"H2077","Brummbach linthal",3.9,"","HROR","CH",46.92764054,9.002303541,"","","",""
"H2078","St,sulpice",3.9,"","HROR","CH",46.91062136,6.557451413,"","","",""
"H208","Erzhausen PSW Erzhausen Block 1 - Erzhausen Pumped Storage Power Plant Germany",220,"","HPHS","DE",51.89912,9.92452,287,1.6,1030,""
"H2080","Engi",3.75,"","HROR","CH",46.98504265,9.153197541,"","","",""
"H2082","Schiffmühle",3.68,"","HROR","CH",47.48806753,8.267277979,"","","",""
"H2083","Walibach",3.64,"","HROR","CH",46.45215195,8.215139487,"","","",""
"H2084","Stravaj 2",3.626,"","HROR","AL",41.0057,20.425,"","","",16.317
"H2085","Calcaccia",3.6,"","HROR","CH",46.51949212,8.634575493,"","","",""
"H2086","Buchs altendorf",3.56,"","HROR","CH",47.15699679,9.467100771,"","","",""
"H2087","Luchsingen",3.5,"","HROR","CH",46.96604977,9.035489525,"","","",""
"H1489","Finlarig FINL-1",16.5,"","HROR","UK",56.509998,-4.228,"","","",71
"H2089","Klisoura HPP",3.5,"","HDAM","BG",43.16859,23.15498,124.6,0.05,"",""
"H209","Witznau Schluchsee",220,128,"HPHS","DE",47.68791,8.25159,250,1.3,722,""
"H2091","Wiesti",3.4,"","HROR","CH",46.02437926,7.752570265,"","","",""
"H2092","Grand malades Grand-Malades Hydroelectric Power Plant Belgium - Grand-Malades Hydroelectric Power Plant Belgium",3.380368258,"","HROR","BE",50.4665,4.8992,"","","",""
"H1504","Weinzödl",16,"","HROR","AT",47.108388,15.392094,"","","",""
"H2094","Gobantes",3.34,"","HPHS","ES",36.95558,-4.798108,"","","",""
"H2095","Petite vaux",3.31,"","HROR","CH",46.48885995,6.4050268,"","","",""
"H2097","Aboyeu",3.3,"","HROR","CH",46.18195706,7.03393846,"","","",""
"H2098","Kraftwerksgruppe pfreimd",3.3,"","HROR","DE",49.55226,12.28127,"","","",""
"H2099","Mels stoffel",3.3,"","HROR","CH",47.04326338,9.415542417,"","","",""
"H21","Wehr Kraftwerk Wehr - Wehr Pumped Storage Hydroelectric Power Plant Germany",910,980,"HPHS","DE",47.64529898,7.91819945,625,4.4,7900,""
"H3323","Edison Carlo Esterle Cornate D'Adda",23,"","HROR","IT",45.6540043,9.4847369,"","","",178.6
"H2100","Tvrdošín",3.3,"","HROR","SK",49.33669,19.54867,"","","",""
"H2101","Bözingen",3.26,"","HROR","CH",47.15450871,7.266550789,"","","",""
"H2102","Kandersteg dorf",3.13,"","HROR","CH",46.48551879,7.667655646,"","","",""
"H2103","Abelvattnet",4.6,"","HDAM","SE",65.545168,14.981899,"","","",""
"H2104","Ponte brolla",3.1,"","HROR","CH",46.18559009,8.751208893,"","","",""
"H2105","Ouvra electrica lavinuoz lavin",3.07,"","HROR","CH",46.76897795,10.11431787,"","","",""
"H1505","Graz puntigam",16,"","HROR","AT",47.039749,15.442537,"","","",""
"H2121","Kinna",3.129589802,"","HDAM","SE",57.509323,12.683843,"","","",""
"H2122","Rondchâtel",3,"","HROR","CH",47.17103262,7.249745764,"","","",""
"H1511","Kirchbichl-M1",16,"","HDAM","AT",47.515999,12.088,"","","",""
"H2125","Slezska Harta",3,"","HDAM","CZ",49.89125,17.579583,65,217,"",""
"H1555","Livishie",15,"","HROR","UK",57.155998,-4.936,"","","",29
"H1556","Nant NANT-1",15,"","HROR","UK",56.345001,-5.13,"","","",36
"H213","Hpp vidraru CORB12 - Vidraru Hydroelectric Power Station Romania",220,"","HDAM","RO",45.3667,24.6307,166,469,"",400
"H2137","Ftere 1",3,"","HROR","AL",40.11119167,19.87758889,"","","",19.3
"H2138","Kesznyeten hernadviz hungary Kesznyeten (Hernadviz) Hydroelectric Power Plant Hungary - Kesznyeten (Hernadviz) Hydroelectric Power Plant Hungary",4.4,"","HROR","HU",47.995972,21.033037,14,"","",""
"H2139","HE Pljevlja",2.961,"","HDAM","ME",43.358164,19.313452,"","",2894,""
"H2140","Dietikon",2.94,"","HROR","CH",47.41033996,8.407980194,"","","",""
"H2141","Sainte anne",2.9,"","HROR","CH",46.53512976,7.08799404,"","","",""
"H2142","Ticinetto",2.9,"","HROR","CH",46.41957428,8.850667019,"","","",""
"H2143","Montlingen",2.875,"","HROR","CH",46.79442436,8.261872706,"","","",""
"H2144","Am, dotation du kembs",2.85,"","HROR","CH",47.61947554,7.570308185,"","","",""
"H2147","Murg gödis",2.8,"","HROR","CH",47.10844844,9.214736312,"","","",""
"H2148","Rançonnière",2.8,"","HROR","CH",46.72375862,7.447057829,"","","",""
"H2149","Waldhalde",2.8,"","HROR","CH",47.17916527,8.628475867,"","","",""
"H215","Senj - Senj Hydroelectric Power System Croatia Croatia",217,"","HDAM","HR",45.009998,14.893,410,142,"",1002.2
"H2150","Tvrdošín",2.8,"","HROR","SK",49.33669,19.54867,"","","",""
"H2151","Factoria guarena",2.77,"","HROR","CH",46.42969775,7.845719871,"","","",""
"H2152","Schild",2.75,"","HROR","CH",46.77981412,8.155692521,"","","",""
"H2153","Meiringen",2.65,"","HROR","CH",46.73026775,8.194348516,"","","",""
"H2154","Punt gronda segnas",2.62,"","HROR","CH",46.83845165,9.265093353,"","","",""
"H2155","Le chalet",2.6,"","HROR","CH",46.72772632,6.522243024,"","","",""
"H2156","Servicios vega",2.555,"","HROR","CH",47.12090362,9.483001881,"","","",""
"H2157","Seealp wasserauen",2.5,"","HDAM","CH",47.28070404,9.42116369,"","","",""
"H1557","Pitlochry",15,"","HROR","UK",56.699001,-4.408,"","","",60
"H2159","Moosweid",2.487,"","HROR","CH",46.49610012,7.576844018,"","","",""
"H216","PDF212 - Iron Gate II Hydroelectric Power Station Romania",216,"","HROR","RO",44.306999,22.568001,35,600,"",""
"H2160","Matte",2.474,"","HROR","CH",46.94649346,7.456759328,"","","",""
"H2163","Eichi",2.4,"","HROR","CH",46.94074318,8.287867732,"","","",""
"H2164","V, kozmálovce",2.4,"","HROR","SK",48.26891,18.52822,"","","",""
"H1558","Torr Achilty",15,"","HDAM","UK",57.5851,-4.5397,"","","",42
"H1715","Cashlie",11,"","HROR","UK",56.509998,-4.228,142,"","",26
"H1411","Debe Debe Hydroelectric Power Plant Poland - Debe Hydroelectric Power Plant Poland",20,"","HDAM","PL",52.4883,20.9236,"","","",""
"H2168","Bortel oberstufe",2.35,"","HPHS","CH",46.29345117,8.088158871,"","","",""
"H2169","Ulrichen",2.35,"","HROR","CH",46.50312594,8.318531648,"","","",""
"H217","Dubrovnik - Dubrovnik Hydroelectric Power Plant Bosnia and Herzegovina",216,"","HDAM","HR",42.603001,18.235001,272,1109,"",""
"H2170","Murg säge",2.32,"","HROR","CH",47.11350488,9.219385013,"","","",""
"H2171","Au schönenberg",2.3,"","HROR","CH",47.52398098,9.186791025,"","","",""
"H2172","Niederurnen",2.22,"","HROR","CH",47.12358202,9.042165024,"","","",""
"H1766","Cassley CASS-1",10,"","HROR","UK",58.188999,-4.734,"","","",26
"H2174","Empächli",2.19,"","HROR","CH",47.06140912,8.334939326,"","","",""
"H2175","Lorzentobel",2.17,"","HROR","CH",47.19570447,8.539363749,"","","",""
"H2176","Lenie",2.17,"","HROR","AL",40.76601389,20.39604444,"","","",10.118
"H2177","Perlen wta hf",2.15,"","HROR","CH",47.10914579,8.362937467,"","","",""
"H2178","Blinne",2.13,"","HROR","CH",46.4652885,8.25334304,"","","",""
"H218","Villalcampo VILLALC 21 - Villalcampo Hydroelectric Power Plant Spain",215.81,"","HDAM","ES",41.491101,-6.084608,228,66,41000,""
"H2180","Rathausen",2.1,"","HROR","CH",47.0817754,8.314332515,"","","",""
"H2181","Morteratsch",2.03,"","HROR","CH",46.23133528,8.860235763,"","","",""
"H219","Salamonde Salamonde II - G3 - Salamonde Hydroelectric Power Plant Portugal",231,204,"HPHS","PT",41.689967,-8.092345,75,56.3,7520,""
"H1512","Laufnitzdorf-KW",16,"","HDAM","AT",47.292,15.323,"","","",""
"H1513","St, Veit-KW - St, Veit Hydroelectric Power Plant Austria",16,"","HDAM","AT",47.321999,13.174,"","","",""
"H1541","Gralla",15,"","HROR","AT",46.828285,15.566222,"","","",""
"H2196","Hospental",2,"","HROR","CH",46.62056382,8.569044629,"","","",""
"H1547","Strubklamm",15,"","HDAM","AT",47.79940564,13.04399014,"","","",""
"H1857","Striven STVE-1",8,"","HROR","UK",56.014999,-5.121,"","","",22
"H22","Kruonis & extension Kruonio KHAE-----HA1 - Kruonis Pumped Storage Hydroelectric Power Plant Lithuania",900,880,"HPHS","LT",54.797866,24.248169,103.5,41,10800,490.09
"H220","Laufenburg",106,"","HROR","CH",47.55591338,8.049124537,"","","",""
"H221","Sisteron SISTERON 1 - Sisteron Hydroelectric Power Station France",214,"","HDAM","FR",44.17517,5.95215,17,1.8,"",""
"H2215","Radove",2,"","HROR","AL",40.13735833,20.55160556,"","","",11.6
"H2216","Sella",1.93,"","HDAM","CH",46.55246375,8.586661903,36,9.2,"",""
"H2217","Bevieux",1.9,"","HROR","CH",46.26038119,7.028814127,"","","",""
"H2218","Chamarin",1.9,"","HROR","CH",46.31483112,7.43176342,"","","",""
"H2219","Clemgia",1.9,"","HROR","CH",46.78849404,10.29691776,"","","",""
"H222","Seitevare Seitevare G1 - Seitevare Hydroelectric Power Station Sweden",225,"","HDAM","SE",66.976846,18.573706,106,1675,"",760
"H2220","Giessen",1.9,"","HROR","CH",47.21784522,9.209392592,"","","",""
"H2221","Lorzentobel",1.9,"","HROR","CH",47.17202039,8.56064288,"","","",""
"H2222","Ujanik 2",1.9,"","HROR","AL",40.65228889,20.24792778,"","","",9.57
"H2223","Flor",1.88,"","HROR","CH",47.08808419,9.340261785,"","","",""
"H2224","Hydro vierre Hydro de la Vierre - Hydro de la Vierre",1.875796178,"","HDAM","BE",49.733,5.377,12,1.3,"",""
"H2225","Schwanden gemeinde",1.8,"","HROR","CH",46.99564066,9.086996851,"","","",""
"H2226","Trempel",1.8,"","HROR","CH",47.24948836,9.163668355,"","","",""
"H2227","Butgenbach Butgenbach Hydroelectric Power plant Belgium - Butgenbach Hydroelectric Power plant Belgium",1.777070064,"","HDAM","BE",50.4359,6.2106,28,11,"",""
"H2228","Stenna flims flembach",1.73,"","HROR","CH",46.83375685,9.282896224,"","","",""
"H2230","Er palier isérables c, arcay",1.7,"","HROR","CH",46.16093543,7.24886404,"","","",""
"H2231","Thurfeld",1.7,"","HROR","CH",47.5192647,9.207086972,"","","",""
"H2232","Grido",1.68,"","HDAM","CH",46.62641983,8.050242336,"","","",""
"H2233","Lorzentobel",1.67,"","HROR","CH",47.18035372,8.554748504,"","","",""
"H2234","Sonzier",1.65,"","HROR","CH",46.44032313,6.925171654,"","","",""
"H2235","Täschbach",1.65,"","HROR","CH",46.06720508,7.781118327,"","","",""
"H2236","Sustli",1.63,"","HROR","CH",46.96377645,8.483363564,"","","",""
"H2237","Göschenen unterdorf",1.62,"","HROR","CH",46.66781915,8.58467036,"","","",""
"H2238","Linthwerk",1.6,"","HROR","CH",46.92605396,8.999893509,"","","",""
"H2239","Nandrò",1.59,"","HROR","CH",46.5681521,9.570275421,"","","",""
"H1339","Alanno",22,"","HROR","IT",42.295438,13.971105,"","","",""
"H2240","Riddes l'eau potable",1.565,"","HROR","CH",46.16890503,7.228379036,"","","",""
"H2241","Madulain",1.56,"","HROR","CH",46.58527095,9.93630252,"","","",""
"H2242","Dornachbrugg",1.54,"","HROR","CH",47.4890185,7.607406154,"","","",""
"H2243","Bürglen loreto",1.5,"","HROR","CH",46.87652924,8.663371668,"","","",""
"H2244","Raimat",1.5,"","HROR","CH",47.00009483,9.501152888,"","","",""
"H2245","Val giuf",1.5,"","HROR","CH",46.67133644,8.750729475,"","","",""
"H2246","Pack",1.5,"","HDAM","ES",46.979012,15.022876,"","","",""
"H2247","Kleintal isenthal",1.483,"","HROR","CH",46.91004298,8.562265169,"","","",""
"H2248","Paraya",1.48,"","HROR","CH",46.41963529,9.234467239,"","","",""
"H2249","Hospitalet",1.47,"","HROR","CH",45.88600196,7.18722185,"","","",""
"H177","Rellswerk",15,12,"HPHS","AT",47.0531826,9.7529724,"","","",""
"H2250","Silvaplana",1.47,"","HROR","CH",46.45962429,9.793376732,"","","",""
"H2251","Sihl höfe",1.45,"","HROR","CH",47.17733569,8.682395765,"","","",""
"H2252","Gipuzkoako urak",1.442,"","HROR","CH",46.26591756,7.781588383,"","","",""
"H2253","Wässerwasserkraftwerk mund",1.44,"","HROR","CH",46.31423894,7.945729533,"","","",""
"H2254","Wässerwasserkraftwerk mund",1.44,"","HROR","CH",46.31423894,7.945729533,"","","",""
"H2255","Grabs löchli",1.43,"","HROR","CH",47.17572709,9.430203649,"","","",""
"H2256","Linthkraft netstal",1.42,"","HROR","CH",47.07374951,9.060690799,"","","",""
"H2257","Höngg",1.4,"","HROR","CH",47.40146932,8.48651399,"","","",""
"H2258","Tucep / Tuçep",1.4,"","HROR","AL",41.44522,20.5049,"","","",7.5
"H2259","Morgental abwasser",1.387,"","HROR","CH",47.50056662,9.427904324,"","","",""
"H1340","Muzzone Coghinas",22,"","HDAM","IT",40.719766,9.101024,50,223.9,"",50.929
"H2260","Berner green gmbh",1.37,"","HROR","CH",46.66691626,7.464118512,"","","",""
"H2261","Mülau",1.37,"","HROR","CH",47.41087234,9.078116171,"","","",""
"H2262","Murkart",1.33,"","HROR","CH",47.53748775,8.914382519,"","","",""
"H2263","Bassecourt",1.27,"","HROR","CH",47.33101593,7.231977249,"","","",""
"H2264","Ossasco",1.27,"","HROR","CH",46.51263656,8.538384772,"","","",""
"H2265","Tagenstal",1.27,"","HROR","CH",46.80560492,8.445577054,"","","",""
"H2266","Trigemer sa",1.26,"","HROR","CH",46.05833724,6.960300386,"","","",""
"H2267","Nesslau ijentalerbach",1.25,"","HROR","CH",47.22163731,9.184955161,"","","",""
"H2268","Saflisch",1.25,"","HROR","CH",46.34285701,8.173570384,"","","",""
"H2269","Sennwald",1.22,"","HROR","CH",47.26157616,9.496054092,"","","",""
"H227","Gallejaur Gallejaur G1 - Gallejour Hydroelectric Power Plant Seweden",214,"","HDAM","SE",65.127297,19.467367,56,12.6,"",661
"H2270","Niollet",1.2,"","HROR","CH",46.02118389,7.14243628,"","","",""
"H2271","Taulan",1.2,"","HROR","CH",46.43390549,6.918466799,"","","",""
"H2272","Valeis",1.2,"","HROR","CH",47.02326223,9.448095053,"","","",""
"H2273","Flums neues sägengüetli",1.19,"","HROR","CH",47.08862808,9.340017618,"","","",""
"H2274","Knežke ravne",1.18,"","HROR","CH",47.4592833,8.768831855,"","","",""
"H2275","Ziegelbrücke",1.18,"","HROR","CH",47.13318748,9.062887359,"","","",""
"H2276","Oberterzen",1.16,"","HROR","CH",47.10054715,9.259668837,"","","",""
"H2277","Melje Melje Hydroelectric Poqwer Plant Slovenia - Melje Hydroelectric Poqwer Plant Slovenia",2.26,"","HROR","SI",46.56087,15.67309,"","","",8.69
"H2278","Engi hinterdorf sernf",1.13,"","HROR","CH",46.71179328,8.360463288,"","","",""
"H2279","Kandersteg zilfuri",1.09,"","HROR","CH",46.49563349,7.691598934,"","","",""
"H228","Vallabregues VALLABREGUES - Beaucaire Hydroelectric Power Station France",210,"","HROR","FR",43.82415,4.64349,14,"","",""
"H2280","Chasseras",1.07,"","HROR","CH",46.6140138,10.44144265,"","","",""
"H2281","Neuewelt",1.07,"","HROR","CH",47.52578187,7.621730117,"","","",""
"H2282","Turtig",1.06,"","HROR","CH",46.30123283,7.793881283,"","","",""
"H2283","Hefti",1.05,"","HROR","CH",46.96463478,9.04017863,"","","",""
"H2284","Bischofszell",1.02,"","HROR","CH",47.49302794,9.234221195,"","","",""
"H1576","Gabersdorf",14,"","HROR","AT",46.785118,15.585557,"","","",""
"H1577","Rabenstein",14,"","HROR","AT",47.251148,15.31034,"","","",""
"H1590","Kraftwerk Schuett",14,"","HDAM","AT",46.570999,13.722,"","","",""
"H1591","Friesach-KW",14,"","HDAM","AT",47.144001,15.33,"","","",""
"H229","SALAKOVAC - Salakovac Hydroelectric Power Plant Bosnia and Herzegovina",210,"","HDAM","BA",43.448002,17.837,70,68,"",590
"H1592","Gabersdorf-KW",14,"","HDAM","AT",46.799999,15.559,"","","",""
"H1593","Gralla-KW",14,"","HDAM","AT",46.837002,15.552,"","","",""
"H1594","Rabenstein-KW",14,"","HDAM","AT",47.250999,15.31,"","","",""
"H1616","Obervogau",13,"","HROR","AT",46.745776,15.571428,"","","",59
"H1617","Peggau",13,"","HROR","AT",47.20926,15.335656,"","","",""
"H1619","Spielfeld",13,"","HROR","AT",46.716449,15.62127,"","","",""
"H1628","Peggau-KW",13,"","HDAM","AT",47.187,15.336,"","","",""
"H2297","Am, dotation du châtelot",1,"","HROR","CH",47.10144376,6.744403377,"","","",""
"H1629","Spielfeld-KW",13,"","HDAM","AT",46.716999,15.622,"","","",""
"H2299","Leuggelbach",1,"","HROR","CH",46.97740129,9.047263569,"","","",""
"H23","Nant drance NANT DE DRANCE - Nant de Drance Pumped Storage Power Plant Switzerland",900,"","HPHS","CH",46.1025948,7.0770551,45,13.8,"",""
"H230","Hpp stejaru STEJ1 - Bicaz-Stejaru Hydroelectric Power Station Romania",208.4,"","HDAM","RO",46.9386,26.1029,127,1230,"",434
"H2300","Piumogna dalpe",1,"","HROR","CH",46.46656378,8.766605897,"","","",""
"H2301","Turgi",1,"","HROR","CH",47.4960769,8.253998493,"","","",""
"H1663","Friesach",12,"","HROR","AT",47.186513,15.336014,"","","",""
"H231","HE DJERDAP II",208,"","HROR","RS",44.328999,22.528,35,"","",1310
"H2328","Parteen Weir",1,"","HDAM","IE",52.762083,-8.477083,16,465,"",4
"H2329","Bag turgi",0.991,"","HROR","CH",47.49814996,8.240492765,"","","",""
"H233","Guillena GUILLENA GR 1 GENERAC",207,225,"HPHS","ES",37.567315,-6.049541,217,2.33,1123,""
"H2330","Kwkw dornbach",0.99,"","HROR","CH",46.3912093,7.757027025,"","","",""
"H2331","Mels tobel",0.99,"","HROR","CH",47.03825566,9.392719811,"","","",""
"H2332","Buchs vorderberg",0.98,"","HROR","CH",47.14900223,9.445827051,"","","",""
"H2333","Dietfurt",0.98,"","HROR","CH",47.34444353,9.080705976,"","","",""
"H2334","Kwkw bachtoli",0.98,"","HROR","CH",46.2926425,7.779031385,"","","",""
"H2335","Moos",0.98,"","HROR","CH",47.43877706,7.581132191,"","","",""
"H2336","Soor",0.98,"","HROR","CH",47.35644098,9.078427788,"","","",""
"H2337","Champéry etrivouez",0.97,"","HROR","CH",46.16176273,6.859187667,"","","",""
"H2338","Schergenbach",0.96,"","HROR","CH",46.96038462,10.42176816,"","","",""
"H2339","Valmara",0.95,"","HROR","CH",45.93944539,8.977679677,"","","",""
"H234","Harrsele",210,"","HROR","SE",64.000342,19.566667,29,4.8,"",968
"H2340","Lunschania",0.94,"","HROR","CH",46.66015035,9.188230385,"","","",""
"H2341","Brummbach braunwald",0.93,"","HROR","CH",46.93860819,8.983050615,"","","",""
"H2342","Diesbach linth",0.93,"","HROR","CH",46.95112776,9.028082335,"","","",""
"H2343","Mühlenplatz",0.93,"","HROR","CH",47.05173377,8.301996655,"","","",""
"H2344","Pont neuf",0.93,"","HROR","CH",46.07318487,7.055427017,"","","",""
"H2345","Haslen",0.92,"","HROR","CH",46.9838748,9.060341551,"","","",""
"H2346","Moutier",0.92,"","HROR","CH",47.26568755,7.349039421,"","","",""
"H2347","Tarasp ischla",0.92,"","HROR","CH",46.78990298,10.283756,"","","",""
"H2348","Torrent soi",0.92,"","HROR","CH",46.18603087,6.891049703,"","","",""
"H2349","Giessbach",0.9,"","HROR","CH",46.73444273,8.018887644,"","","",""
"H2350","Lauenen louibach",0.9,"","HROR","CH",46.42415333,7.318313953,"","","",""
"H2351","Preda bergün",0.9,"","HROR","CH",46.58745777,9.77845017,"","","",""
"H2352","Realp",0.9,"","HROR","CH",46.59934559,8.502297468,"","","",""
"H2353","Schwanden f,blumer",0.9,"","HROR","CH",46.99379408,9.077735512,"","","",""
"H2354","Rütiberg obersee",0.89,"","HROR","CH",47.09360042,9.03731544,"","","",""
"H2355","Flims felsbach karstwasser",0.88,"","HROR","CH",46.83409051,9.317652494,"","","",""
