[{"distance":1,"store":{"id":7080001160975,"chainid":1100,"name":"Kiwi 525 Osloveien","link":"","description":"","location":{"latitude":60.1523846833,"longitude":10.2531037687},"zipcode":"3511","zipcitycode":"HØNEFOSS","municipalitid":3007,"countyid":30,"regionname":"VESTRE ØSTLAND","services":"TRUMFBONUS","visitaddress":"Dronning Åstasgate 10","phone":"32134032","fax":"32134033","email":"kiwi.osloveien@kiwi.no","openinghours":{"days":[{"date":null,"label":"Hverdager","from":"07:00","to":"23:00"},{"date":null,"label":"Lørdag","from":"07:00","to":"23:00"},{"date":null,"label":"Søndag","from":"","to":""}],"special":[],"today":{"date":"2021-02-06","label":"Dagens åpningstider","from":"07:00","to":"23:00"},"isopenlate":true,"isopenonsunday":false},"istrumfactivated":true,"loc":{"lon":10.2531037687,"lat":60.1523846833},"municipality":"RINGERIKE","county":"VIKEN","suggestion":["RINGERIKE","VIKEN","Kiwi 525 Osloveien","3511","525","Osloveien"]}},{"distance":1,"store":{"id":7080003539007,"chainid":1100,"name":"Kiwi 942 Sunndalsøra","link":"","description":"","location":{"latitude":62.6736348189,"longitude":8.5638119015},"zipcode":"6600","zipcitycode":"SUNNDALSØRA","municipalitid":1563,"countyid":15,"regionname":"MØRE","services":"TRUMFBONUS","visitaddress":"Sunndalsvegen 3","phone":"71690831","fax":"71690832","email":"kiwi.sunndalsora@kiwi.no","openinghours":{"days":[{"date":null,"label":"Hverdager","from":"07:00","to":"23:00"},{"date":null,"label":"Lørdag","from":"07:00","to":"23:00"},{"date":null,"label":"Søndag","from":"","to":""}],"special":[],"today":{"date":"2021-02-06","label":"Dagens åpningstider","from":"07:00","to":"23:00"},"isopenlate":true,"isopenonsunday":false},"istrumfactivated":true,"loc":{"lon":8.5638119015,"lat":62.6736348189},"municipality":"SUNNDAL","county":"MØRE OG ROMSDAL","suggestion":["SUNNDAL","MØRE OG ROMSDAL","Kiwi 942 Sunndalsøra","6600","942","Sunndalsøra"]}},{"distance":1,"store":{"id":7080000743810,"chainid":1100,"name":"Kiwi 569 Moveien","link":"","description":"","location":{"latitude":59.1429910299,"longitude":10.2002182834},"zipcode":"3215","zipcitycode":"SANDEFJORD","municipalitid":3804,"countyid":38,"regionname":"VESTRE ØSTLAND","services":"TRUMFBONUS, TIPPING","visitaddress":"Moveien 53","phone":"33 46 50 61","fax":"33 46 50 62","email":"kiwi.moveien@kiwi.no","openinghours":{"days":[{"date":null,"label":"Hverdager","from":"07:00","to":"23:00"},{"date":null,"label":"Lørdag","from":"07:00","to":"23:00"},{"date":null,"label":"Søndag","from":"","to":""}],"special":[],"today":{"date":"2021-02-06","label":"Dagens åpningstider","from":"07:00","to":"23:00"},"isopenlate":true,"isopenonsunday":false},"istrumfactivated":true,"loc":{"lon":10.2002182834,"lat":59.1429910299},"municipality":"SANDEFJORD","county":"VESTFOLD OG TELEMARK","suggestion":["SANDEFJORD","VESTFOLD OG TELEMARK","Kiwi 569 Moveien","3215","569","Moveien"]}},{"distance":1,"store":{"id":7080000908660,"chainid":1100,"name":"Kiwi 856 Sørås","link":"","description":"","location":{"latitude":60.298203696,"longitude":5.3166021072},"zipcode":"5239","zipcitycode":"RÅDAL","municipalitid":4601,"countyid":46,"regionname":"VEST","services":"TRUMFBONUS","visitaddress":"Folldalslia 1","phone":"55131120","fax":"55137046","email":"kiwi.soras@kiwi.no","openinghours":{"days":[{"date":null,"label":"Hverdager","from":"07:00","to":"23:00"},{"date":null,"label":"Lørdag","from":"07:00","to":"23:00"},{"date":null,"label":"Søndag","from":"","to":""}],"special":[],"today":{"date":"2021-02-06","label":"Dagens åpningstider","from":"07:00","to":"23:00"},"isopenlate":true,"isopenonsunday":false},"istrumfactivated":true,"loc":{"lon":5.3166021072,"lat":60.298203696},"municipality":"BERGEN","county":"VESTLAND","suggestion":["BERGEN","VESTLAND","Kiwi 856 Sørås","5239","856","Sørås"]}},{"distance":1,"store":{"id":7080000004959,"chainid":1100,"name":"Kiwi 821 Haus","link":"","description":"","location":{"latitude":60.453681489,"longitude":5.4937079402},"zipcode":"5286","zipcitycode":"HAUS","municipalitid":4630,"countyid":46,"regionname":"VEST","services":"PIB, TRUMFBONUS, TIPPING","visitaddress":"Haus 45","phone":"56193350","fax":"56390550","email":"kiwi.haus@kiwi.no","openinghours":{"days":[{"date":null,"label":"Hverdager","from":"08:00","to":"22:00"},{"date":null,"label":"Lørdag","from":"09:00","to":"20:00"},{"date":null,"label":"Søndag","from":"","to":""}],"special":[],"today":{"date":"2021-02-06","label":"Dagens åpningstider","from":"09:00","to":"20:00"},"isopenlate":false,"isopenonsunday":false},"istrumfactivated":true,"loc":{"lon":5.4937079402,"lat":60.453681489},"municipality":"OSTERØY","county":"VESTLAND","suggestion":["OSTERØY","VESTLAND","Kiwi 821 Haus","5286","821","Haus"]}},{"distance":1,"store":{"id":7080001113537,"chainid":1100,"name":"Kiwi 026 Øyer","link":"","description":"","location":{"latitude":61.2438324718,"longitude":10.4386966068},"zipcode":"2636","zipcitycode":"ØYER","municipalitid":3440,"countyid":34,"regionname":"INNLAND","services":"TRUMFBONUS, TIPPING","visitaddress":"Kongsvegen 10","phone":"61 27 71 33","fax":null,"email":"kiwi.oyer@kiwi.no","openinghours":{"days":[{"date":null,"label":"Hverdager","from":"07:00","to":"23:00"},{"date":null,"label":"Lørdag","from":"07:00","to":"23:00"},{"date":null,"label":"Søndag","from":"09:00","to":"21:00"}],"special":[],"today":{"date":"2021-02-06","label":"Dagens åpningstider","from":"07:00","to":"23:00"},"isopenlate":true,"isopenonsunday":true},"istrumfactivated":true,"loc":{"lon":10.4386966068,"lat":61.2438324718},"municipality":"ØYER","county":"INNLANDET","suggestion":["ØYER","INNLANDET","Kiwi 026 Øyer","2636","026","Øyer"]}},{"distance":1,"store":{"id":7080001106393,"chainid":1100,"name":"Kiwi 881 Nøstet","link":"","description":"","location":{"latitude":60.3914242455,"longitude":5.3146080513},"zipcode":"5011","zipcitycode":"BERGEN","municipalitid":4601,"countyid":46,"regionname":"VEST","services":"TRUMFBONUS","visitaddress":"Nøstegaten 31","phone":"55329497","fax":"55329498","email":"kiwi.nostet@kiwi.no","openinghours":{"days":[{"date":null,"label":"Hverdager","from":"07:00","to":"23:00"},{"date":null,"label":"Lørdag","from":"07:00","to":"23:00"},{"date":null,"label":"Søndag","from":"","to":""}],"special":[],"today":{"date":"2021-02-06","label":"Dagens åpningstider","from":"07:00","to":"23:00"},"isopenlate":true,"isopenonsunday":false},"istrumfactivated":true,"loc":{"lon":5.3146080513,"lat":60.3914242455},"municipality":"BERGEN","county":"VESTLAND","suggestion":["BERGEN","VESTLAND","Kiwi 881 Nøstet","5011","881","Nøstet"]}},{"distance":1,"store":{"id":7080001130091,"chainid":1100,"name":"Kiwi 444 Borre","link":"","description":"","location":{"latitude":59.3803248957,"longitude":10.4551089612},"zipcode":"3184","zipcitycode":"BORRE","municipalitid":3801,"countyid":38,"regionname":"VESTRE ØSTLAND","services":"TRUMFBONUS, TIPPING","visitaddress":"Gannestadveien 1-3","phone":"33 04 12 38","fax":"33 04 12 39","email":"kiwi.borre@kiwi.no","openinghours":{"days":[{"date":null,"label":"Hverdager","from":"07:00","to":"23:00"},{"date":null,"label":"Lørdag","from":"07:00","to":"23:00"},{"date":null,"label":"Søndag","from":"","to":""}],"special":[],"today":{"date":"2021-02-06","label":"Dagens åpningstider","from":"07:00","to":"23:00"},"isopenlate":true,"isopenonsunday":false},"istrumfactivated":true,"loc":{"lon":10.4551089612,"lat":59.3803248957},"municipality":"HORTEN","county":"VESTFOLD OG TELEMARK","suggestion":["HORTEN","VESTFOLD OG TELEMARK","Kiwi 444 Borre","3184","444","Borre"]}},{"distance":1,"store":{"id":7080001364038,"chainid":1100,"name":"Kiwi 945 Nordbyen","link":"","description":"","location":{"latitude":62.752675104,"longitude":7.2348107753},"zipcode":"6425","zipcitycode":"MOLDE","municipalitid":1506,"countyid":15,"regionname":"MØRE","services":"TRUMFBONUS, TIPPING","visitaddress":"Råkhaugveien 2","phone":"71 21 23 20","fax":"71 21 21 75","email":"kiwi.nordbyen@kiwi.no","openinghours":{"days":[{"date":null,"label":"Hverdager","from":"07:00","to":"23:00"},{"date":null,"label":"Lørdag","from":"07:00","to":"23:00"},{"date":null,"label":"Søndag","from":"","to":""}],"special":[],"today":{"date":"2021-02-06","label":"Dagens åpningstider","from":"07:00","to":"23:00"},"isopenlate":true,"isopenonsunday":false},"istrumfactivated":true,"loc":{"lon":7.2348107753,"lat":62.752675104},"municipality":"MOLDE","county":"MØRE OG ROMSDAL","suggestion":["MOLDE","MØRE OG ROMSDAL","Kiwi 945 Nordbyen","6425","945","Nordbyen"]}},{"distance":1,"store":{"id":7080001044169,"chainid":1100,"name":"Kiwi 831 Ikenberget","link":"","description":"","location":{"latitude":60.5615019611,"longitude":5.2505910042},"zipcode":"5911","zipcitycode":"ALVERSUND","municipalitid":4631,"countyid":46,"regionname":"VEST","services":"TRUMFBONUS, TIPPING","visitaddress":"Blombakken 2","phone":"56358610","fax":"56358611","email":"kiwi.ikenberget@kiwi.no","openinghours":{"days":[{"date":null,"label":"Hverdager","from":"07:00","to":"23:00"},{"date":null,"label":"Lørdag","from":"07:00","to":"23:00"},{"date":null,"label":"Søndag","from":"","to":""}],"special":[],"today":{"date":"2021-02-06","label":"Dagens åpningstider","from":"07:00","to":"23:00"},"isopenlate":true,"isopenonsunday":false},"istrumfactivated":true,"loc":{"lon":5.2505910042,"lat":60.5615019611},"municipality":"ALVER","county":"VESTLAND","suggestion":["ALVER","VESTLAND","Kiwi 831 Ikenberget","5911","831","Ikenberget"]}},{"distance":1,"store":{"id":7080001181901,"chainid":1100,"name":"Kiwi 843 Volda","link":"","description":"","location":{"latitude":62.146716948,"longitude":6.0887056783},"zipcode":"6103","zipcitycode":"VOLDA","municipalitid":1577,"countyid":15,"regionname":"MØRE","services":"TRUMFBONUS","visitaddress":"Vikebygdvegen 4","phone":"70078600","fax":"70078601","email":"kiwi.volda@kiwi.no","openinghours":{"days":[{"date":null,"label":"Hverdager","from":"07:00","to":"23:00"},{"date":null,"label":"Lørdag","from":"09:00","to":"23:00"},{"date":null,"label":"Søndag","from":"","to":""}],"special":[],"today":{"date":"2021-02-06","label":"Dagens åpningstider","from":"09:00","to":"23:00"},"isopenlate":true,"isopenonsunday":false},"istrumfactivated":true,"loc":{"lon":6.0887056783,"lat":62.146716948},"municipality":"VOLDA","county":"MØRE OG ROMSDAL","suggestion":["VOLDA","MØRE OG ROMSDAL","Kiwi 843 Volda","6103","843","Volda"]}},{"distance":1,"store":{"id":7080001199593,"chainid":1100,"name":"Kiwi 114 Tiller","link":"","description":"","location":{"latitude":63.3570414162,"longitude":10.3745990979},"zipcode":"7075","zipcitycode":"TILLER","municipalitid":5001,"countyid":50,"regionname":"Midt","services":"TRUMFBONUS","visitaddress":"Ivar Lykkes veg 5","phone":"72889485","fax":"72889542","email":"kiwi.tiller@kiwi.no","openinghours":{"days":[{"date":null,"label":"Hverdager","from":"07:00","to":"23:00"},{"date":null,"label":"Lørdag","from":"07:00","to":"23:00"},{"date":null,"label":"Søndag","from":"","to":""}],"special":[],"today":{"date":"2021-02-06","label":"Dagens åpningstider","from":"07:00","to":"23:00"},"isopenlate":true,"isopenonsunday":false},"istrumfactivated":true,"loc":{"lon":10.3745990979,"lat":63.3570414162},"municipality":"TRONDHEIM","county":"TRØNDELAG","suggestion":["TRONDHEIM","TRØNDELAG","Kiwi 114 Tiller","7075","114","Tiller"]}},{"distance":1,"store":{"id":7080001201319,"chainid":1100,"name":"Kiwi 559 Rjukan Sentrum","link":"","description":"","location":{"latitude":59.8784181555,"longitude":8.5871856077},"zipcode":"3660","zipcitycode":"RJUKAN","municipalitid":3818,"countyid":38,"regionname":"VESTRE ØSTLAND","services":"TRUMFBONUS","visitaddress":"Sam Eydesgate 63","phone":"35090480","fax":"35090481","email":"kiwi.rjukan-sentrum@kiwi.no","openinghours":{"days":[{"date":null,"label":"Hverdager","from":"07:00","to":"23:00"},{"date":null,"label":"Lørdag","from":"08:00","to":"21:00"},{"date":null,"label":"Søndag","from":"10:00","to":"18:00"}],"special":[],"today":{"date":"2021-02-06","label":"Dagens åpningstider","from":"08:00","to":"21:00"},"isopenlate":true,"isopenonsunday":true},"istrumfactivated":true,"loc":{"lon":8.5871856077,"lat":59.8784181555},"municipality":"TINN","county":"VESTFOLD OG TELEMARK","suggestion":["TINN","VESTFOLD OG TELEMARK","Kiwi 559 Rjukan Sentrum","3660","559","Rjukan","Sentrum"]}},{"distance":1,"store":{"id":7080001064532,"chainid":1100,"name":"Kiwi 867 Hetlevikåsen","link":"","description":"","location":{"latitude":60.3504987394,"longitude":5.2280728948},"zipcode":"5173","zipcitycode":"LODDEFJORD","municipalitid":4601,"countyid":46,"regionname":"VEST","services":"TRUMFBONUS, TIPPING","visitaddress":"Mathopsveien 58","phone":"55269900","fax":"55269901","email":"kiwi.hetleviksasen@kiwi.no","openinghours":{"days":[{"date":null,"label":"Hverdager","from":"07:00","to":"23:00"},{"date":null,"label":"Lørdag","from":"07:00","to":"23:00"},{"date":null,"label":"Søndag","from":"","to":""}],"special":[],"today":{"date":"2021-02-06","label":"Dagens åpningstider","from":"07:00","to":"23:00"},"isopenlate":true,"isopenonsunday":false},"istrumfactivated":true,"loc":{"lon":5.2280728948,"lat":60.3504987394},"municipality":"BERGEN","county":"VESTLAND","suggestion":["BERGEN","VESTLAND","Kiwi 867 Hetlevikåsen","5173","867","Hetlevikåsen"]}},{"distance":1,"store":{"id":7080001066079,"chainid":1100,"name":"Kiwi 307 Kringsjå","link":"","description":"","location":{"latitude":59.9638041785,"longitude":10.7333399813},"zipcode":"0864","zipcitycode":"OSLO","municipalitid":301,"countyid":3,"regionname":"ØST","services":"TRUMFBONUS","visitaddress":"Olav M. Troviks vei 72","phone":"22 58 94 42","fax":null,"email":"kiwi.kringsja@kiwi.no","openinghours":{"days":[{"date":null,"label":"Hverdager","from":"07:00","to":"23:00"},{"date":null,"label":"Lørdag","from":"07:00","to":"23:00"},{"date":null,"label":"Søndag","from":"","to":""}],"special":[],"today":{"date":"2021-02-06","label":"Dagens åpningstider","from":"07:00","to":"23:00"},"isopenlate":true,"isopenonsunday":false},"istrumfactivated":true,"loc":{"lon":10.7333399813,"lat":59.9638041785},"municipality":"OSLO","county":"OSLO","suggestion":["OSLO","OSLO","Kiwi 307 Kringsjå","0864","307","Kringsjå"]}},{"distance":1,"store":{"id":7080001067137,"chainid":1100,"name":"Kiwi 634 Sunde","link":"","description":"","location":{"latitude":58.9611797681,"longitude":5.6103962468},"zipcode":"4048","zipcitycode":"HAFRSFJORD","municipalitid":1103,"countyid":11,"regionname":"ROGALAND","services":"TRUMFBONUS","visitaddress":"Kvernevik Ring 215","phone":"51 59 45 10","fax":"51 59 45 11","email":"kiwi.sunde@kiwi.no","openinghours":{"days":[{"date":null,"label":"Hverdager","from":"07:00","to":"23:00"},{"date":null,"label":"Lørdag","from":"07:00","to":"23:00"},{"date":null,"label":"Søndag","from":"","to":""}],"special":[],"today":{"date":"2021-02-06","label":"Dagens åpningstider","from":"07:00","to":"23:00"},"isopenlate":true,"isopenonsunday":false},"istrumfactivated":true,"loc":{"lon":5.6103962468,"lat":58.9611797681},"municipality":"STAVANGER","county":"ROGALAND","suggestion":["STAVANGER","ROGALAND","Kiwi 634 Sunde","4048","634","Sunde"]}},{"distance":1,"store":{"id":7080001229085,"chainid":1100,"name":"Kiwi 736 Elvegata","link":"","description":"","location":{"latitude":58.1483211274,"longitude":8.0043834573},"zipcode":"4608","zipcitycode":"KRISTIANSAND S","municipalitid":4204,"countyid":42,"regionname":"SØR","services":"TRUMFBONUS","visitaddress":"Kongens gate 75","phone":"38044577","fax":"38044578","email":"kiwi.elvegata@kiwi.no","openinghours":{"days":[{"date":null,"label":"Hverdager","from":"07:00","to":"23:00"},{"date":null,"label":"Lørdag","from":"07:00","to":"23:00"},{"date":null,"label":"Søndag","from":"","to":""}],"special":[],"today":{"date":"2021-02-06","label":"Dagens åpningstider","from":"07:00","to":"23:00"},"isopenlate":true,"isopenonsunday":false},"istrumfactivated":true,"loc":{"lon":8.0043834573,"lat":58.1483211274},"municipality":"KRISTIANSAND","county":"AGDER","suggestion":["KRISTIANSAND","AGDER","Kiwi 736 Elvegata","4608","736","Elvegata"]}},{"distance":1,"store":{"id":7080000010943,"chainid":1100,"name":"Kiwi 224 Kvam","link":"","description":"","location":{"latitude":61.6651910714,"longitude":9.6991048896},"zipcode":"2642","zipcitycode":"KVAM","municipalitid":3436,"countyid":34,"regionname":"INNLAND","services":"PIB, TRUMFBONUS, TIPPING","visitaddress":"Linvegen 1","phone":"61 21 68 50","fax":"61216851","email":"kiwi.kvam@kiwi.no","openinghours":{"days":[{"date":null,"label":"Hverdager","from":"07:00","to":"23:00"},{"date":null,"label":"Lørdag","from":"09:00","to":"21:00"},{"date":null,"label":"Søndag","from":"","to":""}],"special":[],"today":{"date":"2021-02-06","label":"Dagens åpningstider","from":"09:00","to":"21:00"},"isopenlate":true,"isopenonsunday":false},"istrumfactivated":true,"loc":{"lon":9.6991048896,"lat":61.6651910714},"municipality":"NORD-FRON","county":"INNLANDET","suggestion":["NORD-FRON","INNLANDET","Kiwi 224 Kvam","2642","224","Kvam"]}},{"distance":1,"store":{"id":7080001077747,"chainid":1100,"name":"Kiwi 639 Sagvåg","link":"","description":"","location":{"latitude":59.7752686611,"longitude":5.3929339083},"zipcode":"5410","zipcitycode":"SAGVÅG","municipalitid":4614,"countyid":46,"regionname":"ROGALAND","services":"PIB, TRUMFBONUS, TIPPING","visitaddress":"Lyngneset 5","phone":"53403660","fax":"53403661","email":"kiwi.sagvag@kiwi.no","openinghours":{"days":[{"date":null,"label":"Hverdager","from":"07:00","to":"23:00"},{"date":null,"label":"Lørdag","from":"07:00","to":"23:00"},{"date":null,"label":"Søndag","from":"","to":""}],"special":[],"today":{"date":"2021-02-06","label":"Dagens åpningstider","from":"07:00","to":"23:00"},"isopenlate":true,"isopenonsunday":false},"istrumfactivated":true,"loc":{"lon":5.3929339083,"lat":59.7752686611},"municipality":"STORD","county":"VESTLAND","suggestion":["STORD","VESTLAND","Kiwi 639 Sagvåg","5410","639","Sagvåg"]}},{"distance":1,"store":{"id":7080001077730,"chainid":1100,"name":"Kiwi 638 Rubbestadneset","link":"","description":"","location":{"latitude":59.8151608361,"longitude":5.268399046},"zipcode":"5420","zipcitycode":"RUBBESTADNESET","municipalitid":4613,"countyid":46,"regionname":"ROGALAND","services":"TRUMFBONUS, TIPPING","visitaddress":"Søresjøvegen 5","phone":"53 42 72 36","fax":"53 42 75 07","email":"kiwi.rubbestadneset@kiwi.no","openinghours":{"days":[{"date":null,"label":"Hverdager","from":"07:00","to":"23:00"},{"date":null,"label":"Lørdag","from":"08:00","to":"21:00"},{"date":null,"label":"Søndag","from":"","to":""}],"special":[],"today":{"date":"2021-02-06","label":"Dagens åpningstider","from":"08:00","to":"21:00"},"isopenlate":true,"isopenonsunday":false},"istrumfactivated":true,"loc":{"lon":5.268399046,"lat":59.8151608361},"municipality":"BØMLO","county":"VESTLAND","suggestion":["BØMLO","VESTLAND","Kiwi 638 Rubbestadneset","5420","638","Rubbestadneset"]}},{"distance":1,"store":{"id":7080001074500,"chainid":1100,"name":"KIWI 868 Skjoldskiftet","link":"","description":"","location":{"latitude":60.3131780487,"longitude":5.3569056439},"zipcode":"5227","zipcitycode":"NESTTUN","municipalitid":4601,"countyid":46,"regionname":"VEST","services":"TRUMFBONUS","visitaddress":"Osveien 3","phone":"55133691","fax":"55139230","email":"kiwi.skjoldskiftet@kiwi.no","openinghours":{"days":[{"date":null,"label":"Hverdager","from":"07:00","to":"23:00"},{"date":null,"label":"Lørdag","from":"07:00","to":"23:00"},{"date":null,"label":"Søndag","from":"","to":""}],"special":[],"today":{"date":"2021-02-06","label":"Dagens åpningstider","from":"07:00","to":"23:00"},"isopenlate":true,"isopenonsunday":false},"istrumfactivated":true,"loc":{"lon":5.3569056439,"lat":60.3131780487},"municipality":"BERGEN","county":"VESTLAND","suggestion":["BERGEN","VESTLAND","KIWI 868 Skjoldskiftet","5227","868","Skjoldskiftet"]}},{"distance":1,"store":{"id":7080000643059,"chainid":1100,"name":"Kiwi 023 Harestua","link":"","description":"","location":{"latitude":60.2028424576,"longitude":10.7151698091},"zipcode":"2743","zipcitycode":"HARESTUA","municipalitid":3054,"countyid":30,"regionname":"INNLAND","services":"PIB, TRUMFBONUS, TIPPING","visitaddress":"Furuveien 2","phone":"61 32 30 77","fax":"61 32 37 81","email":"kiwi.harestua@kiwi.no","openinghours":{"days":[{"date":null,"label":"Hverdager","from":"07:00","to":"23:00"},{"date":null,"label":"Lørdag","from":"07:00","to":"23:00"},{"date":null,"label":"Søndag","from":"","to":""}],"special":[],"today":{"date":"2021-02-06","label":"Dagens åpningstider","from":"07:00","to":"23:00"},"isopenlate":true,"isopenonsunday":false},"istrumfactivated":true,"loc":{"lon":10.7151698091,"lat":60.2028424576},"municipality":"LUNNER","county":"VIKEN","suggestion":["LUNNER","VIKEN","Kiwi 023 Harestua","2743","023","Harestua"]}},{"distance":1,"store":{"id":7080001078782,"chainid":1100,"name":"Kiwi 426 Gvarv","link":"","description":"","location":{"latitude":59.3873506684,"longitude":9.1687821553},"zipcode":"3810","zipcitycode":"GVARV","municipalitid":3817,"countyid":38,"regionname":"VESTRE ØSTLAND","services":"TRUMFBONUS","visitaddress":"Gamlegata 56","phone":"35 95 57 05","fax":null,"email":"kiwi.gvarv@kiwi.no","openinghours":{"days":[{"date":null,"label":"Hverdager","from":"07:00","to":"23:00"},{"date":null,"label":"Lørdag","from":"08:00","to":"21:00"},{"date":null,"label":"Søndag","from":"","to":""}],"special":[],"today":{"date":"2021-02-06","label":"Dagens åpningstider","from":"08:00","to":"21:00"},"isopenlate":true,"isopenonsunday":false},"istrumfactivated":true,"loc":{"lon":9.1687821553,"lat":59.3873506684},"municipality":"MIDT-TELEMARK","county":"VESTFOLD OG TELEMARK","suggestion":["MIDT-TELEMARK","VESTFOLD OG TELEMARK","Kiwi 426 Gvarv","3810","426","Gvarv"]}},{"distance":1,"store":{"id":7080001078249,"chainid":1100,"name":"Kiwi 524 Baneveien","link":"","description":"","location":{"latitude":59.6737341821,"longitude":9.6511390573},"zipcode":"3612","zipcitycode":"KONGSBERG","municipalitid":3006,"countyid":30,"regionname":"VESTRE ØSTLAND","services":"TRUMFBONUS, TIPPING","visitaddress":"Baneveien 28","phone":"32 73 48 90","fax":"32734870","email":"kiwi.baneveien@kiwi.no","openinghours":{"days":[{"date":null,"label":"Hverdager","from":"07:00","to":"23:00"},{"date":null,"label":"Lørdag","from":"07:00","to":"23:00"},{"date":null,"label":"Søndag","from":"","to":""}],"special":[],"today":{"date":"2021-02-06","label":"Dagens åpningstider","from":"07:00","to":"23:00"},"isopenlate":true,"isopenonsunday":false},"istrumfactivated":true,"loc":{"lon":9.6511390573,"lat":59.6737341821},"municipality":"KONGSBERG","county":"VIKEN","suggestion":["KONGSBERG","VIKEN","Kiwi 524 Baneveien","3612","524","Baneveien"]}},{"distance":1,"store":{"id":7080001078485,"chainid":1100,"name":"Kiwi 427 Vestskogen","link":"","description":"","location":{"latitude":59.2402825399,"longitude":10.3927542496},"zipcode":"3142","zipcitycode":"VESTSKOGEN","municipalitid":3811,"countyid":38,"regionname":"VESTRE ØSTLAND","services":"TRUMFBONUS, TIPPING","visitaddress":"Kjernåsveien 11","phone":"33 32 01 20","fax":"33 32 28 97","email":"kiwi.vestskogen@kiwi.no","openinghours":{"days":[{"date":null,"label":"Hverdager","from":"07:00","to":"23:00"},{"date":null,"label":"Lørdag","from":"07:00","to":"23:00"},{"date":null,"label":"Søndag","from":"","to":""}],"special":[{"date":"2021-02-26","label":"Fredag 26.02.2021","from":"07:00","to":"18:00"},{"date":"2021-02-27","label":"Lørdag 27.02.2021","from":"","to":""}],"today":{"date":"2021-02-06","label":"Dagens åpningstider","from":"07:00","to":"23:00"},"isopenlate":true,"isopenonsunday":false},"istrumfactivated":true,"loc":{"lon":10.3927542496,"lat":59.2402825399},"municipality":"FÆRDER","county":"VESTFOLD OG TELEMARK","suggestion":["FÆRDER","VESTFOLD OG TELEMARK","Kiwi 427 Vestskogen","3142","427","Vestskogen"]}},{"distance":1,"store":{"id":7080001079451,"chainid":1100,"name":"Kiwi 320 Rælingen","link":"","description":"","location":{"latitude":59.9323647087,"longitude":11.0673538157},"zipcode":"2008","zipcitycode":"FJERDINGBY","municipalitid":3027,"countyid":30,"regionname":"ØST","services":"TRUMFBONUS","visitaddress":"Nedre Rælingsvei 261","phone":"63 83 05 10","fax":"63 83 05 09","email":"kiwi.ralingen@kiwi.no","openinghours":{"days":[{"date":null,"label":"Hverdager","from":"07:00","to":"23:00"},{"date":null,"label":"Lørdag","from":"07:00","to":"23:00"},{"date":null,"label":"Søndag","from":"","to":""}],"special":[],"today":{"date":"2021-02-06","label":"Dagens åpningstider","from":"07:00","to":"23:00"},"isopenlate":true,"isopenonsunday":false},"istrumfactivated":true,"loc":{"lon":11.0673538157,"lat":59.9323647087},"municipality":"RÆLINGEN","county":"VIKEN","suggestion":["RÆLINGEN","VIKEN","Kiwi 320 Rælingen","2008","320","Rælingen"]}},{"distance":1,"store":{"id":7080001080976,"chainid":1100,"name":"Kiwi 870 Florvåg","link":"","description":"","location":{"latitude":60.4202791469,"longitude":5.2398335429},"zipcode":"5305","zipcitycode":"FLORVÅG","municipalitid":4627,"countyid":46,"regionname":"VEST","services":"TRUMFBONUS, TIPPING","visitaddress":"Florvågvegen 93","phone":"56150250","fax":"56150251","email":"kiwi.florvag@kiwi.no","openinghours":{"days":[{"date":null,"label":"Hverdager","from":"07:00","to":"23:00"},{"date":null,"label":"Lørdag","from":"07:00","to":"23:00"},{"date":null,"label":"Søndag","from":"","to":""}],"special":[],"today":{"date":"2021-02-06","label":"Dagens åpningstider","from":"07:00","to":"23:00"},"isopenlate":true,"isopenonsunday":false},"istrumfactivated":true,"loc":{"lon":5.2398335429,"lat":60.4202791469},"municipality":"ASKØY","county":"VESTLAND","suggestion":["ASKØY","VESTLAND","Kiwi 870 Florvåg","5305","870","Florvåg"]}},{"distance":1,"store":{"id":7080003441805,"chainid":1100,"name":"KIWI 068 Årnes","link":"","description":"","location":{"latitude":60.119093275,"longitude":11.4654290939},"zipcode":"2150","zipcitycode":"ÅRNES","municipalitid":3034,"countyid":30,"regionname":"INNLAND","services":"TRUMFBONUS, TIPPING","visitaddress":"Øvre Hagaveg 11","phone":"63909388","fax":"63909389","email":"kiwi.arnes@kiwi.no","openinghours":{"days":[{"date":null,"label":"Hverdager","from":"07:00","to":"23:00"},{"date":null,"label":"Lørdag","from":"07:00","to":"23:00"},{"date":null,"label":"Søndag","from":"","to":""}],"special":[],"today":{"date":"2021-02-06","label":"Dagens åpningstider","from":"07:00","to":"23:00"},"isopenlate":true,"isopenonsunday":false},"istrumfactivated":true,"loc":{"lon":11.4654290939,"lat":60.119093275},"municipality":"NES","county":"VIKEN","suggestion":["NES","VIKEN","KIWI 068 Årnes","2150","068","Årnes"]}},{"distance":1,"store":{"id":7080001082406,"chainid":1100,"name":"Kiwi 873 Hamrehjørnet","link":"","description":"","location":{"latitude":60.3820801588,"longitude":5.3042682068},"zipcode":"5162","zipcitycode":"LAKSEVÅG","municipalitid":4601,"countyid":46,"regionname":"VEST","services":"TRUMFBONUS","visitaddress":"Gabriel Tischendorfs vei 16","phone":"55341015","fax":"55341016","email":"kiwi.hamrehjornet@kiwi.no","openinghours":{"days":[{"date":null,"label":"Hverdager","from":"07:00","to":"23:00"},{"date":null,"label":"Lørdag","from":"07:00","to":"23:00"},{"date":null,"label":"Søndag","from":"","to":""}],"special":[],"today":{"date":"2021-02-06","label":"Dagens åpningstider","from":"07:00","to":"23:00"},"isopenlate":true,"isopenonsunday":false},"istrumfactivated":true,"loc":{"lon":5.3042682068,"lat":60.3820801588},"municipality":"BERGEN","county":"VESTLAND","suggestion":["BERGEN","VESTLAND","Kiwi 873 Hamrehjørnet","5162","873","Hamrehjørnet"]}},{"distance":1,"store":{"id":7080001082697,"chainid":1100,"name":"Kiwi 534 Greåker","link":"","description":"","location":{"latitude":59.267877971,"longitude":11.0320551588},"zipcode":"1718","zipcitycode":"GREÅKER","municipalitid":3003,"countyid":30,"regionname":"ØST","services":"PIB, TRUMFBONUS","visitaddress":"Tamburvn. 9","phone":"69140022","fax":"69143836","email":"Kiwi.Greaker@kiwi.no","openinghours":{"days":[{"date":null,"label":"Hverdager","from":"07:00","to":"23:00"},{"date":null,"label":"Lørdag","from":"07:00","to":"23:00"},{"date":null,"label":"Søndag","from":"10:00","to":"21:00"}],"special":[],"today":{"date":"2021-02-06","label":"Dagens åpningstider","from":"07:00","to":"23:00"},"isopenlate":true,"isopenonsunday":true},"istrumfactivated":true,"loc":{"lon":11.0320551588,"lat":59.267877971},"municipality":"SARPSBORG","county":"VIKEN","suggestion":["SARPSBORG","VIKEN","Kiwi 534 Greåker","1718","534","Greåker"]}},{"distance":1,"store":{"id":7080001082727,"chainid":1100,"name":"Kiwi 874 Lindås Senter","link":"","description":"","location":{"latitude":60.7394772863,"longitude":5.1606869878},"zipcode":"5955","zipcitycode":"LINDÅS","municipalitid":4631,"countyid":46,"regionname":"VEST","services":"TRUMFBONUS, TIPPING","visitaddress":"Kolåsvegen 7","phone":"56360620","fax":"56360837","email":"kiwi.lindas-senter@kiwi.no","openinghours":{"days":[{"date":null,"label":"Hverdager","from":"07:00","to":"23:00"},{"date":null,"label":"Lørdag","from":"07:00","to":"23:00"},{"date":null,"label":"Søndag","from":"","to":""}],"special":[],"today":{"date":"2021-02-06","label":"Dagens åpningstider","from":"07:00","to":"23:00"},"isopenlate":true,"isopenonsunday":false},"istrumfactivated":true,"loc":{"lon":5.1606869878,"lat":60.7394772863},"municipality":"ALVER","county":"VESTLAND","suggestion":["ALVER","VESTLAND","Kiwi 874 Lindås Senter","5955","874","Lindås","Senter"]}},{"distance":1,"store":{"id":7080001082833,"chainid":1100,"name":"Kiwi 323 Haugenstua","link":"","description":"","location":{"latitude":59.9522541307,"longitude":10.910781173},"zipcode":"0979","zipcitycode":"OSLO","municipalitid":301,"countyid":3,"regionname":"ØST","services":"TRUMFBONUS, TIPPING","visitaddress":"Ole Brumms v 1","phone":"22103219","fax":"22103220","email":"kiwi.haugenstua@kiwi.no","openinghours":{"days":[{"date":null,"label":"Hverdager","from":"07:00","to":"23:00"},{"date":null,"label":"Lørdag","from":"07:00","to":"23:00"},{"date":null,"label":"Søndag","from":"","to":""}],"special":[],"today":{"date":"2021-02-06","label":"Dagens åpningstider","from":"07:00","to":"23:00"},"isopenlate":true,"isopenonsunday":false},"istrumfactivated":true,"loc":{"lon":10.910781173,"lat":59.9522541307},"municipality":"OSLO","county":"OSLO","suggestion":["OSLO","OSLO","Kiwi 323 Haugenstua","0979","323","Haugenstua"]}},{"distance":1,"store":{"id":7080001083625,"chainid":1100,"name":"Kiwi 465 Veitvet","link":"","description":"","location":{"latitude":59.9439904512,"longitude":10.8478038673},"zipcode":"0596","zipcitycode":"OSLO","municipalitid":301,"countyid":3,"regionname":"ØST","services":"TRUMFBONUS","visitaddress":"Veitvetveien 8","phone":"22 16 42 00","fax":"22 16 42 01","email":"kiwi.veitvet@kiwi.no","openinghours":{"days":[{"date":null,"label":"Hverdager","from":"07:00","to":"23:00"},{"date":null,"label":"Lørdag","from":"07:00","to":"23:00"},{"date":null,"label":"Søndag","from":"","to":""}],"special":[],"today":{"date":"2021-02-06","label":"Dagens åpningstider","from":"07:00","to":"23:00"},"isopenlate":true,"isopenonsunday":false},"istrumfactivated":true,"loc":{"lon":10.8478038673,"lat":59.9439904512},"municipality":"OSLO","county":"OSLO","suggestion":["OSLO","OSLO","Kiwi 465 Veitvet","0596","465","Veitvet"]}},{"distance":1,"store":{"id":7080001354282,"chainid":1100,"name":"Kiwi 400 Konowsgate","link":"","description":"","location":{"latitude":59.9021508825,"longitude":10.7685047964},"zipcode":"0192","zipcitycode":"OSLO","municipalitid":301,"countyid":3,"regionname":"ØST","services":"TRUMFBONUS","visitaddress":"Konowsgate 1 A","phone":"22678800","fax":"22678801","email":"kiwi.konowsgate@kiwi.no","openinghours":{"days":[{"date":null,"label":"Hverdager","from":"07:00","to":"23:00"},{"date":null,"label":"Lørdag","from":"07:00","to":"23:00"},{"date":null,"label":"Søndag","from":"","to":""}],"special":[],"today":{"date":"2021-02-06","label":"Dagens åpningstider","from":"07:00","to":"23:00"},"isopenlate":true,"isopenonsunday":false},"istrumfactivated":true,"loc":{"lon":10.7685047964,"lat":59.9021508825},"municipality":"OSLO","county":"OSLO","suggestion":["OSLO","OSLO","Kiwi 400 Konowsgate","0192","400","Konowsgate"]}},{"distance":1,"store":{"id":7080001008246,"chainid":1100,"name":"Kiwi 497 Sjøgata","link":"","description":"","location":{"latitude":59.4315983634,"longitude":10.649635017},"zipcode":"1516","zipcitycode":"MOSS","municipalitid":3002,"countyid":30,"regionname":"ØST","services":"TRUMFBONUS, TIPPING","visitaddress":"Sjøgata 15","phone":"69273620","fax":"69271490","email":"kiwi.sjogata@kiwi.no","openinghours":{"days":[{"date":null,"label":"Hverdager","from":"07:00","to":"23:00"},{"date":null,"label":"Lørdag","from":"07:00","to":"23:00"},{"date":null,"label":"Søndag","from":"","to":""}],"special":[],"today":{"date":"2021-02-06","label":"Dagens åpningstider","from":"07:00","to":"23:00"},"isopenlate":true,"isopenonsunday":false},"istrumfactivated":true,"loc":{"lon":10.649635017,"lat":59.4315983634},"municipality":"MOSS","county":"VIKEN","suggestion":["MOSS","VIKEN","Kiwi 497 Sjøgata","1516","497","Sjøgata"]}},{"distance":1,"store":{"id":7080001008260,"chainid":1100,"name":"Kiwi 495 Rygge","link":"","description":"","location":{"latitude":59.3795286711,"longitude":10.7548746443},"zipcode":"1580","zipcitycode":"RYGGE","municipalitid":3002,"countyid":30,"regionname":"ØST","services":"TRUMFBONUS, TIPPING","visitaddress":"Stasjonsvn. 12A","phone":"69266519","fax":"69266520","email":"kiwi.rygge@kiwi.no","openinghours":{"days":[{"date":null,"label":"Hverdager","from":"07:00","to":"23:00"},{"date":null,"label":"Lørdag","from":"07:00","to":"23:00"},{"date":null,"label":"Søndag","from":"","to":""}],"special":[],"today":{"date":"2021-02-06","label":"Dagens åpningstider","from":"07:00","to":"23:00"},"isopenlate":true,"isopenonsunday":false},"istrumfactivated":true,"loc":{"lon":10.7548746443,"lat":59.3795286711},"municipality":"MOSS","county":"VIKEN","suggestion":["MOSS","VIKEN","Kiwi 495 Rygge","1580","495","Rygge"]}},{"distance":1,"store":{"id":7080001008222,"chainid":1100,"name":"Kiwi 493 Høyden","link":"","description":"","location":{"latitude":59.4193276354,"longitude":10.6830256651},"zipcode":"1528","zipcitycode":"MOSS","municipalitid":3002,"countyid":30,"regionname":"ØST","services":"TRUMFBONUS, TIPPING","visitaddress":"Øreveien 76","phone":"69265200","fax":"69265203","email":"kiwi.hoyden@kiwi.no","openinghours":{"days":[{"date":null,"label":"Hverdager","from":"07:00","to":"23:00"},{"date":null,"label":"Lørdag","from":"07:00","to":"23:00"},{"date":null,"label":"Søndag","from":"","to":""}],"special":[],"today":{"date":"2021-02-06","label":"Dagens åpningstider","from":"07:00","to":"23:00"},"isopenlate":true,"isopenonsunday":false},"istrumfactivated":true,"loc":{"lon":10.6830256651,"lat":59.4193276354},"municipality":"MOSS","county":"VIKEN","suggestion":["MOSS","VIKEN","Kiwi 493 Høyden","1528","493","Høyden"]}},{"distance":1,"store":{"id":7080001008239,"chainid":1100,"name":"Kiwi 442 Borgenhaugen","link":"","description":"","location":{"latitude":59.264566682,"longitude":11.1576593096},"zipcode":"1739","zipcitycode":"BORGENHAUGEN","municipalitid":3003,"countyid":30,"regionname":"ØST","services":"TRUMFBONUS, TIPPING","visitaddress":"Skjebergveien 62","phone":"69163134","fax":"69129146","email":"kiwi.borgenhaugen@kiwi.no","openinghours":{"days":[{"date":null,"label":"Hverdager","from":"07:00","to":"23:00"},{"date":null,"label":"Lørdag","from":"07:00","to":"23:00"},{"date":null,"label":"Søndag","from":"","to":""}],"special":[],"today":{"date":"2021-02-06","label":"Dagens åpningstider","from":"07:00","to":"23:00"},"isopenlate":true,"isopenonsunday":false},"istrumfactivated":true,"loc":{"lon":11.1576593096,"lat":59.264566682},"municipality":"SARPSBORG","county":"VIKEN","suggestion":["SARPSBORG","VIKEN","Kiwi 442 Borgenhaugen","1739","442","Borgenhaugen"]}},{"distance":1,"store":{"id":7080001008840,"chainid":1100,"name":"Kiwi 044 Lærdal","link":"","description":"","location":{"latitude":61.0989453159,"longitude":7.4811231652},"zipcode":"6887","zipcitycode":"LÆRDAL","municipalitid":4642,"countyid":46,"regionname":"INNLAND","services":"TRUMFBONUS, TIPPING","visitaddress":"Øyraplassen 11","phone":"57 66 62 08","fax":"57 66 89 60","email":"kiwi.lardal@kiwi.no","openinghours":{"days":[{"date":null,"label":"Hverdager","from":"07:00","to":"23:00"},{"date":null,"label":"Lørdag","from":"09:00","to":"21:00"},{"date":null,"label":"Søndag","from":"","to":""}],"special":[],"today":{"date":"2021-02-06","label":"Dagens åpningstider","from":"09:00","to":"21:00"},"isopenlate":true,"isopenonsunday":false},"istrumfactivated":true,"loc":{"lon":7.4811231652,"lat":61.0989453159},"municipality":"LÆRDAL","county":"VESTLAND","suggestion":["LÆRDAL","VESTLAND","Kiwi 044 Lærdal","6887","044","Lærdal"]}},{"distance":1,"store":{"id":7080001008864,"chainid":1100,"name":"Kiwi 050 Strandgaten Gjøvik","link":"","description":"","location":{"latitude":60.7933852289,"longitude":10.6947733004},"zipcode":"2815","zipcitycode":"GJØVIK","municipalitid":3407,"countyid":34,"regionname":"INNLAND","services":"TRUMFBONUS, TIPPING","visitaddress":"Strandgata 13","phone":"61 18 33 60","fax":"61 18 33 61","email":"kiwi.strandgaten@kiwi.no","openinghours":{"days":[{"date":null,"label":"Hverdager","from":"07:00","to":"23:00"},{"date":null,"label":"Lørdag","from":"07:00","to":"23:00"},{"date":null,"label":"Søndag","from":"","to":""}],"special":[],"today":{"date":"2021-02-06","label":"Dagens åpningstider","from":"07:00","to":"23:00"},"isopenlate":true,"isopenonsunday":false},"istrumfactivated":true,"loc":{"lon":10.6947733004,"lat":60.7933852289},"municipality":"GJØVIK","county":"INNLANDET","suggestion":["GJØVIK","INNLANDET","Kiwi 050 Strandgaten Gjøvik","2815","050","Strandgaten","Gjøvik"]}},{"distance":1,"store":{"id":7080001014445,"chainid":1100,"name":"Kiwi 631 Spannavegen","link":"","description":"","location":{"latitude":59.4077983984,"longitude":5.2947101693},"zipcode":"5531","zipcitycode":"HAUGESUND","municipalitid":1106,"countyid":11,"regionname":"ROGALAND","services":"TRUMFBONUS","visitaddress":"Spannaveien 56","phone":"52704690","fax":"52 70 46 91","email":"kiwi.spannavegen@kiwi.no","openinghours":{"days":[{"date":null,"label":"Hverdager","from":"07:00","to":"23:00"},{"date":null,"label":"Lørdag","from":"07:00","to":"23:00"},{"date":null,"label":"Søndag","from":"","to":""}],"special":[],"today":{"date":"2021-02-06","label":"Dagens åpningstider","from":"07:00","to":"23:00"},"isopenlate":true,"isopenonsunday":false},"istrumfactivated":true,"loc":{"lon":5.2947101693,"lat":59.4077983984},"municipality":"HAUGESUND","county":"ROGALAND","suggestion":["HAUGESUND","ROGALAND","Kiwi 631 Spannavegen","5531","631","Spannavegen"]}},{"distance":1,"store":{"id":7080001014438,"chainid":1100,"name":"Kiwi 632 Hommersåk","link":"","description":"","location":{"latitude":58.912627988,"longitude":5.8526665379},"zipcode":"4311","zipcitycode":"HOMMERSÅK","municipalitid":1108,"countyid":11,"regionname":"ROGALAND","services":"TRUMFBONUS","visitaddress":"Bjellandveien","phone":"51 68 80 00","fax":null,"email":"kiwi.hommersak@kiwi.no","openinghours":{"days":[{"date":null,"label":"Hverdager","from":"07:00","to":"23:00"},{"date":null,"label":"Lørdag","from":"07:00","to":"23:00"},{"date":null,"label":"Søndag","from":"","to":""}],"special":[],"today":{"date":"2021-02-06","label":"Dagens åpningstider","from":"07:00","to":"23:00"},"isopenlate":true,"isopenonsunday":false},"istrumfactivated":true,"loc":{"lon":5.8526665379,"lat":58.912627988},"municipality":"SANDNES","county":"ROGALAND","suggestion":["SANDNES","ROGALAND","Kiwi 632 Hommersåk","4311","632","Hommersåk"]}},{"distance":1,"store":{"id":7080001363468,"chainid":1100,"name":"Kiwi 920 Breivika","link":"","description":"","location":{"latitude":62.4717256806,"longitude":6.3633300948},"zipcode":"6018","zipcitycode":"ÅLESUND","municipalitid":1507,"countyid":15,"regionname":"MØRE","services":"TRUMFBONUS","visitaddress":"Lerstadvegen 545","phone":"70155300","fax":"70155301","email":"kiwi.breivika@kiwi.no","openinghours":{"days":[{"date":null,"label":"Hverdager","from":"07:00","to":"23:00"},{"date":null,"label":"Lørdag","from":"07:00","to":"23:00"},{"date":null,"label":"Søndag","from":"","to":""}],"special":[],"today":{"date":"2021-02-06","label":"Dagens åpningstider","from":"07:00","to":"23:00"},"isopenlate":true,"isopenonsunday":false},"istrumfactivated":true,"loc":{"lon":6.3633300948,"lat":62.4717256806},"municipality":"ÅLESUND","county":"MØRE OG ROMSDAL","suggestion":["ÅLESUND","MØRE OG ROMSDAL","Kiwi 920 Breivika","6018","920","Breivika"]}},{"distance":1,"store":{"id":7080000028672,"chainid":1100,"name":"Kiwi 511 Skjærhalden","link":"","description":"","location":{"latitude":59.028237835,"longitude":11.0328738733},"zipcode":"1680","zipcitycode":"SKJÆRHALDEN","municipalitid":3011,"countyid":30,"regionname":"ØST","services":"PIB, TRUMFBONUS, TIPPING","visitaddress":"Kjølholtveien 1","phone":"69 37 90 76","fax":"69 37 92 45","email":"kiwi.skjerhallen@kiwi.no","openinghours":{"days":[{"date":null,"label":"Hverdager","from":"07:00","to":"22:00"},{"date":null,"label":"Lørdag","from":"07:00","to":"22:00"},{"date":null,"label":"Søndag","from":"10:00","to":"18:00"}],"special":[],"today":{"date":"2021-02-06","label":"Dagens åpningstider","from":"07:00","to":"22:00"},"isopenlate":false,"isopenonsunday":true},"istrumfactivated":true,"loc":{"lon":11.0328738733,"lat":59.028237835},"municipality":"HVALER","county":"VIKEN","suggestion":["HVALER","VIKEN","Kiwi 511 Skjærhalden","1680","511","Skjærhalden"]}},{"distance":1,"store":{"id":7080001393366,"chainid":1100,"name":"Kiwi 579 Hallingby","link":"","description":"","location":{"latitude":60.2721768313,"longitude":10.1845099061},"zipcode":"3525","zipcitycode":"HALLINGBY","municipalitid":3007,"countyid":30,"regionname":"VESTRE ØSTLAND","services":"TRUMFBONUS","visitaddress":"Gamle Ådalsvei 23 A og B","phone":"32123126","fax":"32123127","email":"kiwi.hallingby@kiwi.no","openinghours":{"days":[{"date":null,"label":"Hverdager","from":"07:00","to":"23:00"},{"date":null,"label":"Lørdag","from":"07:00","to":"23:00"},{"date":null,"label":"Søndag","from":"","to":""}],"special":[],"today":{"date":"2021-02-06","label":"Dagens åpningstider","from":"07:00","to":"23:00"},"isopenlate":true,"isopenonsunday":false},"istrumfactivated":true,"loc":{"lon":10.1845099061,"lat":60.2721768313},"municipality":"RINGERIKE","county":"VIKEN","suggestion":["RINGERIKE","VIKEN","Kiwi 579 Hallingby","3525","579","Hallingby"]}},{"distance":1,"store":{"id":7080001029920,"chainid":1100,"name":"Kiwi 629 Jørpeland","link":"","description":"","location":{"latitude":59.0229540265,"longitude":6.0414210713},"zipcode":"4100","zipcitycode":"JØRPELAND","municipalitid":1130,"countyid":11,"regionname":"ROGALAND","services":"TRUMFBONUS","visitaddress":"Rådhusgaten 6","phone":"51 74 71 11","fax":"51 74 88 50","email":"kiwi.jorpeland@kiwi.no","openinghours":{"days":[{"date":null,"label":"Hverdager","from":"07:00","to":"23:00"},{"date":null,"label":"Lørdag","from":"07:00","to":"23:00"},{"date":null,"label":"Søndag","from":"","to":""}],"special":[],"today":{"date":"2021-02-06","label":"Dagens åpningstider","from":"07:00","to":"23:00"},"isopenlate":true,"isopenonsunday":false},"istrumfactivated":true,"loc":{"lon":6.0414210713,"lat":59.0229540265},"municipality":"STRAND","county":"ROGALAND","suggestion":["STRAND","ROGALAND","Kiwi 629 Jørpeland","4100","629","Jørpeland"]}},{"distance":1,"store":{"id":7080001029890,"chainid":1100,"name":"Kiwi 626 Sveio","link":"","description":"","location":{"latitude":59.5439863458,"longitude":5.3545107478},"zipcode":"5550","zipcitycode":"SVEIO","municipalitid":4612,"countyid":46,"regionname":"ROGALAND","services":"TRUMFBONUS, TIPPING","visitaddress":"Sveiogata 65","phone":"53 74 10 90","fax":"53741093","email":"kiwi.sveio@kiwi.no","openinghours":{"days":[{"date":null,"label":"Hverdager","from":"07:00","to":"23:00"},{"date":null,"label":"Lørdag","from":"08:00","to":"23:00"},{"date":null,"label":"Søndag","from":"","to":""}],"special":[],"today":{"date":"2021-02-06","label":"Dagens åpningstider","from":"08:00","to":"23:00"},"isopenlate":true,"isopenonsunday":false},"istrumfactivated":true,"loc":{"lon":5.3545107478,"lat":59.5439863458},"municipality":"SVEIO","county":"VESTLAND","suggestion":["SVEIO","VESTLAND","Kiwi 626 Sveio","5550","626","Sveio"]}},{"distance":1,"store":{"id":7080001029883,"chainid":1100,"name":"Kiwi 625 Hundvåg","link":"","description":"","location":{"latitude":59.0013562572,"longitude":5.7414753038},"zipcode":"4085","zipcitycode":"HUNDVÅG","municipalitid":1103,"countyid":11,"regionname":"ROGALAND","services":"TRUMFBONUS","visitaddress":"Lerkeskogen 2a","phone":"51 86 41 65","fax":"51 86 41 66","email":"kiwi.hundvag@kiwi.no","openinghours":{"days":[{"date":null,"label":"Hverdager","from":"07:00","to":"23:00"},{"date":null,"label":"Lørdag","from":"09:00","to":"23:00"},{"date":null,"label":"Søndag","from":"","to":""}],"special":[],"today":{"date":"2021-02-06","label":"Dagens åpningstider","from":"09:00","to":"23:00"},"isopenlate":true,"isopenonsunday":false},"istrumfactivated":true,"loc":{"lon":5.7414753038,"lat":59.0013562572},"municipality":"STAVANGER","county":"ROGALAND","suggestion":["STAVANGER","ROGALAND","Kiwi 625 Hundvåg","4085","625","Hundvåg"]}},{"distance":1,"store":{"id":7080001029852,"chainid":1100,"name":"Kiwi 621 Tau","link":"","description":"","location":{"latitude":59.0651170013,"longitude":5.9206645317},"zipcode":"4120","zipcitycode":"TAU","municipalitid":1130,"countyid":11,"regionname":"ROGALAND","services":"TRUMFBONUS","visitaddress":"Ryfylkeveien 1990 B","phone":"51 74 68 26","fax":null,"email":"kiwi.tau@kiwi.no","openinghours":{"days":[{"date":null,"label":"Hverdager","from":"07:00","to":"23:00"},{"date":null,"label":"Lørdag","from":"07:00","to":"23:00"},{"date":null,"label":"Søndag","from":"","to":""}],"special":[],"today":{"date":"2021-02-06","label":"Dagens åpningstider","from":"07:00","to":"23:00"},"isopenlate":true,"isopenonsunday":false},"istrumfactivated":true,"loc":{"lon":5.9206645317,"lat":59.0651170013},"municipality":"STRAND","county":"ROGALAND","suggestion":["STRAND","ROGALAND","Kiwi 621 Tau","4120","621","Tau"]}},{"distance":1,"store":{"id":7080001029845,"chainid":1100,"name":"Kiwi 620 Skåredalen","link":"","description":"","location":{"latitude":59.4103266525,"longitude":5.3190287697},"zipcode":"5533","zipcitycode":"HAUGESUND","municipalitid":1106,"countyid":11,"regionname":"ROGALAND","services":"TRUMFBONUS","visitaddress":"Skjoldaveien 275","phone":"52 86 66 44","fax":"52 70 58 39","email":"kiwi.skaredalen@kiwi.no","openinghours":{"days":[{"date":null,"label":"Hverdager","from":"07:00","to":"23:00"},{"date":null,"label":"Lørdag","from":"07:00","to":"23:00"},{"date":null,"label":"Søndag","from":"","to":""}],"special":[],"today":{"date":"2021-02-06","label":"Dagens åpningstider","from":"07:00","to":"23:00"},"isopenlate":true,"isopenonsunday":false},"istrumfactivated":true,"loc":{"lon":5.3190287697,"lat":59.4103266525},"municipality":"HAUGESUND","county":"ROGALAND","suggestion":["HAUGESUND","ROGALAND","Kiwi 620 Skåredalen","5533","620","Skåredalen"]}},{"distance":1,"store":{"id":7080001029791,"chainid":1100,"name":"Kiwi 618 Ølensvåg","link":"","description":"","location":{"latitude":59.5974180032,"longitude":5.7432615019},"zipcode":"5582","zipcitycode":"ØLENSVÅG","municipalitid":1160,"countyid":11,"regionname":"ROGALAND","services":"TRUMFBONUS, TIPPING","visitaddress":"Haukelivegen 670","phone":"53769085","fax":"53769086","email":"kiwi.olensvag@kiwi.no","openinghours":{"days":[{"date":null,"label":"Hverdager","from":"07:00","to":"23:00"},{"date":null,"label":"Lørdag","from":"08:00","to":"22:00"},{"date":null,"label":"Søndag","from":"","to":""}],"special":[],"today":{"date":"2021-02-06","label":"Dagens åpningstider","from":"08:00","to":"22:00"},"isopenlate":true,"isopenonsunday":false},"istrumfactivated":true,"loc":{"lon":5.7432615019,"lat":59.5974180032},"municipality":"VINDAFJORD","county":"ROGALAND","suggestion":["VINDAFJORD","ROGALAND","Kiwi 618 Ølensvåg","5582","618","Ølensvåg"]}},{"distance":1,"store":{"id":7080001029784,"chainid":1100,"name":"Kiwi 617 Rosseland","link":"","description":"","location":{"latitude":58.7346015032,"longitude":5.6654392032},"zipcode":"4345","zipcitycode":"BRYNE","municipalitid":1121,"countyid":11,"regionname":"ROGALAND","services":"TRUMFBONUS","visitaddress":"Kong Haakons veg 1","phone":"51 48 33 93","fax":"51 48 34 60","email":"kiwi.rosseland@kiwi.no","openinghours":{"days":[{"date":null,"label":"Hverdager","from":"07:00","to":"23:00"},{"date":null,"label":"Lørdag","from":"07:00","to":"23:00"},{"date":null,"label":"Søndag","from":"","to":""}],"special":[],"today":{"date":"2021-02-06","label":"Dagens åpningstider","from":"07:00","to":"23:00"},"isopenlate":true,"isopenonsunday":false},"istrumfactivated":true,"loc":{"lon":5.6654392032,"lat":58.7346015032},"municipality":"TIME","county":"ROGALAND","suggestion":["TIME","ROGALAND","Kiwi 617 Rosseland","4345","617","Rosseland"]}},{"distance":1,"store":{"id":7080001402822,"chainid":1100,"name":"KIWI 072 Ydalir","link":"","description":"","location":{"latitude":60.8944841841,"longitude":11.5814359287},"zipcode":"2413","zipcitycode":"ELVERUM","municipalitid":3420,"countyid":34,"regionname":"INNLAND","services":"TRUMFBONUS","visitaddress":"Olav Sæters veg 2","phone":"62416287","fax":"62416288","email":"kiwi.ydalir@kiwi.no","openinghours":{"days":[{"date":null,"label":"Hverdager","from":"07:00","to":"23:00"},{"date":null,"label":"Lørdag","from":"07:00","to":"23:00"},{"date":null,"label":"Søndag","from":"","to":""}],"special":[],"today":{"date":"2021-02-06","label":"Dagens åpningstider","from":"07:00","to":"23:00"},"isopenlate":true,"isopenonsunday":false},"istrumfactivated":true,"loc":{"lon":11.5814359287,"lat":60.8944841841},"municipality":"ELVERUM","county":"INNLANDET","suggestion":["ELVERUM","INNLANDET","KIWI 072 Ydalir","2413","072","Ydalir"]}},{"distance":1,"store":{"id":7080001029760,"chainid":1100,"name":"Kiwi 615 Vormedal","link":"","description":"","location":{"latitude":59.3549561463,"longitude":5.3240926193},"zipcode":"5545","zipcitycode":"VORMEDAL","municipalitid":1149,"countyid":11,"regionname":"ROGALAND","services":"TRUMFBONUS, TIPPING","visitaddress":"Vormedalsveien 340 ","phone":"52 82 08 10","fax":"52 82 08 32","email":"kiwi.vormedal@kiwi.no","openinghours":{"days":[{"date":null,"label":"Hverdager","from":"07:00","to":"23:00"},{"date":null,"label":"Lørdag","from":"07:00","to":"23:00"},{"date":null,"label":"Søndag","from":"","to":""}],"special":[],"today":{"date":"2021-02-06","label":"Dagens åpningstider","from":"07:00","to":"23:00"},"isopenlate":true,"isopenonsunday":false},"istrumfactivated":true,"loc":{"lon":5.3240926193,"lat":59.3549561463},"municipality":"KARMØY","county":"ROGALAND","suggestion":["KARMØY","ROGALAND","Kiwi 615 Vormedal","5545","615","Vormedal"]}},{"distance":1,"store":{"id":7080001029722,"chainid":1100,"name":"Kiwi 611 Åkra","link":"","description":"","location":{"latitude":59.2595329165,"longitude":5.1936828192},"zipcode":"4270","zipcitycode":"ÅKREHAMN","municipalitid":1149,"countyid":11,"regionname":"ROGALAND","services":"TRUMFBONUS, TIPPING","visitaddress":"Klæhaugveien 14","phone":"52 81 72 71","fax":"52 81 75 09","email":"kiwi.akra@kiwi.no","openinghours":{"days":[{"date":null,"label":"Hverdager","from":"07:00","to":"23:00"},{"date":null,"label":"Lørdag","from":"07:00","to":"23:00"},{"date":null,"label":"Søndag","from":"","to":""}],"special":[],"today":{"date":"2021-02-06","label":"Dagens åpningstider","from":"07:00","to":"23:00"},"isopenlate":true,"isopenonsunday":false},"istrumfactivated":true,"loc":{"lon":5.1936828192,"lat":59.2595329165},"municipality":"KARMØY","county":"ROGALAND","suggestion":["KARMØY","ROGALAND","Kiwi 611 Åkra","4270","611","Åkra"]}},{"distance":1,"store":{"id":7080001105419,"chainid":1100,"name":"Kiwi 054 Follebu","link":"","description":"","location":{"latitude":61.2161912754,"longitude":10.2849899201},"zipcode":"2656","zipcitycode":"FOLLEBU","municipalitid":3441,"countyid":34,"regionname":"INNLAND","services":"TRUMFBONUS","visitaddress":"Holsbakkan 2","phone":"61 22 70 37","fax":"61227038","email":"kiwi.follebu@kiwi.no","openinghours":{"days":[{"date":null,"label":"Hverdager","from":"07:00","to":"23:00"},{"date":null,"label":"Lørdag","from":"07:00","to":"21:00"},{"date":null,"label":"Søndag","from":"","to":""}],"special":[],"today":{"date":"2021-02-06","label":"Dagens åpningstider","from":"07:00","to":"21:00"},"isopenlate":true,"isopenonsunday":false},"istrumfactivated":true,"loc":{"lon":10.2849899201,"lat":61.2161912754},"municipality":"GAUSDAL","county":"INNLANDET","suggestion":["GAUSDAL","INNLANDET","Kiwi 054 Follebu","2656","054","Follebu"]}},{"distance":1,"store":{"id":7080001104993,"chainid":1100,"name":"Kiwi 389 Vøyenenga","link":"","description":"","location":{"latitude":59.9083940212,"longitude":10.4759799658},"zipcode":"1339","zipcitycode":"VØYENENGA","municipalitid":3024,"countyid":30,"regionname":"ØST","services":"TRUMFBONUS","visitaddress":"Vøyenengtunet 10","phone":"67 13 02 13","fax":"67138737","email":"kiwi.voyenenga@kiwi.no","openinghours":{"days":[{"date":null,"label":"Hverdager","from":"07:00","to":"23:00"},{"date":null,"label":"Lørdag","from":"07:00","to":"23:00"},{"date":null,"label":"Søndag","from":"","to":""}],"special":[],"today":{"date":"2021-02-06","label":"Dagens åpningstider","from":"07:00","to":"23:00"},"isopenlate":true,"isopenonsunday":false},"istrumfactivated":true,"loc":{"lon":10.4759799658,"lat":59.9083940212},"municipality":"BÆRUM","county":"VIKEN","suggestion":["BÆRUM","VIKEN","Kiwi 389 Vøyenenga","1339","389","Vøyenenga"]}},{"distance":1,"store":{"id":7080001097530,"chainid":1100,"name":"Kiwi 104 Moholt","link":"","description":"","location":{"latitude":63.4106175247,"longitude":10.4416297948},"zipcode":"7050","zipcitycode":"TRONDHEIM","municipalitid":5001,"countyid":50,"regionname":"Midt","services":"TRUMFBONUS","visitaddress":"Brøsetvegen 186","phone":"73 94 30 52","fax":"73 94 30 53","email":"kiwi.moholt@kiwi.no","openinghours":{"days":[{"date":null,"label":"Hverdager","from":"07:00","to":"23:00"},{"date":null,"label":"Lørdag","from":"07:00","to":"23:00"},{"date":null,"label":"Søndag","from":"10:00","to":"22:00"}],"special":[],"today":{"date":"2021-02-06","label":"Dagens åpningstider","from":"07:00","to":"23:00"},"isopenlate":true,"isopenonsunday":true},"istrumfactivated":true,"loc":{"lon":10.4416297948,"lat":63.4106175247},"municipality":"TRONDHEIM","county":"TRØNDELAG","suggestion":["TRONDHEIM","TRØNDELAG","Kiwi 104 Moholt","7050","104","Moholt"]}},{"distance":1,"store":{"id":7080001097929,"chainid":1100,"name":"Kiwi 317 Hvalstad","link":"","description":"","location":{"latitude":59.8586612859,"longitude":10.4767806866},"zipcode":"1395","zipcitycode":"HVALSTAD","municipalitid":3025,"countyid":30,"regionname":"ØST","services":"TRUMFBONUS","visitaddress":"Smedsvingen 4","phone":"66 77 78 24","fax":"66 77 78 25","email":"kiwi.hvalstad@kiwi.no","openinghours":{"days":[{"date":null,"label":"Hverdager","from":"07:00","to":"23:00"},{"date":null,"label":"Lørdag","from":"07:00","to":"23:00"},{"date":null,"label":"Søndag","from":"","to":""}],"special":[],"today":{"date":"2021-02-06","label":"Dagens åpningstider","from":"07:00","to":"23:00"},"isopenlate":true,"isopenonsunday":false},"istrumfactivated":true,"loc":{"lon":10.4767806866,"lat":59.8586612859},"municipality":"ASKER","county":"VIKEN","suggestion":["ASKER","VIKEN","Kiwi 317 Hvalstad","1395","317","Hvalstad"]}},{"distance":1,"store":{"id":7080001098452,"chainid":1100,"name":"Kiwi 105 Holmen","link":"","description":"","location":{"latitude":63.4807818613,"longitude":10.9069004024},"zipcode":"7503","zipcitycode":"STJØRDAL","municipalitid":5035,"countyid":50,"regionname":"Midt","services":"TRUMFBONUS","visitaddress":"Vassbygdveien 4","phone":"74 82 43 90","fax":"74 82 62 54","email":"kiwi.holmen@kiwi.no","openinghours":{"days":[{"date":null,"label":"Hverdager","from":"07:00","to":"23:00"},{"date":null,"label":"Lørdag","from":"09:00","to":"21:00"},{"date":null,"label":"Søndag","from":"","to":""}],"special":[],"today":{"date":"2021-02-06","label":"Dagens åpningstider","from":"09:00","to":"21:00"},"isopenlate":true,"isopenonsunday":false},"istrumfactivated":true,"loc":{"lon":10.9069004024,"lat":63.4807818613},"municipality":"STJØRDAL","county":"TRØNDELAG","suggestion":["STJØRDAL","TRØNDELAG","Kiwi 105 Holmen","7503","105","Holmen"]}},{"distance":1,"store":{"id":7080001097936,"chainid":1100,"name":"Kiwi 643 Isvik","link":"","description":"","location":{"latitude":59.5008324558,"longitude":5.5776704829},"zipcode":"5574","zipcitycode":"SKJOLD","municipalitid":1160,"countyid":11,"regionname":"ROGALAND","services":"TRUMFBONUS, TIPPING","visitaddress":"Vikevegen 38","phone":"52 76 20 08","fax":"52 76 21 88","email":"kiwi.isvik@kiwi.no","openinghours":{"days":[{"date":null,"label":"Hverdager","from":"07:00","to":"22:00"},{"date":null,"label":"Lørdag","from":"08:00","to":"21:00"},{"date":null,"label":"Søndag","from":"","to":""}],"special":[],"today":{"date":"2021-02-06","label":"Dagens åpningstider","from":"08:00","to":"21:00"},"isopenlate":false,"isopenonsunday":false},"istrumfactivated":true,"loc":{"lon":5.5776704829,"lat":59.5008324558},"municipality":"VINDAFJORD","county":"ROGALAND","suggestion":["VINDAFJORD","ROGALAND","Kiwi 643 Isvik","5574","643","Isvik"]}},{"distance":1,"store":{"id":7080001098605,"chainid":1100,"name":"Kiwi 467 Lambertseter","link":"","description":"","location":{"latitude":59.8701112244,"longitude":10.8199907428},"zipcode":"1155","zipcitycode":"OSLO","municipalitid":301,"countyid":3,"regionname":"ØST","services":"TRUMFBONUS, TIPPING","visitaddress":"Bergkrystallen 2","phone":"23 38 20 70","fax":"23 38 20 71","email":"kiwi.lambertseter@kiwi.no","openinghours":{"days":[{"date":null,"label":"Hverdager","from":"07:00","to":"23:00"},{"date":null,"label":"Lørdag","from":"07:00","to":"23:00"},{"date":null,"label":"Søndag","from":"","to":""}],"special":[],"today":{"date":"2021-02-06","label":"Dagens åpningstider","from":"07:00","to":"23:00"},"isopenlate":true,"isopenonsunday":false},"istrumfactivated":true,"loc":{"lon":10.8199907428,"lat":59.8701112244},"municipality":"OSLO","county":"OSLO","suggestion":["OSLO","OSLO","Kiwi 467 Lambertseter","1155","467","Lambertseter"]}},{"distance":1,"store":{"id":7080001098582,"chainid":1100,"name":"Kiwi 537 Kråkerøybrua","link":"","description":"","location":{"latitude":59.2060659832,"longitude":10.9369388453},"zipcode":"1670","zipcitycode":"KRÅKERØY","municipalitid":3004,"countyid":30,"regionname":"ØST","services":"TRUMFBONUS, TIPPING","visitaddress":"Kråkerøyveien 9","phone":"69348982","fax":"69348983","email":"kiwi.krakeroybrua@kiwi.no","openinghours":{"days":[{"date":null,"label":"Hverdager","from":"07:00","to":"23:00"},{"date":null,"label":"Lørdag","from":"07:00","to":"23:00"},{"date":null,"label":"Søndag","from":"","to":""}],"special":[],"today":{"date":"2021-02-06","label":"Dagens åpningstider","from":"07:00","to":"23:00"},"isopenlate":true,"isopenonsunday":false},"istrumfactivated":true,"loc":{"lon":10.9369388453,"lat":59.2060659832},"municipality":"FREDRIKSTAD","county":"VIKEN","suggestion":["FREDRIKSTAD","VIKEN","Kiwi 537 Kråkerøybrua","1670","537","Kråkerøybrua"]}},{"distance":1,"store":{"id":7080001099909,"chainid":1100,"name":"Kiwi 905 Eggesbønes","link":"","description":"","location":{"latitude":62.3258323294,"longitude":5.6379679625},"zipcode":"6092","zipcitycode":"FOSNAVÅG","municipalitid":1515,"countyid":15,"regionname":"MØRE","services":"TRUMFBONUS, TIPPING","visitaddress":"Eggesbøvegen 4","phone":"70088897","fax":"70088336","email":"kiwi.eggesbones@kiwi.no","openinghours":{"days":[{"date":null,"label":"Hverdager","from":"07:00","to":"23:00"},{"date":null,"label":"Lørdag","from":"07:00","to":"23:00"},{"date":null,"label":"Søndag","from":"","to":""}],"special":[],"today":{"date":"2021-02-06","label":"Dagens åpningstider","from":"07:00","to":"23:00"},"isopenlate":true,"isopenonsunday":false},"istrumfactivated":true,"loc":{"lon":5.6379679625,"lat":62.3258323294},"municipality":"HERØY","county":"MØRE OG ROMSDAL","suggestion":["HERØY","MØRE OG ROMSDAL","Kiwi 905 Eggesbønes","6092","905","Eggesbønes"]}},{"distance":1,"store":{"id":7080001099930,"chainid":1100,"name":"Kiwi 901 Nørve","link":"","description":"","location":{"latitude":62.4708724906,"longitude":6.2014882675},"zipcode":"6008","zipcitycode":"ÅLESUND","municipalitid":1507,"countyid":15,"regionname":"MØRE","services":"TRUMFBONUS, TIPPING","visitaddress":"Borgundveien 166 D","phone":"70128155","fax":"70126919","email":"kiwi.norve@kiwi.no","openinghours":{"days":[{"date":null,"label":"Hverdager","from":"09:00","to":"23:00"},{"date":null,"label":"Lørdag","from":"09:00","to":"23:00"},{"date":null,"label":"Søndag","from":"","to":""}],"special":[],"today":{"date":"2021-02-06","label":"Dagens åpningstider","from":"09:00","to":"23:00"},"isopenlate":true,"isopenonsunday":false},"istrumfactivated":true,"loc":{"lon":6.2014882675,"lat":62.4708724906},"municipality":"ÅLESUND","county":"MØRE OG ROMSDAL","suggestion":["ÅLESUND","MØRE OG ROMSDAL","Kiwi 901 Nørve","6008","901","Nørve"]}},{"distance":1,"store":{"id":7080000067282,"chainid":1100,"name":"Kiwi 844 Sykkylven","link":"","description":"","location":{"latitude":62.391397,"longitude":6.581439},"zipcode":"6230","zipcitycode":"SYKKYLVEN","municipalitid":1528,"countyid":15,"regionname":"MØRE","services":"TRUMFBONUS, TIPPING","visitaddress":"Storgata 10","phone":"70252557","fax":"70253390","email":"kiwi.sykkylven@kiwi.no","openinghours":{"days":[{"date":null,"label":"Hverdager","from":"07:00","to":"23:00"},{"date":null,"label":"Lørdag","from":"07:00","to":"23:00"},{"date":null,"label":"Søndag","from":"","to":""}],"special":[],"today":{"date":"2021-02-06","label":"Dagens åpningstider","from":"07:00","to":"23:00"},"isopenlate":true,"isopenonsunday":false},"istrumfactivated":true,"loc":{"lon":6.581439,"lat":62.391397},"municipality":"SYKKYLVEN","county":"MØRE OG ROMSDAL","suggestion":["SYKKYLVEN","MØRE OG ROMSDAL","Kiwi 844 Sykkylven","6230","844","Sykkylven"]}},{"distance":1,"store":{"id":7080001412791,"chainid":1100,"name":"Kiwi 138 Dalgård","link":"","description":"","location":{"latitude":63.3972967948,"longitude":10.3426951372},"zipcode":"7024","zipcitycode":"TRONDHEIM","municipalitid":5001,"countyid":50,"regionname":"Midt","services":"TRUMFBONUS","visitaddress":"Drivhusvegen 2","phone":"72553400","fax":"72553401","email":"kiwi.dalgard@kiwi.no","openinghours":{"days":[{"date":null,"label":"Hverdager","from":"07:00","to":"23:00"},{"date":null,"label":"Lørdag","from":"07:00","to":"23:00"},{"date":null,"label":"Søndag","from":"","to":""}],"special":[],"today":{"date":"2021-02-06","label":"Dagens åpningstider","from":"07:00","to":"23:00"},"isopenlate":true,"isopenonsunday":false},"istrumfactivated":true,"loc":{"lon":10.3426951372,"lat":63.3972967948},"municipality":"TRONDHEIM","county":"TRØNDELAG","suggestion":["TRONDHEIM","TRØNDELAG","Kiwi 138 Dalgård","7024","138","Dalgård"]}},{"distance":1,"store":{"id":7080001433451,"chainid":1100,"name":"Kiwi 685 Åsen","link":"","description":"","location":{"latitude":58.9363467183,"longitude":5.7235352798},"zipcode":"4017","zipcitycode":"STAVANGER","municipalitid":1103,"countyid":11,"regionname":"ROGALAND","services":"TRUMFBONUS","visitaddress":"Auglendsdalen 83","phone":"51582240","fax":null,"email":"kiwi.asen@kiwi.no","openinghours":{"days":[{"date":null,"label":"Hverdager","from":"07:00","to":"23:00"},{"date":null,"label":"Lørdag","from":"07:00","to":"23:00"},{"date":null,"label":"Søndag","from":"","to":""}],"special":[],"today":{"date":"2021-02-06","label":"Dagens åpningstider","from":"07:00","to":"23:00"},"isopenlate":true,"isopenonsunday":false},"istrumfactivated":true,"loc":{"lon":5.7235352798,"lat":58.9363467183},"municipality":"STAVANGER","county":"ROGALAND","suggestion":["STAVANGER","ROGALAND","Kiwi 685 Åsen","4017","685","Åsen"]}},{"distance":1,"store":{"id":7080001078119,"chainid":1100,"name":"Kiwi 832 Sundgata","link":"","description":"","location":{"latitude":62.4709730282,"longitude":6.166723078},"zipcode":"6003","zipcitycode":"ÅLESUND","municipalitid":1507,"countyid":15,"regionname":"MØRE","services":"TRUMFBONUS, TIPPING","visitaddress":"Sundgata 8","phone":"70125617","fax":"70125618","email":"kiwi.sundgata@kiwi.no","openinghours":{"days":[{"date":null,"label":"Hverdager","from":"07:00","to":"23:00"},{"date":null,"label":"Lørdag","from":"09:00","to":"23:00"},{"date":null,"label":"Søndag","from":"10:00","to":"23:00"}],"special":[],"today":{"date":"2021-02-06","label":"Dagens åpningstider","from":"09:00","to":"23:00"},"isopenlate":true,"isopenonsunday":true},"istrumfactivated":true,"loc":{"lon":6.166723078,"lat":62.4709730282},"municipality":"ÅLESUND","county":"MØRE OG ROMSDAL","suggestion":["ÅLESUND","MØRE OG ROMSDAL","Kiwi 832 Sundgata","6003","832","Sundgata"]}},{"distance":1,"store":{"id":7080001433772,"chainid":1100,"name":"Kiwi 745 Krøgenes","link":"","description":"","location":{"latitude":60.7366516501,"longitude":11.2935536012},"zipcode":"4841","zipcitycode":"ARENDAL","municipalitid":4203,"countyid":42,"regionname":"SØR","services":"TRUMFBONUS","visitaddress":"Kystveien 240","phone":"37093300","fax":"0","email":"kiwi.krogenes@kiwi.no","openinghours":{"days":[{"date":null,"label":"Hverdager","from":"07:00","to":"23:00"},{"date":null,"label":"Lørdag","from":"07:00","to":"23:00"},{"date":null,"label":"Søndag","from":"","to":""}],"special":[],"today":{"date":"2021-02-06","label":"Dagens åpningstider","from":"07:00","to":"23:00"},"isopenlate":true,"isopenonsunday":false},"istrumfactivated":true,"loc":{"lon":11.2935536012,"lat":60.7366516501},"municipality":"ARENDAL","county":"AGDER","suggestion":["ARENDAL","AGDER","Kiwi 745 Krøgenes","4841","745","Krøgenes"]}},{"distance":1,"store":{"id":7080001434908,"chainid":1100,"name":"Kiwi 274 Hasleveien","link":"","description":"","location":{"latitude":59.9277570596,"longitude":10.7791469654},"zipcode":"0571","zipcitycode":"OSLO","municipalitid":301,"countyid":3,"regionname":"ØST","services":"TRUMFBONUS","visitaddress":"Hasleveien 10","phone":"22194900","fax":null,"email":"kiwi.hasleveien@kiwi.no","openinghours":{"days":[{"date":null,"label":"Hverdager","from":"07:00","to":"23:00"},{"date":null,"label":"Lørdag","from":"07:00","to":"23:00"},{"date":null,"label":"Søndag","from":"","to":""}],"special":[],"today":{"date":"2021-02-06","label":"Dagens åpningstider","from":"07:00","to":"23:00"},"isopenlate":true,"isopenonsunday":false},"istrumfactivated":true,"loc":{"lon":10.7791469654,"lat":59.9277570596},"municipality":"OSLO","county":"OSLO","suggestion":["OSLO","OSLO","Kiwi 274 Hasleveien","0571","274","Hasleveien"]}},{"distance":1,"store":{"id":7080001102180,"chainid":1100,"name":"Kiwi 335 Prinsdal","link":"","description":"","location":{"latitude":59.8331656275,"longitude":10.8070296298},"zipcode":"1263","zipcitycode":"OSLO","municipalitid":301,"countyid":3,"regionname":"ØST","services":"TRUMFBONUS","visitaddress":"Nedre Prinsdalsvei 79","phone":"22 61 79 99","fax":"22617997","email":"kiwi.prinsdal@kiwi.no","openinghours":{"days":[{"date":null,"label":"Hverdager","from":"07:00","to":"23:00"},{"date":null,"label":"Lørdag","from":"07:00","to":"23:00"},{"date":null,"label":"Søndag","from":"","to":""}],"special":[],"today":{"date":"2021-02-06","label":"Dagens åpningstider","from":"07:00","to":"23:00"},"isopenlate":true,"isopenonsunday":false},"istrumfactivated":true,"loc":{"lon":10.8070296298,"lat":59.8331656275},"municipality":"OSLO","county":"OSLO","suggestion":["OSLO","OSLO","Kiwi 335 Prinsdal","1263","335","Prinsdal"]}},{"distance":1,"store":{"id":7080001100834,"chainid":1100,"name":"Kiwi 645 Joa","link":"","description":"","location":{"latitude":58.9037809511,"longitude":5.6620121504},"zipcode":"4050","zipcitycode":"SOLA","municipalitid":1124,"countyid":11,"regionname":"ROGALAND","services":"TRUMFBONUS","visitaddress":"Austerheimvegen 5","phone":"51 64 06 47","fax":"51 64 06 48","email":"kiwi.joa@kiwi.no","openinghours":{"days":[{"date":null,"label":"Hverdager","from":"07:00","to":"23:00"},{"date":null,"label":"Lørdag","from":"07:00","to":"23:00"},{"date":null,"label":"Søndag","from":"","to":""}],"special":[],"today":{"date":"2021-02-06","label":"Dagens åpningstider","from":"07:00","to":"23:00"},"isopenlate":true,"isopenonsunday":false},"istrumfactivated":true,"loc":{"lon":5.6620121504,"lat":58.9037809511},"municipality":"SOLA","county":"ROGALAND","suggestion":["SOLA","ROGALAND","Kiwi 645 Joa","4050","645","Joa"]}},{"distance":1,"store":{"id":7080000014361,"chainid":1100,"name":"Kiwi 830 Skjellebreida","link":"","description":"","location":{"latitude":62.1453500988,"longitude":6.0744453845},"zipcode":"6100","zipcitycode":"VOLDA","municipalitid":1577,"countyid":15,"regionname":"MØRE","services":"TRUMFBONUS, TIPPING","visitaddress":"Røysbakken 3","phone":"70077733","fax":"70078503","email":"kiwi.skjellebreida@kiwi.no","openinghours":{"days":[{"date":null,"label":"Hverdager","from":"07:00","to":"23:00"},{"date":null,"label":"Lørdag","from":"07:00","to":"23:00"},{"date":null,"label":"Søndag","from":"10:00","to":"23:00"}],"special":[],"today":{"date":"2021-02-06","label":"Dagens åpningstider","from":"07:00","to":"23:00"},"isopenlate":true,"isopenonsunday":true},"istrumfactivated":true,"loc":{"lon":6.0744453845,"lat":62.1453500988},"municipality":"VOLDA","county":"MØRE OG ROMSDAL","suggestion":["VOLDA","MØRE OG ROMSDAL","Kiwi 830 Skjellebreida","6100","830","Skjellebreida"]}},{"distance":1,"store":{"id":7080001476557,"chainid":1100,"name":"KIWI 173 Østre Elvebakken","link":"","description":"","zipcode":"9515","zipcitycode":"ALTA","municipalitid":5403,"countyid":54,"regionname":"NORD","services":"TRUMFBONUS","visitaddress":"Smibakken 11","phone":"78440010","fax":null,"email":"kiwi.ostre.elvebakken@kiwi.no","openinghours":{"days":[{"date":null,"label":"Hverdager","from":"07:00","to":"23:00"},{"date":null,"label":"Lørdag","from":"07:00","to":"23:00"},{"date":null,"label":"Søndag","from":"","to":""}],"special":[],"today":{"date":"2021-02-06","label":"Dagens åpningstider","from":"07:00","to":"23:00"},"isopenlate":true,"isopenonsunday":false},"istrumfactivated":true,"municipality":"ALTA","county":"TROMS OG FINNMARK","suggestion":["ALTA","TROMS OG FINNMARK","KIWI 173 Østre Elvebakken","9515","173","Østre","Elvebakken"]}},{"distance":1,"store":{"id":7080001103729,"chainid":1100,"name":"Kiwi 880 Strandgaten Bergen","link":"","description":"","location":{"latitude":60.3974238083,"longitude":5.3113141685},"zipcode":"5004","zipcitycode":"BERGEN","municipalitid":4601,"countyid":46,"regionname":"VEST","services":"TRUMFBONUS, TIPPING","visitaddress":"Strandgaten 204","phone":"55233485","fax":"55233486","email":"kiwi.strandgaten-bergen@kiwi.no","openinghours":{"days":[{"date":null,"label":"Hverdager","from":"07:00","to":"23:00"},{"date":null,"label":"Lørdag","from":"07:00","to":"23:00"},{"date":null,"label":"Søndag","from":"","to":""}],"special":[],"today":{"date":"2021-02-06","label":"Dagens åpningstider","from":"07:00","to":"23:00"},"isopenlate":true,"isopenonsunday":false},"istrumfactivated":true,"loc":{"lon":5.3113141685,"lat":60.3974238083},"municipality":"BERGEN","county":"VESTLAND","suggestion":["BERGEN","VESTLAND","Kiwi 880 Strandgaten Bergen","5004","880","Strandgaten","Bergen"]}},{"distance":1,"store":{"id":7080001474980,"chainid":1100,"name":"KIWI 687 Hillevåg","link":"","description":"","location":{"latitude":58.94954411,"longitude":5.74103523},"zipcode":"4016","zipcitycode":"STAVANGER","municipalitid":1103,"countyid":11,"regionname":"ROGALAND","services":"TRUMFBONUS","visitaddress":"Gartnerveien 4","phone":"51619500","fax":"0","email":"kiwi.hillevag@kiwi.no","openinghours":{"days":[{"date":null,"label":"Hverdager","from":"07:00","to":"23:00"},{"date":null,"label":"Lørdag","from":"07:00","to":"23:00"},{"date":null,"label":"Søndag","from":"","to":""}],"special":[],"today":{"date":"2021-02-06","label":"Dagens åpningstider","from":"07:00","to":"23:00"},"isopenlate":true,"isopenonsunday":false},"istrumfactivated":true,"loc":{"lon":5.74103523,"lat":58.94954411},"municipality":"STAVANGER","county":"ROGALAND","suggestion":["STAVANGER","ROGALAND","KIWI 687 Hillevåg","4016","687","Hillevåg"]}},{"distance":1,"store":{"id":7080001110727,"chainid":1100,"name":"Kiwi 418 Strømmen","link":"","description":"","location":{"latitude":59.9473091221,"longitude":11.0092816642},"zipcode":"2010","zipcitycode":"STRØMMEN","municipalitid":3030,"countyid":30,"regionname":"ØST","services":"TRUMFBONUS","visitaddress":"Støperiveien 10 D","phone":"63 89 07 11","fax":"0","email":"kiwi.strommen@kiwi.no","openinghours":{"days":[{"date":null,"label":"Hverdager","from":"07:00","to":"23:00"},{"date":null,"label":"Lørdag","from":"07:00","to":"23:00"},{"date":null,"label":"Søndag","from":"","to":""}],"special":[],"today":{"date":"2021-02-06","label":"Dagens åpningstider","from":"07:00","to":"23:00"},"isopenlate":true,"isopenonsunday":false},"istrumfactivated":true,"loc":{"lon":11.0092816642,"lat":59.9473091221},"municipality":"LILLESTRØM","county":"VIKEN","suggestion":["LILLESTRØM","VIKEN","Kiwi 418 Strømmen","2010","418","Strømmen"]}},{"distance":1,"store":{"id":7080001106652,"chainid":1100,"name":"Kiwi 476 Gudesgate","link":"","description":"","location":{"latitude":59.4374120943,"longitude":10.6643490949},"zipcode":"1530","zipcitycode":"MOSS","municipalitid":3002,"countyid":30,"regionname":"ØST","services":"TRUMFBONUS, TIPPING","visitaddress":"Gudesgate 12","phone":"69207820","fax":"69207821","email":"kiwi.gudesgate@kiwi.no","openinghours":{"days":[{"date":null,"label":"Hverdager","from":"07:00","to":"23:00"},{"date":null,"label":"Lørdag","from":"07:00","to":"23:00"},{"date":null,"label":"Søndag","from":"","to":""}],"special":[],"today":{"date":"2021-02-06","label":"Dagens åpningstider","from":"07:00","to":"23:00"},"isopenlate":true,"isopenonsunday":false},"istrumfactivated":true,"loc":{"lon":10.6643490949,"lat":59.4374120943},"municipality":"MOSS","county":"VIKEN","suggestion":["MOSS","VIKEN","Kiwi 476 Gudesgate","1530","476","Gudesgate"]}},{"distance":1,"store":{"id":7080001479442,"chainid":1100,"name":"KIWI 669 Sauda","link":"","description":"","zipcode":"4200","zipcitycode":"SAUDA","municipalitid":1135,"countyid":11,"regionname":"ROGALAND","services":"TRUMFBONUS, TIPPING","visitaddress":"Torggata 3","phone":"52 78 58 80","fax":"52 78 58 81","email":"kiwi.sauda@kiwi.no","openinghours":{"days":[{"date":null,"label":"Hverdager","from":"08:00","to":"22:00"},{"date":null,"label":"Lørdag","from":"08:00","to":"21:00"},{"date":null,"label":"Søndag","from":"","to":""}],"special":[],"today":{"date":"2021-02-06","label":"Dagens åpningstider","from":"08:00","to":"21:00"},"isopenlate":false,"isopenonsunday":false},"istrumfactivated":true,"municipality":"SAUDA","county":"ROGALAND","suggestion":["SAUDA","ROGALAND","KIWI 669 Sauda","4200","669","Sauda"]}},{"distance":1,"store":{"id":7080001475451,"chainid":1100,"name":"KIWI 746 Marnargården","link":"","description":"","location":{"latitude":58.029154,"longitude":7.460197},"zipcode":"4517","zipcitycode":"MANDAL","municipalitid":4205,"countyid":42,"regionname":"SØR","services":"TRUMFBONUS","visitaddress":"Skarvøyveien 34","phone":"38020300","fax":null,"email":"kiwi.marnargarden@kiwi.no","openinghours":{"days":[{"date":null,"label":"Hverdager","from":"07:00","to":"23:00"},{"date":null,"label":"Lørdag","from":"07:00","to":"23:00"},{"date":null,"label":"Søndag","from":"","to":""}],"special":[],"today":{"date":"2021-02-06","label":"Dagens åpningstider","from":"07:00","to":"23:00"},"isopenlate":true,"isopenonsunday":false},"istrumfactivated":true,"loc":{"lon":7.460197,"lat":58.029154},"municipality":"LINDESNES","county":"AGDER","suggestion":["LINDESNES","AGDER","KIWI 746 Marnargården","4517","746","Marnargården"]}},{"distance":1,"store":{"id":7080001464035,"chainid":1100,"name":"KIWI 263 Klokkarstua","link":"","description":"","location":{"latitude":59.619871,"longitude":10.470412},"zipcode":"3490","zipcitycode":"KLOKKARSTUA","municipalitid":3025,"countyid":30,"regionname":"VESTRE ØSTLAND","services":"TRUMFBONUS","visitaddress":"Åsheimveien 3 D","phone":"67906100","fax":null,"email":"kiwi.klokkarstua@kiwi.no","openinghours":{"days":[{"date":null,"label":"Hverdager","from":"07:00","to":"23:00"},{"date":null,"label":"Lørdag","from":"07:00","to":"23:00"},{"date":null,"label":"Søndag","from":"","to":""}],"special":[],"today":{"date":"2021-02-06","label":"Dagens åpningstider","from":"07:00","to":"23:00"},"isopenlate":true,"isopenonsunday":false},"istrumfactivated":true,"loc":{"lon":10.470412,"lat":59.619871},"municipality":"ASKER","county":"VIKEN","suggestion":["ASKER","VIKEN","KIWI 263 Klokkarstua","3490","263","Klokkarstua"]}},{"distance":1,"store":{"id":7080004117174,"chainid":1100,"name":"KIWI 142 Lilleby","link":"","description":"","zipcode":"7066","zipcitycode":"TRONDHEIM","municipalitid":5001,"countyid":50,"regionname":"Midt","services":"TRUMFBONUS","visitaddress":"Stjørdalsveien 2","phone":"73502650","fax":"0","email":"kiwi.lilleby@kiwi.no","openinghours":{"days":[{"date":null,"label":"Hverdager","from":"07:00","to":"23:00"},{"date":null,"label":"Lørdag","from":"07:00","to":"23:00"},{"date":null,"label":"Søndag","from":"","to":""}],"special":[],"today":{"date":"2021-02-06","label":"Dagens åpningstider","from":"07:00","to":"23:00"},"isopenlate":true,"isopenonsunday":false},"istrumfactivated":true,"municipality":"TRONDHEIM","county":"TRØNDELAG","suggestion":["TRONDHEIM","TRØNDELAG","KIWI 142 Lilleby","7066","142","Lilleby"]}},{"distance":1,"store":{"id":7080001418373,"chainid":1100,"name":"KIWI 141 Meierikvartalet","link":"","description":"","location":{"latitude":67.283691,"longitude":14.385945},"zipcode":"8006","zipcitycode":"BODØ","municipalitid":1804,"countyid":18,"regionname":"Midt","services":"TRUMFBONUS","visitaddress":"Kongens gate 33 A","phone":"75521820","fax":null,"email":"kiwi.meierikvartalet@kiwi.no","openinghours":{"days":[{"date":null,"label":"Hverdager","from":"07:00","to":"23:00"},{"date":null,"label":"Lørdag","from":"07:00","to":"23:00"},{"date":null,"label":"Søndag","from":"","to":""}],"special":[],"today":{"date":"2021-02-06","label":"Dagens åpningstider","from":"07:00","to":"23:00"},"isopenlate":true,"isopenonsunday":false},"istrumfactivated":true,"loc":{"lon":14.385945,"lat":67.283691},"municipality":"BODØ","county":"NORDLAND","suggestion":["BODØ","NORDLAND","KIWI 141 Meierikvartalet","8006","141","Meierikvartalet"]}},{"distance":1,"store":{"id":7080001457501,"chainid":1100,"name":"KIWI 836 Nesttun Sentrum","link":"","description":"","location":{"latitude":60.3200649288,"longitude":5.353387792},"zipcode":"5221","zipcitycode":"NESTTUN","municipalitid":4601,"countyid":46,"regionname":"VEST","services":"TRUMFBONUS","visitaddress":"Nesttunveien 90","phone":"55 22 08 11","fax":null,"email":"kiwi.nesttun-sentrum@kiwi.no","openinghours":{"days":[{"date":null,"label":"Hverdager","from":"07:00","to":"23:00"},{"date":null,"label":"Lørdag","from":"07:00","to":"23:00"},{"date":null,"label":"Søndag","from":"","to":""}],"special":[],"today":{"date":"2021-02-06","label":"Dagens åpningstider","from":"07:00","to":"23:00"},"isopenlate":true,"isopenonsunday":false},"istrumfactivated":true,"loc":{"lon":5.353387792,"lat":60.3200649288},"municipality":"BERGEN","county":"VESTLAND","suggestion":["BERGEN","VESTLAND","KIWI 836 Nesttun Sentrum","5221","836","Nesttun","Sentrum"]}},{"distance":1,"store":{"id":7080001459208,"chainid":1100,"name":"KIWI 653 Eiekrysset","link":"","description":"","location":{"latitude":58.4602629741,"longitude":6.0019230707},"zipcode":"4370","zipcitycode":"EGERSUND","municipalitid":1101,"countyid":11,"regionname":"ROGALAND","services":"TRUMFBONUS","visitaddress":"Lindøyveien 1","phone":"51498890","fax":null,"email":"kiwi.eiekrysset@kiwi.no","openinghours":{"days":[{"date":null,"label":"Hverdager","from":"07:00","to":"23:00"},{"date":null,"label":"Lørdag","from":"07:00","to":"23:00"},{"date":null,"label":"Søndag","from":"","to":""}],"special":[],"today":{"date":"2021-02-06","label":"Dagens åpningstider","from":"07:00","to":"23:00"},"isopenlate":true,"isopenonsunday":false},"istrumfactivated":true,"loc":{"lon":6.0019230707,"lat":58.4602629741},"municipality":"EIGERSUND","county":"ROGALAND","suggestion":["EIGERSUND","ROGALAND","KIWI 653 Eiekrysset","4370","653","Eiekrysset"]}},{"distance":1,"store":{"id":7080000908639,"chainid":1100,"name":"Kiwi 853 Ulset","link":"","description":"","location":{"latitude":60.463779678,"longitude":5.3039921833},"zipcode":"5119","zipcitycode":"ULSET","municipalitid":4601,"countyid":46,"regionname":"VEST","services":"TRUMFBONUS","visitaddress":"Fossekleiva 39","phone":"55 18 26 50","fax":null,"email":"kiwi.ulset@kiwi.no","openinghours":{"days":[{"date":null,"label":"Hverdager","from":"07:00","to":"23:00"},{"date":null,"label":"Lørdag","from":"07:00","to":"23:00"},{"date":null,"label":"Søndag","from":"","to":""}],"special":[],"today":{"date":"2021-02-06","label":"Dagens åpningstider","from":"07:00","to":"23:00"},"isopenlate":true,"isopenonsunday":false},"istrumfactivated":true,"loc":{"lon":5.3039921833,"lat":60.463779678},"municipality":"BERGEN","county":"VESTLAND","suggestion":["BERGEN","VESTLAND","Kiwi 853 Ulset","5119","853","Ulset"]}},{"distance":1,"store":{"id":7080000643042,"chainid":1100,"name":"Kiwi 022 Grua","link":"","description":"","location":{"latitude":60.2570524089,"longitude":10.660248755},"zipcode":"2742","zipcitycode":"GRUA","municipalitid":3054,"countyid":30,"regionname":"INNLAND","services":"PIB, TRUMFBONUS, TIPPING","visitaddress":"Myllaveien 6 A","phone":"62415500","fax":"62415501","email":"kiwi.grua@kiwi.no","openinghours":{"days":[{"date":null,"label":"Hverdager","from":"07:00","to":"23:00"},{"date":null,"label":"Lørdag","from":"07:00","to":"23:00"},{"date":null,"label":"Søndag","from":"","to":""}],"special":[],"today":{"date":"2021-02-06","label":"Dagens åpningstider","from":"07:00","to":"23:00"},"isopenlate":true,"isopenonsunday":false},"istrumfactivated":true,"loc":{"lon":10.660248755,"lat":60.2570524089},"municipality":"LUNNER","county":"VIKEN","suggestion":["LUNNER","VIKEN","Kiwi 022 Grua","2742","022","Grua"]}},{"distance":1,"store":{"id":7080001084738,"chainid":1100,"name":"Kiwi 641 Torvastad","link":"","description":"","location":{"latitude":59.3891789457,"longitude":5.2732930533},"zipcode":"4260","zipcitycode":"TORVASTAD","municipalitid":1149,"countyid":11,"regionname":"ROGALAND","services":"TRUMFBONUS, TIPPING","visitaddress":"Huldervegen 1","phone":"52 83 97 07","fax":"52 83 64 43","email":"kiwi.torvastad@kiwi.no","openinghours":{"days":[{"date":null,"label":"Hverdager","from":"07:00","to":"23:00"},{"date":null,"label":"Lørdag","from":"08:00","to":"22:00"},{"date":null,"label":"Søndag","from":"","to":""}],"special":[],"today":{"date":"2021-02-06","label":"Dagens åpningstider","from":"08:00","to":"22:00"},"isopenlate":true,"isopenonsunday":false},"istrumfactivated":true,"loc":{"lon":5.2732930533,"lat":59.3891789457},"municipality":"KARMØY","county":"ROGALAND","suggestion":["KARMØY","ROGALAND","Kiwi 641 Torvastad","4260","641","Torvastad"]}},{"distance":1,"store":{"id":7080001315467,"chainid":1100,"name":"Kiwi 069 Koppang","link":"","description":"","location":{"latitude":61.5716801106,"longitude":11.0533702384},"zipcode":"2480","zipcitycode":"KOPPANG","municipalitid":3423,"countyid":34,"regionname":"INNLAND","services":"TRUMFBONUS","visitaddress":"Kjemsjøveien 21","phone":"62461133","fax":"62461134","email":"kiwi.koppang@kiwi.no","openinghours":{"days":[{"date":null,"label":"Hverdager","from":"07:00","to":"21:00"},{"date":null,"label":"Lørdag","from":"07:00","to":"21:00"},{"date":null,"label":"Søndag","from":"","to":""}],"special":[],"today":{"date":"2021-02-06","label":"Dagens åpningstider","from":"07:00","to":"21:00"},"isopenlate":false,"isopenonsunday":false},"istrumfactivated":true,"loc":{"lon":11.0533702384,"lat":61.5716801106},"municipality":"STOR-ELVDAL","county":"INNLANDET","suggestion":["STOR-ELVDAL","INNLANDET","Kiwi 069 Koppang","2480","069","Koppang"]}},{"distance":1,"store":{"id":7080001086220,"chainid":1100,"name":"Kiwi 891 Langmyrveien","link":"","description":"","location":{"latitude":62.7435376593,"longitude":7.1694182589},"zipcode":"6413","zipcitycode":"MOLDE","municipalitid":1506,"countyid":15,"regionname":"MØRE","services":"TRUMFBONUS, TIPPING","visitaddress":"Langmyrveien 19B","phone":"71 21 51 15","fax":"71 21 60 66","email":"kiwi.langmyrveien@kiwi.no","openinghours":{"days":[{"date":null,"label":"Hverdager","from":"07:00","to":"23:00"},{"date":null,"label":"Lørdag","from":"07:00","to":"23:00"},{"date":null,"label":"Søndag","from":"","to":""}],"special":[],"today":{"date":"2021-02-06","label":"Dagens åpningstider","from":"07:00","to":"23:00"},"isopenlate":true,"isopenonsunday":false},"istrumfactivated":true,"loc":{"lon":7.1694182589,"lat":62.7435376593},"municipality":"MOLDE","county":"MØRE OG ROMSDAL","suggestion":["MOLDE","MØRE OG ROMSDAL","Kiwi 891 Langmyrveien","6413","891","Langmyrveien"]}},{"distance":1,"store":{"id":7080001088774,"chainid":1100,"name":"Kiwi 875 Birkelundstoppen","link":"","description":"","location":{"latitude":60.3446923463,"longitude":5.3636731378},"zipcode":"5231","zipcitycode":"PARADIS","municipalitid":4601,"countyid":46,"regionname":"VEST","services":"TRUMFBONUS","visitaddress":"Birkelundsbakken 59","phone":"55924180","fax":"55924181","email":"kiwi.birkelundstoppen@kiwi.no","openinghours":{"days":[{"date":null,"label":"Hverdager","from":"07:00","to":"23:00"},{"date":null,"label":"Lørdag","from":"07:00","to":"23:00"},{"date":null,"label":"Søndag","from":"","to":""}],"special":[],"today":{"date":"2021-02-06","label":"Dagens åpningstider","from":"07:00","to":"23:00"},"isopenlate":true,"isopenonsunday":false},"istrumfactivated":true,"loc":{"lon":5.3636731378,"lat":60.3446923463},"municipality":"BERGEN","county":"VESTLAND","suggestion":["BERGEN","VESTLAND","Kiwi 875 Birkelundstoppen","5231","875","Birkelundstoppen"]}},{"distance":1,"store":{"id":7080001087166,"chainid":1100,"name":"Kiwi 718 Myrene","link":"","description":"","location":{"latitude":58.4618705565,"longitude":8.7525477062},"zipcode":"4847","zipcitycode":"ARENDAL","municipalitid":4203,"countyid":42,"regionname":"SØR","services":"TRUMFBONUS","visitaddress":"Myreneveien 6","phone":"37 02 73 51","fax":"37 02 58 14","email":"kiwi.myrene@kiwi.no","openinghours":{"days":[{"date":null,"label":"Hverdager","from":"07:00","to":"23:00"},{"date":null,"label":"Lørdag","from":"07:00","to":"23:00"},{"date":null,"label":"Søndag","from":"","to":""}],"special":[],"today":{"date":"2021-02-06","label":"Dagens åpningstider","from":"07:00","to":"23:00"},"isopenlate":true,"isopenonsunday":false},"istrumfactivated":true,"loc":{"lon":8.7525477062,"lat":58.4618705565},"municipality":"ARENDAL","county":"AGDER","suggestion":["ARENDAL","AGDER","Kiwi 718 Myrene","4847","718","Myrene"]}},{"distance":1,"store":{"id":7080001426347,"chainid":1100,"name":"Kiwi 651 Klepp","link":"","description":"","location":{"latitude":58.7759383793,"longitude":5.6290848854},"zipcode":"4352","zipcitycode":"KLEPPE","municipalitid":1120,"countyid":11,"regionname":"ROGALAND","services":"TRUMFBONUS","visitaddress":"K. K. Kleppes veg 2","phone":"51421544","fax":"51422429","email":"kiwi.klepp@kiwi.no","openinghours":{"days":[{"date":null,"label":"Hverdager","from":"07:00","to":"23:00"},{"date":null,"label":"Lørdag","from":"07:00","to":"23:00"},{"date":null,"label":"Søndag","from":"","to":""}],"special":[],"today":{"date":"2021-02-06","label":"Dagens åpningstider","from":"07:00","to":"23:00"},"isopenlate":true,"isopenonsunday":false},"istrumfactivated":true,"loc":{"lon":5.6290848854,"lat":58.7759383793},"municipality":"KLEPP","county":"ROGALAND","suggestion":["KLEPP","ROGALAND","Kiwi 651 Klepp","4352","651","Klepp"]}},{"distance":1,"store":{"id":7080001426194,"chainid":1100,"name":"KIWI 236 Nordre Ål","link":"","description":"","location":{"latitude":61.1311408024,"longitude":10.4482825475},"zipcode":"2619","zipcitycode":"LILLEHAMMER","municipalitid":3405,"countyid":34,"regionname":"INNLAND","services":"TRUMFBONUS","visitaddress":"Oskar Skoglys veg 2","phone":"61256900","fax":null,"email":"kiwi.nordreal@kiwi.no","openinghours":{"days":[{"date":null,"label":"Hverdager","from":"07:00","to":"23:00"},{"date":null,"label":"Lørdag","from":"07:00","to":"23:00"},{"date":null,"label":"Søndag","from":"","to":""}],"special":[],"today":{"date":"2021-02-06","label":"Dagens åpningstider","from":"07:00","to":"23:00"},"isopenlate":true,"isopenonsunday":false},"istrumfactivated":true,"loc":{"lon":10.4482825475,"lat":61.1311408024},"municipality":"LILLEHAMMER","county":"INNLANDET","suggestion":["LILLEHAMMER","INNLANDET","KIWI 236 Nordre Ål","2619","236","Nordre","Ål"]}},{"distance":1,"store":{"id":7080001092078,"chainid":1100,"name":"Kiwi 876 Bjørkheim","link":"","description":"","location":{"latitude":60.4014302494,"longitude":5.7307945154},"zipcode":"5652","zipcitycode":"ÅRLAND","municipalitid":4623,"countyid":46,"regionname":"VEST","services":"TRUMFBONUS, TIPPING","visitaddress":"Bjørkheim 10","phone":"56587616","fax":"56587895","email":"kiwi.bjorkheim@kiwi.no","openinghours":{"days":[{"date":null,"label":"Hverdager","from":"07:00","to":"23:00"},{"date":null,"label":"Lørdag","from":"07:00","to":"23:00"},{"date":null,"label":"Søndag","from":"","to":""}],"special":[],"today":{"date":"2021-02-06","label":"Dagens åpningstider","from":"07:00","to":"23:00"},"isopenlate":true,"isopenonsunday":false},"istrumfactivated":true,"loc":{"lon":5.7307945154,"lat":60.4014302494},"municipality":"SAMNANGER","county":"VESTLAND","suggestion":["SAMNANGER","VESTLAND","Kiwi 876 Bjørkheim","5652","876","Bjørkheim"]}},{"distance":1,"store":{"id":7080001093747,"chainid":1100,"name":"Kiwi 233 Stampa","link":"","description":"","location":{"latitude":61.1240019232,"longitude":10.4683207326},"zipcode":"2618","zipcitycode":"LILLEHAMMER","municipalitid":3405,"countyid":34,"regionname":"INNLAND","services":"TRUMFBONUS, TIPPING","visitaddress":"Nordseterveien 42","phone":"61 25 22 02","fax":"61 25 03 81","email":"kiwi.stampa@kiwi.no","openinghours":{"days":[{"date":null,"label":"Hverdager","from":"07:00","to":"23:00"},{"date":null,"label":"Lørdag","from":"07:00","to":"23:00"},{"date":null,"label":"Søndag","from":"","to":""}],"special":[],"today":{"date":"2021-02-06","label":"Dagens åpningstider","from":"07:00","to":"23:00"},"isopenlate":true,"isopenonsunday":false},"istrumfactivated":true,"loc":{"lon":10.4683207326,"lat":61.1240019232},"municipality":"LILLEHAMMER","county":"INNLANDET","suggestion":["LILLEHAMMER","INNLANDET","Kiwi 233 Stampa","2618","233","Stampa"]}},{"distance":1,"store":{"id":7080001096151,"chainid":1100,"name":"Kiwi 878 Birkebeinersenteret","link":"","description":"","location":{"latitude":60.3998616232,"longitude":5.3236999889},"zipcode":"5003","zipcitycode":"BERGEN","municipalitid":4601,"countyid":46,"regionname":"VEST","services":"TRUMFBONUS","visitaddress":"Nye Sandviksveien 9","phone":"55312104","fax":"55316564","email":"kiwi.birkebeinersenteret@kiwi.no","openinghours":{"days":[{"date":null,"label":"Hverdager","from":"07:00","to":"23:00"},{"date":null,"label":"Lørdag","from":"07:00","to":"23:00"},{"date":null,"label":"Søndag","from":"","to":""}],"special":[],"today":{"date":"2021-02-06","label":"Dagens åpningstider","from":"07:00","to":"23:00"},"isopenlate":true,"isopenonsunday":false},"istrumfactivated":true,"loc":{"lon":5.3236999889,"lat":60.3998616232},"municipality":"BERGEN","county":"VESTLAND","suggestion":["BERGEN","VESTLAND","Kiwi 878 Birkebeinersenteret","5003","878","Birkebeinersenteret"]}},{"distance":1,"store":{"id":7080001287948,"chainid":1100,"name":"Kiwi 500 Falkum","link":"","description":"","location":{"latitude":59.2112990707,"longitude":9.5885302329},"zipcode":"3722","zipcitycode":"SKIEN","municipalitid":3807,"countyid":38,"regionname":"VESTRE ØSTLAND","services":"TRUMFBONUS, TIPPING","visitaddress":"Hjalmar Johansens gt. 10 -12","phone":"35 52 30 80","fax":"35 52 30 82","email":"kiwi.falkum@kiwi.no","openinghours":{"days":[{"date":null,"label":"Hverdager","from":"07:00","to":"23:00"},{"date":null,"label":"Lørdag","from":"07:00","to":"23:00"},{"date":null,"label":"Søndag","from":"","to":""}],"special":[],"today":{"date":"2021-02-06","label":"Dagens åpningstider","from":"07:00","to":"23:00"},"isopenlate":true,"isopenonsunday":false},"istrumfactivated":true,"loc":{"lon":9.5885302329,"lat":59.2112990707},"municipality":"SKIEN","county":"VESTFOLD OG TELEMARK","suggestion":["SKIEN","VESTFOLD OG TELEMARK","Kiwi 500 Falkum","3722","500","Falkum"]}},{"distance":1,"store":{"id":7080001389536,"chainid":1100,"name":"Kiwi 296 Stabekk Stasjon","link":"","description":"","location":{"latitude":59.9086103183,"longitude":10.6055472797},"zipcode":"1369","zipcitycode":"STABEKK","municipalitid":3024,"countyid":30,"regionname":"ØST","services":"TRUMFBONUS","visitaddress":"Gamle Drammensvei 40","phone":"67532212","fax":"67532223","email":"kiwi.stabekkstasjon@kiwi.no","openinghours":{"days":[{"date":null,"label":"Hverdager","from":"07:00","to":"23:00"},{"date":null,"label":"Lørdag","from":"07:00","to":"23:00"},{"date":null,"label":"Søndag","from":"","to":""}],"special":[],"today":{"date":"2021-02-06","label":"Dagens åpningstider","from":"07:00","to":"23:00"},"isopenlate":true,"isopenonsunday":false},"istrumfactivated":true,"loc":{"lon":10.6055472797,"lat":59.9086103183},"municipality":"BÆRUM","county":"VIKEN","suggestion":["BÆRUM","VIKEN","Kiwi 296 Stabekk Stasjon","1369","296","Stabekk","Stasjon"]}},{"distance":1,"store":{"id":7080001371555,"chainid":1100,"name":"Kiwi 694 Mosterøy","link":"","description":"","location":{"latitude":59.0635918556,"longitude":5.6775641701},"zipcode":"4156","zipcitycode":"MOSTERØY","municipalitid":1103,"countyid":11,"regionname":"ROGALAND","services":"TRUMFBONUS, TIPPING","visitaddress":"Mosterøyveien 1","phone":"51724244","fax":"51724237","email":"kiwi.mosteroy@kiwi.no","openinghours":{"days":[{"date":null,"label":"Hverdager","from":"07:00","to":"23:00"},{"date":null,"label":"Lørdag","from":"08:00","to":"21:00"},{"date":null,"label":"Søndag","from":"","to":""}],"special":[],"today":{"date":"2021-02-06","label":"Dagens åpningstider","from":"08:00","to":"21:00"},"isopenlate":true,"isopenonsunday":false},"istrumfactivated":true,"loc":{"lon":5.6775641701,"lat":59.0635918556},"municipality":"STAVANGER","county":"ROGALAND","suggestion":["STAVANGER","ROGALAND","Kiwi 694 Mosterøy","4156","694","Mosterøy"]}},{"distance":1,"store":{"id":7080000507009,"chainid":1100,"name":"Kiwi 291 Bøleråsen Senter","link":"","description":"","location":{"latitude":59.7642462775,"longitude":10.851992821},"zipcode":"1405","zipcitycode":"LANGHUS","municipalitid":3020,"countyid":30,"regionname":"ØST","services":"TRUMFBONUS, TIPPING","visitaddress":"Bregnefaret 1","phone":"64862920","fax":"64862921","email":"kiwi.bolerasensenter@kiwi.no","openinghours":{"days":[{"date":null,"label":"Hverdager","from":"07:00","to":"23:00"},{"date":null,"label":"Lørdag","from":"09:00","to":"21:00"},{"date":null,"label":"Søndag","from":"","to":""}],"special":[],"today":{"date":"2021-02-06","label":"Dagens åpningstider","from":"09:00","to":"21:00"},"isopenlate":true,"isopenonsunday":false},"istrumfactivated":true,"loc":{"lon":10.851992821,"lat":59.7642462775},"municipality":"NORDRE FOLLO","county":"VIKEN","suggestion":["NORDRE FOLLO","VIKEN","Kiwi 291 Bøleråsen Senter","1405","291","Bøleråsen","Senter"]}},{"distance":1,"store":{"id":7080000007776,"chainid":1100,"name":"Kiwi 790 Søndeled","link":"","description":"","location":{"latitude":58.7603875598,"longitude":9.0758841564},"zipcode":"4990","zipcitycode":"SØNDELED","municipalitid":4201,"countyid":42,"regionname":"SØR","services":"PIB, TRUMFBONUS, TIPPING","visitaddress":"Øren 37","phone":"371 56101","fax":"37156170","email":"kiwi.sondeled@kiwi.no","openinghours":{"days":[{"date":null,"label":"Hverdager","from":"08:00","to":"22:00"},{"date":null,"label":"Lørdag","from":"08:00","to":"21:00"},{"date":null,"label":"Søndag","from":"","to":""}],"special":[{"date":"2021-02-20","label":"Lørdag 20.02.2021","from":"08:00","to":"18:00"},{"date":"2021-02-22","label":"Mandag 22.02.2021","from":"","to":""}],"today":{"date":"2021-02-06","label":"Dagens åpningstider","from":"08:00","to":"21:00"},"isopenlate":false,"isopenonsunday":false},"istrumfactivated":true,"loc":{"lon":9.0758841564,"lat":58.7603875598},"municipality":"RISØR","county":"AGDER","suggestion":["RISØR","AGDER","Kiwi 790 Søndeled","4990","790","Søndeled"]}},{"distance":1,"store":{"id":7080001112998,"chainid":1100,"name":"Kiwi 342 Solbergelva","link":"","description":"","location":{"latitude":59.76385,"longitude":10.0784},"zipcode":"3057","zipcitycode":"SOLBERGELVA","municipalitid":3005,"countyid":30,"regionname":"VESTRE ØSTLAND","services":"TRUMFBONUS, TIPPING","visitaddress":"Gamle Riksvei 98","phone":"32 87 21 90","fax":"32 87 22 20","email":"kiwi.solbergelva@kiwi.no","openinghours":{"days":[{"date":null,"label":"Hverdager","from":"07:00","to":"23:00"},{"date":null,"label":"Lørdag","from":"07:00","to":"23:00"},{"date":null,"label":"Søndag","from":"","to":""}],"special":[],"today":{"date":"2021-02-06","label":"Dagens åpningstider","from":"07:00","to":"23:00"},"isopenlate":true,"isopenonsunday":false},"istrumfactivated":true,"loc":{"lon":10.0784,"lat":59.76385},"municipality":"DRAMMEN","county":"VIKEN","suggestion":["DRAMMEN","VIKEN","Kiwi 342 Solbergelva","3057","342","Solbergelva"]}},{"distance":1,"store":{"id":7080000028870,"chainid":1100,"name":"Kiwi 845 Kristiansund","link":"","description":"","location":{"latitude":63.1130412272,"longitude":7.72745485},"zipcode":"6509","zipcitycode":"KRISTIANSUND N","municipalitid":1505,"countyid":15,"regionname":"MØRE","services":"TRUMFBONUS, TIPPING","visitaddress":"President Christiesgate 19","phone":"71 67 71 35","fax":"71 67 07 06","email":"kiwi.kristiansund@kiwi.no","openinghours":{"days":[{"date":null,"label":"Hverdager","from":"07:00","to":"23:00"},{"date":null,"label":"Lørdag","from":"07:00","to":"23:00"},{"date":null,"label":"Søndag","from":"10:00","to":"23:00"}],"special":[],"today":{"date":"2021-02-06","label":"Dagens åpningstider","from":"07:00","to":"23:00"},"isopenlate":true,"isopenonsunday":true},"istrumfactivated":true,"loc":{"lon":7.72745485,"lat":63.1130412272},"municipality":"KRISTIANSUND","county":"MØRE OG ROMSDAL","suggestion":["KRISTIANSUND","MØRE OG ROMSDAL","Kiwi 845 Kristiansund","6509","845","Kristiansund"]}},{"distance":1,"store":{"id":7080001118600,"chainid":1100,"name":"Kiwi 108 Nordsia","link":"","description":"","location":{"latitude":64.0217926904,"longitude":11.4898125748},"zipcode":"7725","zipcitycode":"STEINKJER","municipalitid":5006,"countyid":50,"regionname":"Midt","services":"TRUMFBONUS, TIPPING","visitaddress":"Bomvegen 6","phone":"74 14 02 07","fax":"74 14 02 08","email":"kiwi.nordsia@kiwi.no","openinghours":{"days":[{"date":null,"label":"Hverdager","from":"07:00","to":"23:00"},{"date":null,"label":"Lørdag","from":"07:00","to":"23:00"},{"date":null,"label":"Søndag","from":"","to":""}],"special":[],"today":{"date":"2021-02-06","label":"Dagens åpningstider","from":"07:00","to":"23:00"},"isopenlate":true,"isopenonsunday":false},"istrumfactivated":true,"loc":{"lon":11.4898125748,"lat":64.0217926904},"municipality":"STEINKJER","county":"TRØNDELAG","suggestion":["STEINKJER","TRØNDELAG","Kiwi 108 Nordsia","7725","108","Nordsia"]}},