{"distance":1,"store":{"id":7080003413727,"chainid":1300,"name":"MENY Strømmen","link":"","description":"","location":{"latitude":59.9468695669,"longitude":11.0051606949},"zipcode":"2010","zipcitycode":"STRØMMEN","municipalitid":3030,"countyid":30,"regionname":"ØST","services":"TRUMFBONUS, TIPPING","visitaddress":"Stasjonsveien 8","phone":"64843200","fax":"64843201","email":"butikksjef.strommen@meny.no","openinghours":{"days":[{"date":null,"label":"Hverdager","from":"09:00","to":"21:00"},{"date":null,"label":"Lørdag","from":"09:00","to":"20:00"},{"date":null,"label":"Søndag","from":"","to":""}],"special":[],"today":{"date":"2021-02-06","label":"Dagens åpningstider","from":"09:00","to":"20:00"},"isopenlate":false,"isopenonsunday":false},"istrumfactivated":true,"loc":{"lon":11.0051606949,"lat":59.9468695669},"municipality":"LILLESTRØM","county":"VIKEN","suggestion":["LILLESTRØM","VIKEN","MENY Strømmen","2010","Strømmen"]}},{"distance":1,"store":{"id":7080003353795,"chainid":1300,"name":"Helgø MENY Tasta","link":"","description":"","location":{"latitude":58.9839936272,"longitude":5.691069846},"zipcode":"4027","zipcitycode":"STAVANGER","municipalitid":1103,"countyid":11,"regionname":"ROGALAND","services":"TRUMFBONUS, TIPPING","visitaddress":"Tastatunet 1-3","phone":"51853900","fax":"51853901","email":"butikksjef.tasta@helgomeny.no","openinghours":{"days":[{"date":null,"label":"Hverdager","from":"07:00","to":"21:00"},{"date":null,"label":"Lørdag","from":"09:00","to":"20:00"},{"date":null,"label":"Søndag","from":"","to":""}],"special":[],"today":{"date":"2021-02-06","label":"Dagens åpningstider","from":"09:00","to":"20:00"},"isopenlate":false,"isopenonsunday":false},"istrumfactivated":true,"loc":{"lon":5.691069846,"lat":58.9839936272},"municipality":"STAVANGER","county":"ROGALAND","suggestion":["STAVANGER","ROGALAND","Helgø MENY Tasta","4027","MENY","Tasta"]}},{"distance":1,"store":{"id":7080000264131,"chainid":1300,"name":"MENY Ski Storsenter","link":"","description":"","location":{"latitude":59.716418584,"longitude":10.8360305644},"zipcode":"1400","zipcitycode":"SKI","municipalitid":3020,"countyid":30,"regionname":"ØST","services":"TRUMFBONUS","visitaddress":"Jernbanesvingen 6","phone":"64859900","fax":"64872530","email":"butikksjef.skistorsenter@meny.no","openinghours":{"days":[{"date":null,"label":"Hverdager","from":"09:00","to":"21:00"},{"date":null,"label":"Lørdag","from":"09:00","to":"19:00"},{"date":null,"label":"Søndag","from":"","to":""}],"special":[],"today":{"date":"2021-02-06","label":"Dagens åpningstider","from":"09:00","to":"19:00"},"isopenlate":false,"isopenonsunday":false},"istrumfactivated":true,"loc":{"lon":10.8360305644,"lat":59.716418584},"municipality":"NORDRE FOLLO","county":"VIKEN","suggestion":["NORDRE FOLLO","VIKEN","MENY Ski Storsenter","1400","Ski","Storsenter"]}},{"distance":1,"store":{"id":7080003392190,"chainid":1300,"name":"MENY Lillesand","link":"","description":"","location":{"latitude":58.2609587543,"longitude":8.394423924},"zipcode":"4790","zipcitycode":"LILLESAND","municipalitid":4215,"countyid":42,"regionname":"SØR","services":"TRUMFBONUS, TIPPING","visitaddress":"Senterveien 10","phone":"37294500","fax":"37294501","email":"butikksjef.lillesand@meny.no","openinghours":{"days":[{"date":null,"label":"Hverdager","from":"07:00","to":"22:00"},{"date":null,"label":"Lørdag","from":"08:00","to":"20:00"},{"date":null,"label":"Søndag","from":"","to":""}],"special":[],"today":{"date":"2021-02-06","label":"Dagens åpningstider","from":"08:00","to":"20:00"},"isopenlate":false,"isopenonsunday":false},"istrumfactivated":true,"loc":{"lon":8.394423924,"lat":58.2609587543},"municipality":"LILLESAND","county":"AGDER","suggestion":["LILLESAND","AGDER","MENY Lillesand","4790","Lillesand"]}},{"distance":1,"store":{"id":7080000033195,"chainid":1300,"name":"MENY Colosseum","link":"","description":"","location":{"latitude":59.930733414,"longitude":10.7099598569},"zipcode":"0369","zipcitycode":"OSLO","municipalitid":301,"countyid":3,"regionname":"ØST","services":"TRUMFBONUS, TIPPING","visitaddress":"Sørkedalsv 10 B","phone":"22931630","fax":"22564455","email":"butikksjef.colosseum@meny.no","openinghours":{"days":[{"date":null,"label":"Hverdager","from":"08:00","to":"22:00"},{"date":null,"label":"Lørdag","from":"08:00","to":"20:00"},{"date":null,"label":"Søndag","from":"","to":""}],"special":[],"today":{"date":"2021-02-06","label":"Dagens åpningstider","from":"08:00","to":"20:00"},"isopenlate":false,"isopenonsunday":false},"istrumfactivated":true,"loc":{"lon":10.7099598569,"lat":59.930733414},"municipality":"OSLO","county":"OSLO","suggestion":["OSLO","OSLO","MENY Colosseum","0369","Colosseum"]}},{"distance":1,"store":{"id":7080001150495,"chainid":1300,"name":"MENY Sandvika Storsenter","link":"","description":"","location":{"latitude":59.8901097256,"longitude":10.5203629828},"zipcode":"1338","zipcitycode":"SANDVIKA","municipalitid":3024,"countyid":30,"regionname":"ØST","services":"TRUMFBONUS","visitaddress":"Brodtkorbsgate 7","phone":"67 52 15 00","fax":"67 56 64 90","email":"butikksjef.sandvikastorsenter@meny.no","openinghours":{"days":[{"date":null,"label":"Hverdager","from":"09:00","to":"21:00"},{"date":null,"label":"Lørdag","from":"09:00","to":"19:00"},{"date":null,"label":"Søndag","from":"","to":""}],"special":[],"today":{"date":"2021-02-06","label":"Dagens åpningstider","from":"09:00","to":"19:00"},"isopenlate":false,"isopenonsunday":false},"istrumfactivated":true,"loc":{"lon":10.5203629828,"lat":59.8901097256},"municipality":"BÆRUM","county":"VIKEN","suggestion":["BÆRUM","VIKEN","MENY Sandvika Storsenter","1338","Sandvika","Storsenter"]}},{"distance":1,"store":{"id":7080001150488,"chainid":1300,"name":"MENY Bryn","link":"","description":"","location":{"latitude":59.9034179712,"longitude":10.8211866226},"zipcode":"0667","zipcitycode":"OSLO","municipalitid":301,"countyid":3,"regionname":"ØST","services":"TRUMFBONUS","visitaddress":"Østensjøveien 79","phone":"22 75 79 00","fax":"22 75 79 70","email":"butikksjef.bryn@meny.no","openinghours":{"days":[{"date":null,"label":"Hverdager","from":"08:00","to":"22:00"},{"date":null,"label":"Lørdag","from":"09:00","to":"20:00"},{"date":null,"label":"Søndag","from":"","to":""}],"special":[],"today":{"date":"2021-02-06","label":"Dagens åpningstider","from":"09:00","to":"20:00"},"isopenlate":false,"isopenonsunday":false},"istrumfactivated":true,"loc":{"lon":10.8211866226,"lat":59.9034179712},"municipality":"OSLO","county":"OSLO","suggestion":["OSLO","OSLO","MENY Bryn","0667","Bryn"]}},{"distance":1,"store":{"id":7080000004119,"chainid":1300,"name":"MENY Revetal","link":"","description":"","location":{"latitude":59.3717416652,"longitude":10.2643063719},"zipcode":"3174","zipcitycode":"REVETAL","municipalitid":3803,"countyid":38,"regionname":"VESTRE ØSTLAND","services":"PIB, TRUMFBONUS","visitaddress":"Kåpeveien 5","phone":"33 06 11 10","fax":"33 06 28 10","email":"butikksjef.revetal@meny.no","openinghours":{"days":[{"date":null,"label":"Hverdager","from":"07:00","to":"21:00"},{"date":null,"label":"Lørdag","from":"07:00","to":"20:00"},{"date":null,"label":"Søndag","from":"","to":""}],"special":[],"today":{"date":"2021-02-06","label":"Dagens åpningstider","from":"07:00","to":"20:00"},"isopenlate":false,"isopenonsunday":false},"istrumfactivated":true,"loc":{"lon":10.2643063719,"lat":59.3717416652},"municipality":"TØNSBERG","county":"VESTFOLD OG TELEMARK","suggestion":["TØNSBERG","VESTFOLD OG TELEMARK","MENY Revetal","3174","Revetal"]}},{"distance":1,"store":{"id":7080001271923,"chainid":1300,"name":"MENY Bjølsen","link":"","description":"","location":{"latitude":59.9436925038,"longitude":10.7608303923},"zipcode":"0445","zipcitycode":"OSLO","municipalitid":301,"countyid":3,"regionname":"ØST","services":"PIB, TRUMFBONUS","visitaddress":"Moldegata 1","phone":"23008250","fax":null,"email":"butikksjef.bjolsen@meny.no","openinghours":{"days":[{"date":null,"label":"Hverdager","from":"08:00","to":"22:00"},{"date":null,"label":"Lørdag","from":"09:00","to":"20:00"},{"date":null,"label":"Søndag","from":"","to":""}],"special":[],"today":{"date":"2021-02-06","label":"Dagens åpningstider","from":"09:00","to":"20:00"},"isopenlate":false,"isopenonsunday":false},"istrumfactivated":true,"loc":{"lon":10.7608303923,"lat":59.9436925038},"municipality":"OSLO","county":"OSLO","suggestion":["OSLO","OSLO","MENY Bjølsen","0445","Bjølsen"]}},{"distance":1,"store":{"id":7080000543458,"chainid":1300,"name":"MENY Rykkinn","link":"","description":"","location":{"latitude":59.923987171,"longitude":10.4861573695},"zipcode":"1348","zipcitycode":"RYKKINN","municipalitid":3024,"countyid":30,"regionname":"ØST","services":"TRUMFBONUS, RIKSTOTO, TIPPING","visitaddress":"Muninsvei 1","phone":"67 15 39 60","fax":"67 15 39 78","email":"butikksjef.rykkinn@meny.no","openinghours":{"days":[{"date":null,"label":"Hverdager","from":"08:00","to":"22:00"},{"date":null,"label":"Lørdag","from":"08:00","to":"20:00"},{"date":null,"label":"Søndag","from":"","to":""}],"special":[],"today":{"date":"2021-02-06","label":"Dagens åpningstider","from":"08:00","to":"20:00"},"isopenlate":false,"isopenonsunday":false},"istrumfactivated":true,"loc":{"lon":10.4861573695,"lat":59.923987171},"municipality":"BÆRUM","county":"VIKEN","suggestion":["BÆRUM","VIKEN","MENY Rykkinn","1348","Rykkinn"]}},{"distance":1,"store":{"id":7080000886050,"chainid":1300,"name":"MENY Vollebekk","link":"","description":"","location":{"latitude":59.9364713156,"longitude":10.826957555},"zipcode":"0598","zipcitycode":"OSLO","municipalitid":301,"countyid":3,"regionname":"ØST","services":"PIB, TRUMFBONUS, TIPPING","visitaddress":"Brobekkveien 52","phone":"23 24 91 00","fax":"23 24 91 10","email":"butikksjef.vollebekk@meny.no","openinghours":{"days":[{"date":null,"label":"Hverdager","from":"08:00","to":"22:00"},{"date":null,"label":"Lørdag","from":"09:00","to":"20:00"},{"date":null,"label":"Søndag","from":"","to":""}],"special":[],"today":{"date":"2021-02-06","label":"Dagens åpningstider","from":"09:00","to":"20:00"},"isopenlate":false,"isopenonsunday":false},"istrumfactivated":true,"loc":{"lon":10.826957555,"lat":59.9364713156},"municipality":"OSLO","county":"OSLO","suggestion":["OSLO","OSLO","MENY Vollebekk","0598","Vollebekk"]}},{"distance":1,"store":{"id":7080001150426,"chainid":1300,"name":"MENY Solsiden","link":"","description":"","location":{"latitude":63.4351995761,"longitude":10.4109897944},"zipcode":"7042","zipcitycode":"TRONDHEIM","municipalitid":5001,"countyid":50,"regionname":"MIDT","services":"TRUMFBONUS","visitaddress":"Beddingen 12","phone":"73 83 14 50","fax":"73 83 14 30","email":"butikksjef.solsiden@meny.no","openinghours":{"days":[{"date":null,"label":"Hverdager","from":"08:00","to":"22:00"},{"date":null,"label":"Lørdag","from":"09:00","to":"20:00"},{"date":null,"label":"Søndag","from":"","to":""}],"special":[],"today":{"date":"2021-02-06","label":"Dagens åpningstider","from":"09:00","to":"20:00"},"isopenlate":false,"isopenonsunday":false},"istrumfactivated":true,"loc":{"lon":10.4109897944,"lat":63.4351995761},"municipality":"TRONDHEIM","county":"TRØNDELAG","suggestion":["TRONDHEIM","TRØNDELAG","MENY Solsiden","7042","Solsiden"]}},{"distance":1,"store":{"id":7080000005796,"chainid":1300,"name":"MENY Røa","link":"","description":"","location":{"latitude":59.9481393257,"longitude":10.6438624918},"zipcode":"0751","zipcitycode":"OSLO","municipalitid":301,"countyid":3,"regionname":"ØST","services":"PIB, TRUMFBONUS, TIPPING","visitaddress":"Vækerøv 205","phone":"23296900","fax":"22 52 30 10","email":"butikksjef.roa@meny.no","openinghours":{"days":[{"date":null,"label":"Hverdager","from":"08:00","to":"22:00"},{"date":null,"label":"Lørdag","from":"08:00","to":"20:00"},{"date":null,"label":"Søndag","from":"","to":""}],"special":[],"today":{"date":"2021-02-06","label":"Dagens åpningstider","from":"08:00","to":"20:00"},"isopenlate":false,"isopenonsunday":false},"istrumfactivated":true,"loc":{"lon":10.6438624918,"lat":59.9481393257},"municipality":"OSLO","county":"OSLO","suggestion":["OSLO","OSLO","MENY Røa","0751","Røa"]}},{"distance":1,"store":{"id":7080000946914,"chainid":1300,"name":"MENY Grim","link":"","description":"","location":{"latitude":58.1492581094,"longitude":7.9714232031},"zipcode":"4673","zipcitycode":"KRISTIANSAND S","municipalitid":4204,"countyid":42,"regionname":"SØR","services":"PIB, TRUMFBONUS, TIPPING","visitaddress":"Grims Torv 3","phone":"38179650","fax":"38179651","email":"butikksjef.grim@meny.no","openinghours":{"days":[{"date":null,"label":"Hverdager","from":"08:00","to":"22:00"},{"date":null,"label":"Lørdag","from":"08:00","to":"20:00"},{"date":null,"label":"Søndag","from":"","to":""}],"special":[],"today":{"date":"2021-02-06","label":"Dagens åpningstider","from":"08:00","to":"20:00"},"isopenlate":false,"isopenonsunday":false},"istrumfactivated":true,"loc":{"lon":7.9714232031,"lat":58.1492581094},"municipality":"KRISTIANSAND","county":"AGDER","suggestion":["KRISTIANSAND","AGDER","MENY Grim","4673","Grim"]}},{"distance":1,"store":{"id":7080001195120,"chainid":1300,"name":"MENY Farmandstredet","link":"","description":"","location":{"latitude":59.2692752503,"longitude":10.411763986},"zipcode":"3110","zipcitycode":"TØNSBERG","municipalitid":3803,"countyid":38,"regionname":"VESTRE ØSTLAND","services":"TRUMFBONUS","visitaddress":"Jernbanegt. 1D","phone":"33 01 86 00","fax":"33 01 86 01","email":"butikksjef.farmandstredet@meny.no","openinghours":{"days":[{"date":null,"label":"Hverdager","from":"09:00","to":"20:00"},{"date":null,"label":"Lørdag","from":"09:00","to":"18:00"},{"date":null,"label":"Søndag","from":"","to":""}],"special":[],"today":{"date":"2021-02-06","label":"Dagens åpningstider","from":"09:00","to":"18:00"},"isopenlate":false,"isopenonsunday":false},"istrumfactivated":true,"loc":{"lon":10.411763986,"lat":59.2692752503},"municipality":"TØNSBERG","county":"VESTFOLD OG TELEMARK","suggestion":["TØNSBERG","VESTFOLD OG TELEMARK","MENY Farmandstredet","3110","Farmandstredet"]}},{"distance":1,"store":{"id":7080000032075,"chainid":1300,"name":"MENY Tolvsrød","link":"","description":"","location":{"latitude":59.2729748501,"longitude":10.4633384791},"zipcode":"3151","zipcitycode":"TOLVSRØD","municipalitid":3803,"countyid":38,"regionname":"VESTRE ØSTLAND","services":"TRUMFBONUS, RIKSTOTO, TIPPING","visitaddress":"Valløveien 31","phone":"33 41 41 60","fax":"33 41 41 69","email":"butikksjef.tolvsrod@meny.no","openinghours":{"days":[{"date":null,"label":"Hverdager","from":"08:00","to":"22:00"},{"date":null,"label":"Lørdag","from":"08:00","to":"22:00"},{"date":null,"label":"Søndag","from":"","to":""}],"special":[],"today":{"date":"2021-02-06","label":"Dagens åpningstider","from":"08:00","to":"22:00"},"isopenlate":false,"isopenonsunday":false},"istrumfactivated":true,"loc":{"lon":10.4633384791,"lat":59.2729748501},"municipality":"TØNSBERG","county":"VESTFOLD OG TELEMARK","suggestion":["TØNSBERG","VESTFOLD OG TELEMARK","MENY Tolvsrød","3151","Tolvsrød"]}},{"distance":1,"store":{"id":7080001271985,"chainid":1300,"name":"MENY Harebakken","link":"","description":"","location":{"latitude":58.4743196785,"longitude":8.7470878381},"zipcode":"4846","zipcitycode":"ARENDAL","municipalitid":4203,"countyid":42,"regionname":"SØR","services":"TRUMFBONUS","visitaddress":"Langsæveien 5","phone":"37062100","fax":"37062101","email":"butikksjef.harebakken@meny.no","openinghours":{"days":[{"date":null,"label":"Hverdager","from":"09:00","to":"21:00"},{"date":null,"label":"Lørdag","from":"09:00","to":"19:00"},{"date":null,"label":"Søndag","from":"","to":""}],"special":[],"today":{"date":"2021-02-06","label":"Dagens åpningstider","from":"09:00","to":"19:00"},"isopenlate":false,"isopenonsunday":false},"istrumfactivated":true,"loc":{"lon":8.7470878381,"lat":58.4743196785},"municipality":"ARENDAL","county":"AGDER","suggestion":["ARENDAL","AGDER","MENY Harebakken","4846","Harebakken"]}},{"distance":1,"store":{"id":7080000033089,"chainid":1300,"name":"MENY Skjetten","link":"","description":"","location":{"latitude":59.9670600854,"longitude":10.9994784959},"zipcode":"2013","zipcitycode":"SKJETTEN","municipalitid":3030,"countyid":30,"regionname":"ØST","services":"PIB, TRUMFBONUS, TIPPING","visitaddress":"Skjettentorvet Nordensv 15","phone":"64834720","fax":"63 84 12 30","email":"butikksjef.skjetten@meny.no","openinghours":{"days":[{"date":null,"label":"Hverdager","from":"07:00","to":"22:00"},{"date":null,"label":"Lørdag","from":"08:00","to":"20:00"},{"date":null,"label":"Søndag","from":"","to":""}],"special":[],"today":{"date":"2021-02-06","label":"Dagens åpningstider","from":"08:00","to":"20:00"},"isopenlate":false,"isopenonsunday":false},"istrumfactivated":true,"loc":{"lon":10.9994784959,"lat":59.9670600854},"municipality":"LILLESTRØM","county":"VIKEN","suggestion":["LILLESTRØM","VIKEN","MENY Skjetten","2013","Skjetten"]}},{"distance":1,"store":{"id":7080001097783,"chainid":1300,"name":"MENY Stovner","link":"","description":"","location":{"latitude":59.9621559797,"longitude":10.9245185529},"zipcode":"0985","zipcitycode":"OSLO","municipalitid":301,"countyid":3,"regionname":"ØST","services":"TRUMFBONUS","visitaddress":"Stovner Senter 3","phone":"22 79 06 60","fax":"22 79 06 70","email":"butikksjef.stovner@meny.no","openinghours":{"days":[{"date":null,"label":"Hverdager","from":"08:00","to":"21:00"},{"date":null,"label":"Lørdag","from":"08:00","to":"19:00"},{"date":null,"label":"Søndag","from":"","to":""}],"special":[],"today":{"date":"2021-02-06","label":"Dagens åpningstider","from":"08:00","to":"19:00"},"isopenlate":false,"isopenonsunday":false},"istrumfactivated":true,"loc":{"lon":10.9245185529,"lat":59.9621559797},"municipality":"OSLO","county":"OSLO","suggestion":["OSLO","OSLO","MENY Stovner","0985","Stovner"]}},{"distance":1,"store":{"id":7080000001903,"chainid":1300,"name":"MENY Stokke","link":"","description":"","location":{"latitude":59.2225024357,"longitude":10.3076464703},"zipcode":"3160","zipcitycode":"STOKKE","municipalitid":3804,"countyid":38,"regionname":"VESTRE ØSTLAND","services":"PIB, TRUMFBONUS, TIPPING","visitaddress":"Johannes Sandviksv. 2","phone":"33 33 54 00","fax":"33 33 54 01","email":"butikksjef.stokke@meny.no","openinghours":{"days":[{"date":null,"label":"Hverdager","from":"09:00","to":"22:00"},{"date":null,"label":"Lørdag","from":"09:00","to":"20:00"},{"date":null,"label":"Søndag","from":"","to":""}],"special":[],"today":{"date":"2021-02-06","label":"Dagens åpningstider","from":"09:00","to":"20:00"},"isopenlate":false,"isopenonsunday":false},"istrumfactivated":true,"loc":{"lon":10.3076464703,"lat":59.2225024357},"municipality":"SANDEFJORD","county":"VESTFOLD OG TELEMARK","suggestion":["SANDEFJORD","VESTFOLD OG TELEMARK","MENY Stokke","3160","Stokke"]}},{"distance":1,"store":{"id":7080000002153,"chainid":1300,"name":"MENY Nøtterøy","link":"","description":"","location":{"latitude":59.2051914544,"longitude":10.4421628167},"zipcode":"3138","zipcitycode":"SKALLESTAD","municipalitid":3811,"countyid":38,"regionname":"VESTRE ØSTLAND","services":"PIB, TRUMFBONUS, TIPPING","visitaddress":"Skallestadveien 2","phone":"33 30 43 40","fax":"33 30 43 41","email":"butikksjef.notteroy@meny.no","openinghours":{"days":[{"date":null,"label":"Hverdager","from":"07:00","to":"22:00"},{"date":null,"label":"Lørdag","from":"08:00","to":"21:00"},{"date":null,"label":"Søndag","from":"","to":""}],"special":[],"today":{"date":"2021-02-06","label":"Dagens åpningstider","from":"08:00","to":"21:00"},"isopenlate":false,"isopenonsunday":false},"istrumfactivated":true,"loc":{"lon":10.4421628167,"lat":59.2051914544},"municipality":"FÆRDER","county":"VESTFOLD OG TELEMARK","suggestion":["FÆRDER","VESTFOLD OG TELEMARK","MENY Nøtterøy","3138","Nøtterøy"]}},{"distance":1,"store":{"id":7080001061883,"chainid":1300,"name":"MENY Heimdal","link":"","description":"","location":{"latitude":59.2744205586,"longitude":10.4253041877},"zipcode":"3117","zipcitycode":"TØNSBERG","municipalitid":3803,"countyid":38,"regionname":"VESTRE ØSTLAND","services":"TRUMFBONUS, RIKSTOTO, TIPPING","visitaddress":"Heimdalsveien 3","phone":"33 74 46 50","fax":"33 74 46 51","email":"butikksjef.heimdal@meny.no","openinghours":{"days":[{"date":null,"label":"Hverdager","from":"08:00","to":"23:00"},{"date":null,"label":"Lørdag","from":"08:00","to":"22:00"},{"date":null,"label":"Søndag","from":"","to":""}],"special":[],"today":{"date":"2021-02-06","label":"Dagens åpningstider","from":"08:00","to":"22:00"},"isopenlate":true,"isopenonsunday":false},"istrumfactivated":true,"loc":{"lon":10.4253041877,"lat":59.2744205586},"municipality":"TØNSBERG","county":"VESTFOLD OG TELEMARK","suggestion":["TØNSBERG","VESTFOLD OG TELEMARK","MENY Heimdal","3117","Heimdal"]}},{"distance":1,"store":{"id":7080001110628,"chainid":1300,"name":"MENY Haslesenteret","link":"","description":"","location":{"latitude":59.1389537456,"longitude":10.2427093459},"zipcode":"3228","zipcitycode":"SANDEFJORD","municipalitid":3804,"countyid":38,"regionname":"VESTRE ØSTLAND","services":"TRUMFBONUS, TIPPING","visitaddress":"Nedre Gokstadvei 27","phone":"33 44 93 00","fax":"33 48 41 99","email":"butikksjef.haslesenteret@meny.no","openinghours":{"days":[{"date":null,"label":"Hverdager","from":"08:00","to":"22:00"},{"date":null,"label":"Lørdag","from":"08:00","to":"20:00"},{"date":null,"label":"Søndag","from":"","to":""}],"special":[],"today":{"date":"2021-02-06","label":"Dagens åpningstider","from":"08:00","to":"20:00"},"isopenlate":false,"isopenonsunday":false},"istrumfactivated":true,"loc":{"lon":10.2427093459,"lat":59.1389537456},"municipality":"SANDEFJORD","county":"VESTFOLD OG TELEMARK","suggestion":["SANDEFJORD","VESTFOLD OG TELEMARK","MENY Haslesenteret","3228","Haslesenteret"]}},{"distance":1,"store":{"id":7080001233617,"chainid":1300,"name":"MENY Vågsbygd","link":"","description":"","location":{"latitude":58.1113833285,"longitude":7.9527956005},"zipcode":"4624","zipcitycode":"KRISTIANSAND S","municipalitid":4204,"countyid":42,"regionname":"SØR","services":"PIB, TRUMFBONUS, TIPPING","visitaddress":"Sagmyra 7","phone":"38001010","fax":"381 19780","email":"butikksjef.vagsbygd@meny.no","openinghours":{"days":[{"date":null,"label":"Hverdager","from":"08:00","to":"22:00"},{"date":null,"label":"Lørdag","from":"08:00","to":"20:00"},{"date":null,"label":"Søndag","from":"","to":""}],"special":[],"today":{"date":"2021-02-06","label":"Dagens åpningstider","from":"08:00","to":"20:00"},"isopenlate":false,"isopenonsunday":false},"istrumfactivated":true,"loc":{"lon":7.9527956005,"lat":58.1113833285},"municipality":"KRISTIANSAND","county":"AGDER","suggestion":["KRISTIANSAND","AGDER","MENY Vågsbygd","4624","Vågsbygd"]}},{"distance":1,"store":{"id":7080000909865,"chainid":1300,"name":"MENY Jessheim","link":"","description":"","location":{"latitude":60.1430666531,"longitude":11.1725338751},"zipcode":"2050","zipcitycode":"JESSHEIM","municipalitid":3033,"countyid":30,"regionname":"ØST","services":"TRUMFBONUS","visitaddress":"Furusethgate 5","phone":"63 98 69 20","fax":"63 97 38 94","email":"butikksjef.jessheim@meny.no","openinghours":{"days":[{"date":null,"label":"Hverdager","from":"09:00","to":"21:00"},{"date":null,"label":"Lørdag","from":"09:00","to":"19:00"},{"date":null,"label":"Søndag","from":"","to":""}],"special":[],"today":{"date":"2021-02-06","label":"Dagens åpningstider","from":"09:00","to":"19:00"},"isopenlate":false,"isopenonsunday":false},"istrumfactivated":true,"loc":{"lon":11.1725338751,"lat":60.1430666531},"municipality":"ULLENSAKER","county":"VIKEN","suggestion":["ULLENSAKER","VIKEN","MENY Jessheim","2050","Jessheim"]}},{"distance":1,"store":{"id":7080001271947,"chainid":1300,"name":"MENY Moholt","link":"","description":"","location":{"latitude":63.4095892436,"longitude":10.4432179232},"zipcode":"7049","zipcitycode":"TRONDHEIM","municipalitid":5001,"countyid":50,"regionname":"MIDT","services":"TRUMFBONUS, RIKSTOTO, TIPPING","visitaddress":"Vegamot 8","phone":"73820200","fax":"73820201","email":"butikksjef.moholt@meny.no","openinghours":{"days":[{"date":null,"label":"Hverdager","from":"08:00","to":"22:00"},{"date":null,"label":"Lørdag","from":"08:00","to":"20:00"},{"date":null,"label":"Søndag","from":"","to":""}],"special":[],"today":{"date":"2021-02-06","label":"Dagens åpningstider","from":"08:00","to":"20:00"},"isopenlate":false,"isopenonsunday":false},"istrumfactivated":true,"loc":{"lon":10.4432179232,"lat":63.4095892436},"municipality":"TRONDHEIM","county":"TRØNDELAG","suggestion":["TRONDHEIM","TRØNDELAG","MENY Moholt","7049","Moholt"]}},{"distance":1,"store":{"id":7080000029426,"chainid":1300,"name":"MENY Åsane","link":"","description":"","location":{"latitude":59.0904372699,"longitude":10.2127642427},"zipcode":"3231","zipcitycode":"SANDEFJORD","municipalitid":3804,"countyid":38,"regionname":"VESTRE ØSTLAND","services":"TRUMFBONUS, TIPPING","visitaddress":"Hystadveien 290","phone":"33454900","fax":"33 45 84 30","email":"butikksjef.asane@meny.no","openinghours":{"days":[{"date":null,"label":"Hverdager","from":"08:00","to":"22:00"},{"date":null,"label":"Lørdag","from":"08:00","to":"20:00"},{"date":null,"label":"Søndag","from":"","to":""}],"special":[],"today":{"date":"2021-02-06","label":"Dagens åpningstider","from":"08:00","to":"20:00"},"isopenlate":false,"isopenonsunday":false},"istrumfactivated":true,"loc":{"lon":10.2127642427,"lat":59.0904372699},"municipality":"SANDEFJORD","county":"VESTFOLD OG TELEMARK","suggestion":["SANDEFJORD","VESTFOLD OG TELEMARK","MENY Åsane","3231","Åsane"]}},{"distance":1,"store":{"id":7080003413642,"chainid":1300,"name":"MENY Åsane Storsenter","link":"","description":"","location":{"latitude":60.4653192186,"longitude":5.3220255342},"zipcode":"5116","zipcitycode":"ULSET","municipalitid":4601,"countyid":46,"regionname":"VEST","services":"PIB, TRUMFBONUS, RIKSTOTO, TIPPING","visitaddress":"Åsane Senter 21","phone":"55253250","fax":"55253251","email":"butikksjef.asanestorsenter@meny.no","openinghours":{"days":[{"date":null,"label":"Hverdager","from":"08:00","to":"22:00"},{"date":null,"label":"Lørdag","from":"09:00","to":"20:00"},{"date":null,"label":"Søndag","from":"10:00","to":"22:00"}],"special":[],"today":{"date":"2021-02-06","label":"Dagens åpningstider","from":"09:00","to":"20:00"},"isopenlate":false,"isopenonsunday":true},"istrumfactivated":true,"loc":{"lon":5.3220255342,"lat":60.4653192186},"municipality":"BERGEN","county":"VESTLAND","suggestion":["BERGEN","VESTLAND","MENY Åsane Storsenter","5116","Åsane","Storsenter"]}},{"distance":1,"store":{"id":7080001061869,"chainid":1300,"name":"MENY Konnerud","link":"","description":"","location":{"latitude":59.7175384629,"longitude":10.1496114131},"zipcode":"3032","zipcitycode":"DRAMMEN","municipalitid":3005,"countyid":30,"regionname":"VESTRE ØSTLAND","services":"TRUMFBONUS, RIKSTOTO, TIPPING","visitaddress":"Pettersvolden 3","phone":"32 88 86 60","fax":"32888661","email":"butikksjef.konnerud@meny.no","openinghours":{"days":[{"date":null,"label":"Hverdager","from":"08:00","to":"23:00"},{"date":null,"label":"Lørdag","from":"08:00","to":"20:00"},{"date":null,"label":"Søndag","from":"","to":""}],"special":[],"today":{"date":"2021-02-06","label":"Dagens åpningstider","from":"08:00","to":"20:00"},"isopenlate":true,"isopenonsunday":false},"istrumfactivated":true,"loc":{"lon":10.1496114131,"lat":59.7175384629},"municipality":"DRAMMEN","county":"VIKEN","suggestion":["DRAMMEN","VIKEN","MENY Konnerud","3032","Konnerud"]}},{"distance":1,"store":{"id":7080000003280,"chainid":1300,"name":"MENY Tveita","link":"","description":"","location":{"latitude":59.9138356632,"longitude":10.8418970326},"zipcode":"0671","zipcitycode":"OSLO","municipalitid":301,"countyid":3,"regionname":"ØST","services":"TRUMFBONUS","visitaddress":"Tvetenv 150","phone":"22 75 87 20","fax":"22271711","email":"butikksjef.tveita@meny.no","openinghours":{"days":[{"date":null,"label":"Hverdager","from":"08:00","to":"21:00"},{"date":null,"label":"Lørdag","from":"09:00","to":"19:00"},{"date":null,"label":"Søndag","from":"","to":""}],"special":[],"today":{"date":"2021-02-06","label":"Dagens åpningstider","from":"09:00","to":"19:00"},"isopenlate":false,"isopenonsunday":false},"istrumfactivated":true,"loc":{"lon":10.8418970326,"lat":59.9138356632},"municipality":"OSLO","county":"OSLO","suggestion":["OSLO","OSLO","MENY Tveita","0671","Tveita"]}},{"distance":1,"store":{"id":7080000062881,"chainid":1300,"name":"MENY CC Vest","link":"","description":"","location":{"latitude":59.9176585651,"longitude":10.6363576784},"zipcode":"0283","zipcitycode":"OSLO","municipalitid":301,"countyid":3,"regionname":"ØST","services":"TRUMFBONUS","visitaddress":"Lilleakerv 16","phone":"22 06 27 00","fax":"22 06 27 19","email":"ccvest@meny.no","openinghours":{"days":[{"date":null,"label":"Hverdager","from":"09:00","to":"21:00"},{"date":null,"label":"Lørdag","from":"09:00","to":"19:00"},{"date":null,"label":"Søndag","from":"","to":""}],"special":[],"today":{"date":"2021-02-06","label":"Dagens åpningstider","from":"09:00","to":"19:00"},"isopenlate":false,"isopenonsunday":false},"istrumfactivated":true,"loc":{"lon":10.6363576784,"lat":59.9176585651},"municipality":"OSLO","county":"OSLO","suggestion":["OSLO","OSLO","MENY CC Vest","0283","CC","Vest"]}},{"distance":1,"store":{"id":7080000748273,"chainid":1300,"name":"MENY Indre Havn","link":"","description":"","location":{"latitude":59.1278307733,"longitude":10.2413502301},"zipcode":"3217","zipcitycode":"SANDEFJORD","municipalitid":3804,"countyid":38,"regionname":"VESTRE ØSTLAND","services":"PIB, TRUMFBONUS, RIKSTOTO, TIPPING","visitaddress":"Kilgata 25","phone":"33 48 27 50","fax":"33 48 27 60","email":"butikksjef.indrehavn@meny.no","openinghours":{"days":[{"date":null,"label":"Hverdager","from":"07:00","to":"22:00"},{"date":null,"label":"Lørdag","from":"07:00","to":"20:00"},{"date":null,"label":"Søndag","from":"","to":""}],"special":[],"today":{"date":"2021-02-06","label":"Dagens åpningstider","from":"07:00","to":"20:00"},"isopenlate":false,"isopenonsunday":false},"istrumfactivated":true,"loc":{"lon":10.2413502301,"lat":59.1278307733},"municipality":"SANDEFJORD","county":"VESTFOLD OG TELEMARK","suggestion":["SANDEFJORD","VESTFOLD OG TELEMARK","MENY Indre Havn","3217","Indre","Havn"]}},{"distance":1,"store":{"id":7080001008482,"chainid":1300,"name":"MENY Tangen","link":"","description":"","location":{"latitude":59.8559351965,"longitude":10.6608193716},"zipcode":"1450","zipcitycode":"NESODDTANGEN","municipalitid":3023,"countyid":30,"regionname":"ØST","services":"TRUMFBONUS, TIPPING","visitaddress":"Vestveien 51","phone":"66965100","fax":"66965101","email":"butikksjef.tangen@meny.no","openinghours":{"days":[{"date":null,"label":"Hverdager","from":"08:00","to":"21:00"},{"date":null,"label":"Lørdag","from":"09:00","to":"20:00"},{"date":null,"label":"Søndag","from":"","to":""}],"special":[],"today":{"date":"2021-02-06","label":"Dagens åpningstider","from":"09:00","to":"20:00"},"isopenlate":false,"isopenonsunday":false},"istrumfactivated":true,"loc":{"lon":10.6608193716,"lat":59.8559351965},"municipality":"NESODDEN","county":"VIKEN","suggestion":["NESODDEN","VIKEN","MENY Tangen","1450","Tangen"]}},{"distance":1,"store":{"id":7080001007157,"chainid":1300,"name":"MENY Øya Larvik","link":"","description":"","location":{"latitude":59.0442838315,"longitude":10.061141084},"zipcode":"3262","zipcitycode":"LARVIK","municipalitid":3805,"countyid":38,"regionname":"VESTRE ØSTLAND","services":"TRUMFBONUS, TIPPING","visitaddress":"Tjøllingveien 45","phone":"33 14 01 00","fax":"33 14 01 01","email":"butikksjef.oyalarvik@meny.no","openinghours":{"days":[{"date":null,"label":"Hverdager","from":"08:00","to":"22:00"},{"date":null,"label":"Lørdag","from":"08:00","to":"22:00"},{"date":null,"label":"Søndag","from":"10:00","to":"18:00"}],"special":[],"today":{"date":"2021-02-06","label":"Dagens åpningstider","from":"08:00","to":"22:00"},"isopenlate":false,"isopenonsunday":true},"istrumfactivated":true,"loc":{"lon":10.061141084,"lat":59.0442838315},"municipality":"LARVIK","county":"VESTFOLD OG TELEMARK","suggestion":["LARVIK","VESTFOLD OG TELEMARK","MENY Øya Larvik","3262","Øya","Larvik"]}},{"distance":1,"store":{"id":7080000068685,"chainid":1300,"name":"Eide Handel","link":"","description":"","location":{"latitude":69.6774215925,"longitude":18.7458751767},"zipcode":"9107","zipcitycode":"KVALØYA","municipalitid":5401,"countyid":54,"regionname":"NORD","services":"TIPPING","visitaddress":"Fjordveien 14","phone":"77 66 56 50","fax":"77 66 56 59","email":"faktura@eidehandel.no","openinghours":{"days":[{"date":null,"label":"Hverdager","from":"06:00","to":"23:00"},{"date":null,"label":"Lørdag","from":"07:00","to":"22:00"},{"date":null,"label":"Søndag","from":"","to":""}],"special":[],"today":{"date":"2021-02-06","label":"Dagens åpningstider","from":"07:00","to":"22:00"},"isopenlate":true,"isopenonsunday":false},"istrumfactivated":false,"loc":{"lon":18.7458751767,"lat":69.6774215925},"municipality":"TROMSØ","county":"TROMS OG FINNMARK","suggestion":["TROMSØ","TROMS OG FINNMARK","Eide Handel","9107","Handel"]}},{"distance":1,"store":{"id":7080000365944,"chainid":1300,"name":"MENY Begby","link":"","description":"","location":{"latitude":59.2173014155,"longitude":11.0084393065},"zipcode":"1639","zipcitycode":"GAMLE FREDRIKSTAD","municipalitid":3004,"countyid":30,"regionname":"ØST","services":"PIB, TRUMFBONUS, RIKSTOTO, TIPPING","visitaddress":"Olav Kyrresvei 2","phone":"69949950","fax":"69949951","email":"butikksjef.begby@meny.no","openinghours":{"days":[{"date":null,"label":"Hverdager","from":"08:00","to":"21:00"},{"date":null,"label":"Lørdag","from":"08:00","to":"20:00"},{"date":null,"label":"Søndag","from":"","to":""}],"special":[],"today":{"date":"2021-02-06","label":"Dagens åpningstider","from":"08:00","to":"20:00"},"isopenlate":false,"isopenonsunday":false},"istrumfactivated":true,"loc":{"lon":11.0084393065,"lat":59.2173014155},"municipality":"FREDRIKSTAD","county":"VIKEN","suggestion":["FREDRIKSTAD","VIKEN","MENY Begby","1639","Begby"]}},{"distance":1,"store":{"id":7080001149772,"chainid":1300,"name":"MENY Fritzøe Brygge","link":"","description":"","location":{"latitude":59.0501830451,"longitude":10.0214186239},"zipcode":"3264","zipcitycode":"LARVIK","municipalitid":3805,"countyid":38,"regionname":"VESTRE ØSTLAND","services":"PIB, TRUMFBONUS, RIKSTOTO, TIPPING","visitaddress":"Stavernsveien 1","phone":"33 15 67 00","fax":"33156701","email":"butikksjef.fritzoebrygge@meny.no","openinghours":{"days":[{"date":null,"label":"Hverdager","from":"08:00","to":"20:00"},{"date":null,"label":"Lørdag","from":"08:00","to":"18:00"},{"date":null,"label":"Søndag","from":"","to":""}],"special":[],"today":{"date":"2021-02-06","label":"Dagens åpningstider","from":"08:00","to":"18:00"},"isopenlate":false,"isopenonsunday":false},"istrumfactivated":true,"loc":{"lon":10.0214186239,"lat":59.0501830451},"municipality":"LARVIK","county":"VESTFOLD OG TELEMARK","suggestion":["LARVIK","VESTFOLD OG TELEMARK","MENY Fritzøe Brygge","3264","Fritzøe","Brygge"]}},{"distance":1,"store":{"id":7080001061906,"chainid":1300,"name":"MENY Herkules","link":"","description":"","location":{"latitude":59.1965645308,"longitude":9.6034579365},"zipcode":"3730","zipcitycode":"SKIEN","municipalitid":3807,"countyid":38,"regionname":"VESTRE ØSTLAND","services":"TRUMFBONUS, TIPPING","visitaddress":"Ulefossveien 32 b","phone":"35 58 41 00","fax":"35 58 41 01","email":"butikksjef.herkules@meny.no","openinghours":{"days":[{"date":null,"label":"Hverdager","from":"09:00","to":"20:00"},{"date":null,"label":"Lørdag","from":"09:00","to":"18:00"},{"date":null,"label":"Søndag","from":"","to":""}],"special":[],"today":{"date":"2021-02-06","label":"Dagens åpningstider","from":"09:00","to":"18:00"},"isopenlate":false,"isopenonsunday":false},"istrumfactivated":true,"loc":{"lon":9.6034579365,"lat":59.1965645308},"municipality":"SKIEN","county":"VESTFOLD OG TELEMARK","suggestion":["SKIEN","VESTFOLD OG TELEMARK","MENY Herkules","3730","Herkules"]}},{"distance":1,"store":{"id":7080003465504,"chainid":1300,"name":"MENY Nordbyveien","link":"","description":"","location":{"latitude":59.7203207423,"longitude":10.816254895},"zipcode":"1406","zipcitycode":"SKI","municipalitid":3020,"countyid":30,"regionname":"ØST","services":"TRUMFBONUS, TIPPING","visitaddress":"Nordbyveien 41","phone":"64854300","fax":"0","email":"butikksjef.nordbyveien@meny.no","openinghours":{"days":[{"date":null,"label":"Hverdager","from":"08:00","to":"21:00"},{"date":null,"label":"Lørdag","from":"09:00","to":"20:00"},{"date":null,"label":"Søndag","from":"","to":""}],"special":[],"today":{"date":"2021-02-06","label":"Dagens åpningstider","from":"09:00","to":"20:00"},"isopenlate":false,"isopenonsunday":false},"istrumfactivated":true,"loc":{"lon":10.816254895,"lat":59.7203207423},"municipality":"NORDRE FOLLO","county":"VIKEN","suggestion":["NORDRE FOLLO","VIKEN","MENY Nordbyveien","1406","Nordbyveien"]}},{"distance":1,"store":{"id":7080001084554,"chainid":1300,"name":"MENY Hovenga","link":"","description":"","location":{"latitude":59.1497528487,"longitude":9.6639267817},"zipcode":"3915","zipcitycode":"PORSGRUNN","municipalitid":3806,"countyid":38,"regionname":"VESTRE ØSTLAND","services":"TRUMFBONUS, RIKSTOTO, TIPPING","visitaddress":"Augestadveien7","phone":"35 56 29 00","fax":"35562901","email":"butikksjef.hovenga@meny.no","openinghours":{"days":[{"date":null,"label":"Hverdager","from":"08:00","to":"22:00"},{"date":null,"label":"Lørdag","from":"09:00","to":"20:00"},{"date":null,"label":"Søndag","from":"","to":""}],"special":[],"today":{"date":"2021-02-06","label":"Dagens åpningstider","from":"09:00","to":"20:00"},"isopenlate":false,"isopenonsunday":false},"istrumfactivated":true,"loc":{"lon":9.6639267817,"lat":59.1497528487},"municipality":"PORSGRUNN","county":"VESTFOLD OG TELEMARK","suggestion":["PORSGRUNN","VESTFOLD OG TELEMARK","MENY Hovenga","3915","Hovenga"]}},{"distance":1,"store":{"id":7080003262981,"chainid":1300,"name":"MENY Knarvik","link":"","description":"","location":{"latitude":60.5470437094,"longitude":5.2861695425},"zipcode":"5914","zipcitycode":"ISDALSTØ","municipalitid":4631,"countyid":46,"regionname":"VEST","services":"PIB, TRUMFBONUS, RIKSTOTO, TIPPING","visitaddress":"Kvernhusmyrane 7A","phone":"56357400","fax":"55357401","email":"butikksjef.knarvik@meny.no","openinghours":{"days":[{"date":null,"label":"Hverdager","from":"07:00","to":"22:00"},{"date":null,"label":"Lørdag","from":"09:00","to":"20:00"},{"date":null,"label":"Søndag","from":"10:00","to":"21:00"}],"special":[],"today":{"date":"2021-02-06","label":"Dagens åpningstider","from":"09:00","to":"20:00"},"isopenlate":false,"isopenonsunday":true},"istrumfactivated":true,"loc":{"lon":5.2861695425,"lat":60.5470437094},"municipality":"ALVER","county":"VESTLAND","suggestion":["ALVER","VESTLAND","MENY Knarvik","5914","Knarvik"]}},{"distance":1,"store":{"id":7080000543441,"chainid":1300,"name":"MENY Manglerud","link":"","description":"","location":{"latitude":59.8972801147,"longitude":10.8128584217},"zipcode":"0679","zipcitycode":"OSLO","municipalitid":301,"countyid":3,"regionname":"ØST","services":"TRUMFBONUS, TIPPING","visitaddress":" Manglerud Senter Plogveien6","phone":"22 75 77 00","fax":"22 75 77 01","email":"butikksjef.manglerud@meny.no","openinghours":{"days":[{"date":null,"label":"Hverdager","from":"08:00","to":"21:00"},{"date":null,"label":"Lørdag","from":"09:00","to":"19:00"},{"date":null,"label":"Søndag","from":"","to":""}],"special":[],"today":{"date":"2021-02-06","label":"Dagens åpningstider","from":"09:00","to":"19:00"},"isopenlate":false,"isopenonsunday":false},"istrumfactivated":true,"loc":{"lon":10.8128584217,"lat":59.8972801147},"municipality":"OSLO","county":"OSLO","suggestion":["OSLO","OSLO","MENY Manglerud","0679","Manglerud"]}},{"distance":1,"store":{"id":7080001096458,"chainid":1300,"name":"Helgø MENY Stadionparken","link":"","description":"","location":{"latitude":58.9149129492,"longitude":5.7293505076},"zipcode":"4020","zipcitycode":"STAVANGER","municipalitid":1103,"countyid":11,"regionname":"ROGALAND","services":"TRUMFBONUS, TIPPING","visitaddress":"Jåttåvågveien 7","phone":"52 87 05 00","fax":"52870505","email":"butikksjef.stadionparken@helgomeny.no","openinghours":{"days":[{"date":null,"label":"Hverdager","from":"07:00","to":"21:00"},{"date":null,"label":"Lørdag","from":"09:00","to":"19:00"},{"date":null,"label":"Søndag","from":"","to":""}],"special":[],"today":{"date":"2021-02-06","label":"Dagens åpningstider","from":"09:00","to":"19:00"},"isopenlate":false,"isopenonsunday":false},"istrumfactivated":true,"loc":{"lon":5.7293505076,"lat":58.9149129492},"municipality":"STAVANGER","county":"ROGALAND","suggestion":["STAVANGER","ROGALAND","Helgø MENY Stadionparken","4020","MENY","Stadionparken"]}},{"distance":1,"store":{"id":7080000027293,"chainid":1300,"name":"MENY Aksdal","link":"","description":"","location":{"latitude":59.4220157939,"longitude":5.4444173803},"zipcode":"5575","zipcitycode":"AKSDAL","municipalitid":1146,"countyid":11,"regionname":"ROGALAND","services":"PIB, TRUMFBONUS, TIPPING","visitaddress":"Aksdal senter","phone":"52 75 49 49","fax":"52 75 49 69","email":"butikksjef.aksdal@meny.no","openinghours":{"days":[{"date":null,"label":"Hverdager","from":"07:00","to":"22:00"},{"date":null,"label":"Lørdag","from":"07:00","to":"20:00"},{"date":null,"label":"Søndag","from":"","to":""}],"special":[],"today":{"date":"2021-02-06","label":"Dagens åpningstider","from":"07:00","to":"20:00"},"isopenlate":false,"isopenonsunday":false},"istrumfactivated":true,"loc":{"lon":5.4444173803,"lat":59.4220157939},"municipality":"TYSVÆR","county":"ROGALAND","suggestion":["TYSVÆR","ROGALAND","MENY Aksdal","5575","Aksdal"]}},{"distance":1,"store":{"id":7080000358946,"chainid":1300,"name":"MENY Bekkestua","link":"","description":"","location":{"latitude":59.9163663355,"longitude":10.5880469455},"zipcode":"1357","zipcitycode":"BEKKESTUA","municipalitid":3024,"countyid":30,"regionname":"ØST","services":"TRUMFBONUS, TIPPING","visitaddress":"Bekkestua Senter, Gamle ringeriksvei 34","phone":"67 11 87 20","fax":"67 12 13 62","email":"butikksjef.bekkestua@meny.no","openinghours":{"days":[{"date":null,"label":"Hverdager","from":"08:00","to":"22:00"},{"date":null,"label":"Lørdag","from":"08:00","to":"20:00"},{"date":null,"label":"Søndag","from":"","to":""}],"special":[],"today":{"date":"2021-02-06","label":"Dagens åpningstider","from":"08:00","to":"20:00"},"isopenlate":false,"isopenonsunday":false},"istrumfactivated":true,"loc":{"lon":10.5880469455,"lat":59.9163663355},"municipality":"BÆRUM","county":"VIKEN","suggestion":["BÆRUM","VIKEN","MENY Bekkestua","1357","Bekkestua"]}},{"distance":1,"store":{"id":7080001409920,"chainid":1300,"name":"MENY Vennesla","link":"","description":"","location":{"latitude":58.2717321656,"longitude":7.9694530569},"zipcode":"4700","zipcitycode":"VENNESLA","municipalitid":4223,"countyid":42,"regionname":"SØR","services":"TRUMFBONUS, TIPPING","visitaddress":"Sentrumsvegen 63","phone":"38150300","fax":null,"email":"butikksjef.vennesla@meny.no","openinghours":{"days":[{"date":null,"label":"Hverdager","from":"08:00","to":"22:00"},{"date":null,"label":"Lørdag","from":"08:00","to":"20:00"},{"date":null,"label":"Søndag","from":"","to":""}],"special":[],"today":{"date":"2021-02-06","label":"Dagens åpningstider","from":"08:00","to":"20:00"},"isopenlate":false,"isopenonsunday":false},"istrumfactivated":true,"loc":{"lon":7.9694530569,"lat":58.2717321656},"municipality":"VENNESLA","county":"AGDER","suggestion":["VENNESLA","AGDER","MENY Vennesla","4700","Vennesla"]}},{"distance":1,"store":{"id":7080000029808,"chainid":1300,"name":"MENY Lagunen","link":"","description":"","location":{"latitude":60.29686469,"longitude":5.3311060394},"zipcode":"5239","zipcitycode":"RÅDAL","municipalitid":4601,"countyid":46,"regionname":"VEST","services":"TRUMFBONUS, TIPPING","visitaddress":"Laguneveien 1","phone":"55 10 66 00","fax":"55 10 66 01","email":"butikksjef.lagunen@meny.no","openinghours":{"days":[{"date":null,"label":"Hverdager","from":"09:00","to":"22:00"},{"date":null,"label":"Lørdag","from":"09:00","to":"20:00"},{"date":null,"label":"Søndag","from":"","to":""}],"special":[],"today":{"date":"2021-02-06","label":"Dagens åpningstider","from":"09:00","to":"20:00"},"isopenlate":false,"isopenonsunday":false},"istrumfactivated":true,"loc":{"lon":5.3311060394,"lat":60.29686469},"municipality":"BERGEN","county":"VESTLAND","suggestion":["BERGEN","VESTLAND","MENY Lagunen","5239","Lagunen"]}},{"distance":1,"store":{"id":7080000584130,"chainid":1300,"name":"MENY Støletorget","link":"","description":"","location":{"latitude":60.3997540928,"longitude":5.3255637953},"zipcode":"5003","zipcitycode":"BERGEN","municipalitid":4601,"countyid":46,"regionname":"VEST","services":"PIB, TRUMFBONUS, TIPPING","visitaddress":"Stølegaten 15","phone":"55544880","fax":"55544890","email":"butikksjef.stoletorget@meny.no","openinghours":{"days":[{"date":null,"label":"Hverdager","from":"08:00","to":"21:00"},{"date":null,"label":"Lørdag","from":"08:00","to":"20:00"},{"date":null,"label":"Søndag","from":"","to":""}],"special":[],"today":{"date":"2021-02-06","label":"Dagens åpningstider","from":"08:00","to":"20:00"},"isopenlate":false,"isopenonsunday":false},"istrumfactivated":true,"loc":{"lon":5.3255637953,"lat":60.3997540928},"municipality":"BERGEN","county":"VESTLAND","suggestion":["BERGEN","VESTLAND","MENY Støletorget","5003","Støletorget"]}},{"distance":1,"store":{"id":7080003568366,"chainid":1300,"name":"MENY Rona","link":"","description":"","location":{"latitude":58.1604747223,"longitude":8.0822221076},"zipcode":"4638","zipcitycode":"KRISTIANSAND S","municipalitid":4204,"countyid":42,"regionname":"SØR","services":"TRUMFBONUS, TIPPING","visitaddress":"Gamle Strømmevei 3","phone":"38179600","fax":null,"email":"butikksjef.rona@meny.no","openinghours":{"days":[{"date":null,"label":"Hverdager","from":"08:00","to":"22:00"},{"date":null,"label":"Lørdag","from":"08:00","to":"20:00"},{"date":null,"label":"Søndag","from":"","to":""}],"special":[],"today":{"date":"2021-02-06","label":"Dagens åpningstider","from":"08:00","to":"20:00"},"isopenlate":false,"isopenonsunday":false},"istrumfactivated":true,"loc":{"lon":8.0822221076,"lat":58.1604747223},"municipality":"KRISTIANSAND","county":"AGDER","suggestion":["KRISTIANSAND","AGDER","MENY Rona","4638","Rona"]}},{"distance":1,"store":{"id":7080000891672,"chainid":1300,"name":"MENY Midtun","link":"","description":"","location":{"latitude":60.3256929792,"longitude":5.3675566988},"zipcode":"5224","zipcitycode":"NESTTUN","municipalitid":4601,"countyid":46,"regionname":"VEST","services":"PIB, TRUMFBONUS, TIPPING","visitaddress":"Sandbrekkevn.96","phone":"55927660","fax":"55927661","email":"butikksjef.midtun@meny.no","openinghours":{"days":[{"date":null,"label":"Hverdager","from":"08:00","to":"22:00"},{"date":null,"label":"Lørdag","from":"08:00","to":"20:00"},{"date":null,"label":"Søndag","from":"","to":""}],"special":[],"today":{"date":"2021-02-06","label":"Dagens åpningstider","from":"08:00","to":"20:00"},"isopenlate":false,"isopenonsunday":false},"istrumfactivated":true,"loc":{"lon":5.3675566988,"lat":60.3256929792},"municipality":"BERGEN","county":"VESTLAND","suggestion":["BERGEN","VESTLAND","MENY Midtun","5224","Midtun"]}},{"distance":1,"store":{"id":7080001100063,"chainid":1300,"name":"MENY Stavern","link":"","description":"","location":{"latitude":59.0007743486,"longitude":10.0346496723},"zipcode":"3290","zipcitycode":"STAVERN","municipalitid":3805,"countyid":38,"regionname":"VESTRE ØSTLAND","services":"PIB, TRUMFBONUS, RIKSTOTO, TIPPING","visitaddress":"Kommandør Herbstg 12","phone":"33 19 72 50","fax":"33 19 73 77","email":"butikksjef.stavern@meny.no","openinghours":{"days":[{"date":null,"label":"Hverdager","from":"08:00","to":"21:00"},{"date":null,"label":"Lørdag","from":"08:00","to":"19:00"},{"date":null,"label":"Søndag","from":"11:00","to":"18:00"}],"special":[],"today":{"date":"2021-02-06","label":"Dagens åpningstider","from":"08:00","to":"19:00"},"isopenlate":false,"isopenonsunday":true},"istrumfactivated":true,"loc":{"lon":10.0346496723,"lat":59.0007743486},"municipality":"LARVIK","county":"VESTFOLD OG TELEMARK","suggestion":["LARVIK","VESTFOLD OG TELEMARK","MENY Stavern","3290","Stavern"]}},{"distance":1,"store":{"id":7080001361976,"chainid":1300,"name":"MENY Slependen","link":"","description":"","location":{"latitude":59.8783155141,"longitude":10.5046891061},"zipcode":"1396","zipcitycode":"BILLINGSTAD","municipalitid":3025,"countyid":30,"regionname":"ØST","services":"TRUMFBONUS, RIKSTOTO, TIPPING","visitaddress":"Slependvn. 106","phone":"66 77 88 00","fax":"66 77 88 01","email":"butikksjef.slependen@meny.no","openinghours":{"days":[{"date":null,"label":"Hverdager","from":"08:00","to":"22:00"},{"date":null,"label":"Lørdag","from":"08:00","to":"20:00"},{"date":null,"label":"Søndag","from":"","to":""}],"special":[],"today":{"date":"2021-02-06","label":"Dagens åpningstider","from":"08:00","to":"20:00"},"isopenlate":false,"isopenonsunday":false},"istrumfactivated":true,"loc":{"lon":10.5046891061,"lat":59.8783155141},"municipality":"ASKER","county":"VIKEN","suggestion":["ASKER","VIKEN","MENY Slependen","1396","Slependen"]}},{"distance":1,"store":{"id":7080001107345,"chainid":1300,"name":"MENY Fevik","link":"","description":"","location":{"latitude":58.3818344017,"longitude":8.6756564595},"zipcode":"4870","zipcitycode":"FEVIK","municipalitid":4202,"countyid":42,"regionname":"SØR","services":"PIB, TRUMFBONUS, TIPPING","visitaddress":"Feviktoppen Sømsveien","phone":"37294200","fax":"37048413","email":"butikksjef.fevik@meny.no","openinghours":{"days":[{"date":null,"label":"Hverdager","from":"08:00","to":"22:00"},{"date":null,"label":"Lørdag","from":"08:00","to":"20:00"},{"date":null,"label":"Søndag","from":"","to":""}],"special":[],"today":{"date":"2021-02-06","label":"Dagens åpningstider","from":"08:00","to":"20:00"},"isopenlate":false,"isopenonsunday":false},"istrumfactivated":true,"loc":{"lon":8.6756564595,"lat":58.3818344017},"municipality":"GRIMSTAD","county":"AGDER","suggestion":["GRIMSTAD","AGDER","MENY Fevik","4870","Fevik"]}},{"distance":1,"store":{"id":7080000302468,"chainid":1300,"name":"Helgø MENY Herbarium","link":"","description":"","location":{"latitude":58.9698687999,"longitude":5.7282775826},"zipcode":"4005","zipcitycode":"STAVANGER","municipalitid":1103,"countyid":11,"regionname":"ROGALAND","services":"TRUMFBONUS","visitaddress":"Lars Hertervigs gate 6","phone":"51 50 50 10","fax":"51 50 50 11","email":"butikksjef.straen@helgomeny.no","openinghours":{"days":[{"date":null,"label":"Hverdager","from":"07:00","to":"20:00"},{"date":null,"label":"Lørdag","from":"09:00","to":"18:00"},{"date":null,"label":"Søndag","from":"","to":""}],"special":[],"today":{"date":"2021-02-06","label":"Dagens åpningstider","from":"09:00","to":"18:00"},"isopenlate":false,"isopenonsunday":false},"istrumfactivated":true,"loc":{"lon":5.7282775826,"lat":58.9698687999},"municipality":"STAVANGER","county":"ROGALAND","suggestion":["STAVANGER","ROGALAND","Helgø MENY Herbarium","4005","MENY","Herbarium"]}},{"distance":1,"store":{"id":7080001120832,"chainid":1300,"name":"MENY Triaden","link":"","description":"","location":{"latitude":59.9186184063,"longitude":10.9535155761},"zipcode":"1461","zipcitycode":"LØRENSKOG","municipalitid":3029,"countyid":30,"regionname":"ØST","services":"TRUMFBONUS, TIPPING","visitaddress":"Triaden Storsenter Gamleveien 88","phone":"67 98 16 00","fax":"67981601","email":"butikksjef.triaden@meny.no","openinghours":{"days":[{"date":null,"label":"Hverdager","from":"08:00","to":"22:00"},{"date":null,"label":"Lørdag","from":"08:00","to":"20:00"},{"date":null,"label":"Søndag","from":"","to":""}],"special":[],"today":{"date":"2021-02-06","label":"Dagens åpningstider","from":"08:00","to":"20:00"},"isopenlate":false,"isopenonsunday":false},"istrumfactivated":true,"loc":{"lon":10.9535155761,"lat":59.9186184063},"municipality":"LØRENSKOG","county":"VIKEN","suggestion":["LØRENSKOG","VIKEN","MENY Triaden","1461","Triaden"]}},{"distance":1,"store":{"id":7080001416409,"chainid":1300,"name":"MENY Gystadmarka","link":"","description":"","location":{"latitude":60.1439085266,"longitude":11.1893648825},"zipcode":"2052","zipcitycode":"JESSHEIM","municipalitid":3033,"countyid":30,"regionname":"ØST","services":"TRUMFBONUS","visitaddress":"Henrik Bulls veg 100","phone":"63986698","fax":null,"email":"butikksjef.gystadmarka@meny.no","openinghours":{"days":[{"date":null,"label":"Hverdager","from":"07:00","to":"22:00"},{"date":null,"label":"Lørdag","from":"08:00","to":"19:00"},{"date":null,"label":"Søndag","from":"","to":""}],"special":[],"today":{"date":"2021-02-06","label":"Dagens åpningstider","from":"08:00","to":"19:00"},"isopenlate":false,"isopenonsunday":false},"istrumfactivated":true,"loc":{"lon":11.1893648825,"lat":60.1439085266},"municipality":"ULLENSAKER","county":"VIKEN","suggestion":["ULLENSAKER","VIKEN","MENY Gystadmarka","2052","Gystadmarka"]}},{"distance":1,"store":{"id":7080003413680,"chainid":1300,"name":"Helgø MENY Sandnes","link":"","description":"","location":{"latitude":58.8482515915,"longitude":5.7396081183},"zipcode":"4306","zipcitycode":"SANDNES","municipalitid":1108,"countyid":11,"regionname":"ROGALAND","services":"TRUMFBONUS","visitaddress":"Gravarsveien 7","phone":"51609700","fax":"51609701","email":"butikksjef.sandnes@helgomeny.no","openinghours":{"days":[{"date":null,"label":"Hverdager","from":"09:00","to":"21:00"},{"date":null,"label":"Lørdag","from":"09:00","to":"20:00"},{"date":null,"label":"Søndag","from":"","to":""}],"special":[],"today":{"date":"2021-02-06","label":"Dagens åpningstider","from":"09:00","to":"20:00"},"isopenlate":false,"isopenonsunday":false},"istrumfactivated":true,"loc":{"lon":5.7396081183,"lat":58.8482515915},"municipality":"SANDNES","county":"ROGALAND","suggestion":["SANDNES","ROGALAND","Helgø MENY Sandnes","4306","MENY","Sandnes"]}},{"distance":1,"store":{"id":7080001271961,"chainid":1300,"name":"MENY Vøyenenga","link":"","description":"","location":{"latitude":59.9086546383,"longitude":10.4767592026},"zipcode":"1339","zipcitycode":"VØYENENGA","municipalitid":3024,"countyid":30,"regionname":"ØST","services":"PIB, TRUMFBONUS, TIPPING","visitaddress":"Vøyenengtunet 14","phone":"67 18 68 00","fax":null,"email":"butikksjef.voyenenga@meny.no","openinghours":{"days":[{"date":null,"label":"Hverdager","from":"08:00","to":"22:00"},{"date":null,"label":"Lørdag","from":"08:00","to":"20:00"},{"date":null,"label":"Søndag","from":"","to":""}],"special":[],"today":{"date":"2021-02-06","label":"Dagens åpningstider","from":"08:00","to":"20:00"},"isopenlate":false,"isopenonsunday":false},"istrumfactivated":true,"loc":{"lon":10.4767592026,"lat":59.9086546383},"municipality":"BÆRUM","county":"VIKEN","suggestion":["BÆRUM","VIKEN","MENY Vøyenenga","1339","Vøyenenga"]}},{"distance":1,"store":{"id":7080001271978,"chainid":1300,"name":"MENY Østfoldhallene","link":"","description":"","location":{"latitude":59.2517021407,"longitude":10.9933177248},"zipcode":"1661","zipcitycode":"ROLVSØY","municipalitid":3004,"countyid":30,"regionname":"ØST","services":"PIB, TRUMFBONUS","visitaddress":"Dikeveien 28","phone":"69381500","fax":"69381501","email":"butikksjef.ostfoldhallene@meny.no","openinghours":{"days":[{"date":null,"label":"Hverdager","from":"09:00","to":"20:00"},{"date":null,"label":"Lørdag","from":"09:00","to":"18:00"},{"date":null,"label":"Søndag","from":"","to":""}],"special":[],"today":{"date":"2021-02-06","label":"Dagens åpningstider","from":"09:00","to":"18:00"},"isopenlate":false,"isopenonsunday":false},"istrumfactivated":true,"loc":{"lon":10.9933177248,"lat":59.2517021407},"municipality":"FREDRIKSTAD","county":"VIKEN","suggestion":["FREDRIKSTAD","VIKEN","MENY Østfoldhallene","1661","Østfoldhallene"]}},{"distance":1,"store":{"id":7080005059312,"chainid":1300,"name":"MENY Pindsle","link":"","description":"","location":{"latitude":59.1375783552,"longitude":10.1784803311},"zipcode":"3221","zipcitycode":"SANDEFJORD","municipalitid":3804,"countyid":38,"regionname":"VESTRE ØSTLAND","services":"PIB, TRUMFBONUS, RIKSTOTO, TIPPING","visitaddress":"Nygårdsveien 84","phone":"33426090","fax":"33 42 77 01","email":"butikksjef.pindsle@meny.no","openinghours":{"days":[{"date":null,"label":"Hverdager","from":"08:00","to":"21:00"},{"date":null,"label":"Lørdag","from":"08:00","to":"20:00"},{"date":null,"label":"Søndag","from":"","to":""}],"special":[],"today":{"date":"2021-02-06","label":"Dagens åpningstider","from":"08:00","to":"20:00"},"isopenlate":false,"isopenonsunday":false},"istrumfactivated":true,"loc":{"lon":10.1784803311,"lat":59.1375783552},"municipality":"SANDEFJORD","county":"VESTFOLD OG TELEMARK","suggestion":["SANDEFJORD","VESTFOLD OG TELEMARK","MENY Pindsle","3221","Pindsle"]}},{"distance":1,"store":{"id":7080001022419,"chainid":1300,"name":"MENY Stoa","link":"","description":"","location":{"latitude":58.4585540147,"longitude":8.7122928877},"zipcode":"4848","zipcitycode":"ARENDAL","municipalitid":4203,"countyid":42,"regionname":"SØR","services":"PIB, TRUMFBONUS, TIPPING","visitaddress":"Åsbieveien 2","phone":"37000500","fax":"37021101","email":"butikksjef.stoa@meny.no","openinghours":{"days":[{"date":null,"label":"Hverdager","from":"07:00","to":"22:00"},{"date":null,"label":"Lørdag","from":"08:00","to":"20:00"},{"date":null,"label":"Søndag","from":"","to":""}],"special":[],"today":{"date":"2021-02-06","label":"Dagens åpningstider","from":"08:00","to":"20:00"},"isopenlate":false,"isopenonsunday":false},"istrumfactivated":true,"loc":{"lon":8.7122928877,"lat":58.4585540147},"municipality":"ARENDAL","county":"AGDER","suggestion":["ARENDAL","AGDER","MENY Stoa","4848","Stoa"]}},{"distance":1,"store":{"id":7080000918386,"chainid":1300,"name":"MENY Kongsvinger","link":"","description":"","location":{"latitude":60.1910911626,"longitude":11.9962350511},"zipcode":"2212","zipcitycode":"KONGSVINGER","municipalitid":3401,"countyid":34,"regionname":"INNLAND","services":"TRUMFBONUS","visitaddress":"Brugata 15","phone":"62 80 85 50","fax":"62 80 85 51","email":"butikksjef.kongsvinger@meny.no","openinghours":{"days":[{"date":null,"label":"Hverdager","from":"08:00","to":"21:00"},{"date":null,"label":"Lørdag","from":"09:00","to":"19:00"},{"date":null,"label":"Søndag","from":"","to":""}],"special":[],"today":{"date":"2021-02-06","label":"Dagens åpningstider","from":"09:00","to":"19:00"},"isopenlate":false,"isopenonsunday":false},"istrumfactivated":true,"loc":{"lon":11.9962350511,"lat":60.1910911626},"municipality":"KONGSVINGER","county":"INNLANDET","suggestion":["KONGSVINGER","INNLANDET","MENY Kongsvinger","2212","Kongsvinger"]}},{"distance":1,"store":{"id":7080001102692,"chainid":1300,"name":"Nico Mat","link":"","description":"","location":{"latitude":58.3162298398,"longitude":6.962045128},"zipcode":"4480","zipcitycode":"KVINESDAL","municipalitid":4227,"countyid":42,"regionname":"SØR","services":"TRUMFBONUS","visitaddress":"Nesgata 22","phone":"38 35 01 20","fax":"38 35 01 60","email":"nico.mat@ngbutikk.net","openinghours":{"days":[{"date":null,"label":"Hverdager","from":"08:30","to":"20:30"},{"date":null,"label":"Lørdag","from":"08:30","to":"18:00"},{"date":null,"label":"Søndag","from":"","to":""}],"special":[],"today":{"date":"2021-02-06","label":"Dagens åpningstider","from":"08:30","to":"18:00"},"isopenlate":false,"isopenonsunday":false},"istrumfactivated":true,"loc":{"lon":6.962045128,"lat":58.3162298398},"municipality":"KVINESDAL","county":"AGDER","suggestion":["KVINESDAL","AGDER","Nico Mat","4480","Mat"]}},{"distance":1,"store":{"id":7080003445445,"chainid":1300,"name":"MENY Sartor","link":"","description":"","location":{"latitude":60.3578387223,"longitude":5.1226294257},"zipcode":"5353","zipcitycode":"STRAUME","municipalitid":4626,"countyid":46,"regionname":"VEST","services":"TRUMFBONUS","visitaddress":"Bildøyvegen 11 A","phone":"56326500","fax":"56326501","email":"butikksjef.sartor@meny.no","openinghours":{"days":[{"date":null,"label":"Hverdager","from":"07:00","to":"22:00"},{"date":null,"label":"Lørdag","from":"08:00","to":"21:00"},{"date":null,"label":"Søndag","from":"09:00","to":"22:00"}],"special":[],"today":{"date":"2021-02-06","label":"Dagens åpningstider","from":"08:00","to":"21:00"},"isopenlate":false,"isopenonsunday":true},"istrumfactivated":true,"loc":{"lon":5.1226294257,"lat":60.3578387223},"municipality":"ØYGARDEN","county":"VESTLAND","suggestion":["ØYGARDEN","VESTLAND","MENY Sartor","5353","Sartor"]}},{"distance":1,"store":{"id":7080000733750,"chainid":1300,"name":"MENY Bergen Storsenter","link":"","description":"","location":{"latitude":60.3892367694,"longitude":5.3317658266},"zipcode":"5015","zipcitycode":"BERGEN","municipalitid":4601,"countyid":46,"regionname":"VEST","services":"TRUMFBONUS","visitaddress":"Strømgaten 8","phone":"55301130","fax":"55301140","email":"butikksjef.bergenstorsenter@meny.no","openinghours":{"days":[{"date":null,"label":"Hverdager","from":"06:00","to":"23:00"},{"date":null,"label":"Lørdag","from":"07:00","to":"21:00"},{"date":null,"label":"Søndag","from":"","to":""}],"special":[],"today":{"date":"2021-02-06","label":"Dagens åpningstider","from":"07:00","to":"21:00"},"isopenlate":true,"isopenonsunday":false},"istrumfactivated":true,"loc":{"lon":5.3317658266,"lat":60.3892367694},"municipality":"BERGEN","county":"VESTLAND","suggestion":["BERGEN","VESTLAND","MENY Bergen Storsenter","5015","Bergen","Storsenter"]}},{"distance":1,"store":{"id":7080000915156,"chainid":1300,"name":"MENY Borre","link":"","description":"","location":{"latitude":59.3937662859,"longitude":10.4629835123},"zipcode":"3186","zipcitycode":"HORTEN","municipalitid":3801,"countyid":38,"regionname":"VESTRE ØSTLAND","services":"PIB, TRUMFBONUS, TIPPING","visitaddress":"Borreveien 92","phone":"33 08 49 00","fax":"33 08 49 01","email":"butikksjef.borre@meny.no","openinghours":{"days":[{"date":null,"label":"Hverdager","from":"08:00","to":"22:00"},{"date":null,"label":"Lørdag","from":"08:00","to":"21:00"},{"date":null,"label":"Søndag","from":"","to":""}],"special":[],"today":{"date":"2021-02-06","label":"Dagens åpningstider","from":"08:00","to":"21:00"},"isopenlate":false,"isopenonsunday":false},"istrumfactivated":true,"loc":{"lon":10.4629835123,"lat":59.3937662859},"municipality":"HORTEN","county":"VESTFOLD OG TELEMARK","suggestion":["HORTEN","VESTFOLD OG TELEMARK","MENY Borre","3186","Borre"]}},{"distance":1,"store":{"id":7080000927807,"chainid":1300,"name":"MENY Gloppe","link":"","description":"","location":{"latitude":59.0407320412,"longitude":10.0675522427},"zipcode":"3260","zipcitycode":"LARVIK","municipalitid":3805,"countyid":38,"regionname":"VESTRE ØSTLAND","services":"PIB, TRUMFBONUS, RIKSTOTO, TIPPING","visitaddress":"Nordlyveien 1","phone":"33121600","fax":"33126920","email":"butikksjef.gloppe@meny.no","openinghours":{"days":[{"date":null,"label":"Hverdager","from":"07:00","to":"22:00"},{"date":null,"label":"Lørdag","from":"08:00","to":"20:00"},{"date":null,"label":"Søndag","from":"11:00","to":"18:00"}],"special":[],"today":{"date":"2021-02-06","label":"Dagens åpningstider","from":"08:00","to":"20:00"},"isopenlate":false,"isopenonsunday":true},"istrumfactivated":true,"loc":{"lon":10.0675522427,"lat":59.0407320412},"municipality":"LARVIK","county":"VESTFOLD OG TELEMARK","suggestion":["LARVIK","VESTFOLD OG TELEMARK","MENY Gloppe","3260","Gloppe"]}},{"distance":1,"store":{"id":7080000764051,"chainid":1300,"name":"MENY Seljord","link":"","description":"","location":{"latitude":59.4815164739,"longitude":8.6283337074},"zipcode":"3840","zipcitycode":"SELJORD","municipalitid":3820,"countyid":38,"regionname":"VESTRE ØSTLAND","services":"TRUMFBONUS, TIPPING","visitaddress":"Vekanvegen 1A","phone":"35 05 09 50","fax":"35 05 04 55","email":"butikksjef.seljord@meny.no","openinghours":{"days":[{"date":null,"label":"Hverdager","from":"08:00","to":"21:00"},{"date":null,"label":"Lørdag","from":"08:00","to":"20:00"},{"date":null,"label":"Søndag","from":"","to":""}],"special":[],"today":{"date":"2021-02-06","label":"Dagens åpningstider","from":"08:00","to":"20:00"},"isopenlate":false,"isopenonsunday":false},"istrumfactivated":true,"loc":{"lon":8.6283337074,"lat":59.4815164739},"municipality":"SELJORD","county":"VESTFOLD OG TELEMARK","suggestion":["SELJORD","VESTFOLD OG TELEMARK","MENY Seljord","3840","Seljord"]}},{"distance":1,"store":{"id":7080000533268,"chainid":1300,"name":"MENY Elverum","link":"","description":"","location":{"latitude":60.878169249,"longitude":11.5655763431},"zipcode":"2406","zipcitycode":"ELVERUM","municipalitid":3420,"countyid":34,"regionname":"INNLAND","services":"TRUMFBONUS","visitaddress":"Kremmertorget Kirkeveien 4","phone":"62 43 55 70","fax":"62 43 55 71","email":"butikksjef.elverum@meny.no","openinghours":{"days":[{"date":null,"label":"Hverdager","from":"09:00","to":"20:00"},{"date":null,"label":"Lørdag","from":"09:00","to":"18:00"},{"date":null,"label":"Søndag","from":"","to":""}],"special":[],"today":{"date":"2021-02-06","label":"Dagens åpningstider","from":"09:00","to":"18:00"},"isopenlate":false,"isopenonsunday":false},"istrumfactivated":true,"loc":{"lon":11.5655763431,"lat":60.878169249},"municipality":"ELVERUM","county":"INNLANDET","suggestion":["ELVERUM","INNLANDET","MENY Elverum","2406","Elverum"]}},{"distance":1,"store":{"id":7080000907809,"chainid":1300,"name":"MENY Sande","link":"","description":"","location":{"latitude":59.5874170188,"longitude":10.2081196895},"zipcode":"3070","zipcitycode":"SANDE I VESTFOLD","municipalitid":3802,"countyid":38,"regionname":"VESTRE ØSTLAND","services":"PIB, TRUMFBONUS, TIPPING","visitaddress":"Revåvn. 5","phone":"33785800","fax":"33 78 58 10","email":"butikksjef.sande@meny.no","openinghours":{"days":[{"date":null,"label":"Hverdager","from":"07:00","to":"22:00"},{"date":null,"label":"Lørdag","from":"08:00","to":"20:00"},{"date":null,"label":"Søndag","from":"","to":""}],"special":[],"today":{"date":"2021-02-06","label":"Dagens åpningstider","from":"08:00","to":"20:00"},"isopenlate":false,"isopenonsunday":false},"istrumfactivated":true,"loc":{"lon":10.2081196895,"lat":59.5874170188},"municipality":"HOLMESTRAND","county":"VESTFOLD OG TELEMARK","suggestion":["HOLMESTRAND","VESTFOLD OG TELEMARK","MENY Sande","3070","Sande"]}},{"distance":1,"store":{"id":7080000569090,"chainid":1300,"name":"MENY Eiktoppen","link":"","description":"","location":{"latitude":59.2921696362,"longitude":10.4195418359},"zipcode":"3122","zipcitycode":"TØNSBERG","municipalitid":3803,"countyid":38,"regionname":"VESTRE ØSTLAND","services":"TRUMFBONUS, TIPPING","visitaddress":"Eikveien 49","phone":"33 30 12 00","fax":null,"email":"butikksjef.eiktoppen@meny.no","openinghours":{"days":[{"date":null,"label":"Hverdager","from":"07:00","to":"22:00"},{"date":null,"label":"Lørdag","from":"08:00","to":"21:00"},{"date":null,"label":"Søndag","from":"","to":""}],"special":[],"today":{"date":"2021-02-06","label":"Dagens åpningstider","from":"08:00","to":"21:00"},"isopenlate":false,"isopenonsunday":false},"istrumfactivated":true,"loc":{"lon":10.4195418359,"lat":59.2921696362},"municipality":"TØNSBERG","county":"VESTFOLD OG TELEMARK","suggestion":["TØNSBERG","VESTFOLD OG TELEMARK","MENY Eiktoppen","3122","Eiktoppen"]}},{"distance":1,"store":{"id":7080000590315,"chainid":1300,"name":"MENY Jarlsberg","link":"","description":"","location":{"latitude":59.2802931291,"longitude":10.3649540581},"zipcode":"3170","zipcitycode":"SEM","municipalitid":3803,"countyid":38,"regionname":"VESTRE ØSTLAND","services":"TRUMFBONUS, TIPPING","visitaddress":"Travveien 1","phone":"33 38 11 00","fax":"33 38 11 02","email":"butikksjef.jarlsberg@meny.no","openinghours":{"days":[{"date":null,"label":"Hverdager","from":"08:00","to":"22:00"},{"date":null,"label":"Lørdag","from":"08:00","to":"22:00"},{"date":null,"label":"Søndag","from":"","to":""}],"special":[],"today":{"date":"2021-02-06","label":"Dagens åpningstider","from":"08:00","to":"22:00"},"isopenlate":false,"isopenonsunday":false},"istrumfactivated":true,"loc":{"lon":10.3649540581,"lat":59.2802931291},"municipality":"TØNSBERG","county":"VESTFOLD OG TELEMARK","suggestion":["TØNSBERG","VESTFOLD OG TELEMARK","MENY Jarlsberg","3170","Jarlsberg"]}},{"distance":1,"store":{"id":7080000957606,"chainid":1300,"name":"MENY Helgeroa","link":"","description":"","location":{"latitude":58.9884454393,"longitude":9.8730218851},"zipcode":"3295","zipcitycode":"HELGEROA","municipalitid":3805,"countyid":38,"regionname":"VESTRE ØSTLAND","services":"PIB, TRUMFBONUS, RIKSTOTO, TIPPING","visitaddress":"Søndersrød","phone":"33 11 80 60","fax":"33 18 88 37","email":"butikksjef.helgeroa@meny.no","openinghours":{"days":[{"date":null,"label":"Hverdager","from":"07:00","to":"21:00"},{"date":null,"label":"Lørdag","from":"07:00","to":"20:00"},{"date":null,"label":"Søndag","from":"11:00","to":"18:00"}],"special":[],"today":{"date":"2021-02-06","label":"Dagens åpningstider","from":"07:00","to":"20:00"},"isopenlate":false,"isopenonsunday":true},"istrumfactivated":true,"loc":{"lon":9.8730218851,"lat":58.9884454393},"municipality":"LARVIK","county":"VESTFOLD OG TELEMARK","suggestion":["LARVIK","VESTFOLD OG TELEMARK","MENY Helgeroa","3295","Helgeroa"]}},{"distance":1,"store":{"id":7080000909261,"chainid":1300,"name":"MENY Sandsværveien","link":"","description":"","location":{"latitude":59.6475136501,"longitude":9.6384534147},"zipcode":"3615","zipcitycode":"KONGSBERG","municipalitid":3006,"countyid":30,"regionname":"VESTRE ØSTLAND","services":"TRUMFBONUS, TIPPING","visitaddress":"Sandsværvn. 164","phone":"32865900","fax":"32865901","email":"butikksjef.sandsvarsveien@meny.no","openinghours":{"days":[{"date":null,"label":"Hverdager","from":"08:00","to":"21:00"},{"date":null,"label":"Lørdag","from":"08:00","to":"19:00"},{"date":null,"label":"Søndag","from":"","to":""}],"special":[],"today":{"date":"2021-02-06","label":"Dagens åpningstider","from":"08:00","to":"19:00"},"isopenlate":false,"isopenonsunday":false},"istrumfactivated":true,"loc":{"lon":9.6384534147,"lat":59.6475136501},"municipality":"KONGSBERG","county":"VIKEN","suggestion":["KONGSBERG","VIKEN","MENY Sandsværveien","3615","Sandsværveien"]}},{"distance":1,"store":{"id":7080000003679,"chainid":1300,"name":"MENY Flåtten","link":"","description":"","location":{"latitude":59.1214513882,"longitude":9.6589601657},"zipcode":"3924","zipcitycode":"PORSGRUNN","municipalitid":3806,"countyid":38,"regionname":"VESTRE ØSTLAND","services":"PIB, TRUMFBONUS, TIPPING","visitaddress":"DEICHMANSGT.109","phone":"35 93 30 00","fax":"35 93 30 01","email":"butikksjef.flatten@meny.no","openinghours":{"days":[{"date":null,"label":"Hverdager","from":"07:00","to":"22:00"},{"date":null,"label":"Lørdag","from":"07:00","to":"20:00"},{"date":null,"label":"Søndag","from":"","to":""}],"special":[],"today":{"date":"2021-02-06","label":"Dagens åpningstider","from":"07:00","to":"20:00"},"isopenlate":false,"isopenonsunday":false},"istrumfactivated":true,"loc":{"lon":9.6589601657,"lat":59.1214513882},"municipality":"PORSGRUNN","county":"VESTFOLD OG TELEMARK","suggestion":["PORSGRUNN","VESTFOLD OG TELEMARK","MENY Flåtten","3924","Flåtten"]}},{"distance":1,"store":{"id":7080000891665,"chainid":1300,"name":"MENY Fantoft","link":"","description":"","location":{"latitude":60.3464021748,"longitude":5.352169208},"zipcode":"5072","zipcitycode":"BERGEN","municipalitid":4601,"countyid":46,"regionname":"VEST","services":"TRUMFBONUS","visitaddress":"Fantoftvegen 14 p","phone":"55273200","fax":"55273210","email":"butikksjef.fantoft@meny.no","openinghours":{"days":[{"date":null,"label":"Hverdager","from":"07:00","to":"22:00"},{"date":null,"label":"Lørdag","from":"09:00","to":"20:00"},{"date":null,"label":"Søndag","from":"","to":""}],"special":[],"today":{"date":"2021-02-06","label":"Dagens åpningstider","from":"09:00","to":"20:00"},"isopenlate":false,"isopenonsunday":false},"istrumfactivated":true,"loc":{"lon":5.352169208,"lat":60.3464021748},"municipality":"BERGEN","county":"VESTLAND","suggestion":["BERGEN","VESTLAND","MENY Fantoft","5072","Fantoft"]}},{"distance":1,"store":{"id":7080000548637,"chainid":1300,"name":"MENY Halden","link":"","description":"","location":{"latitude":59.1215105817,"longitude":11.3833722321},"zipcode":"1771","zipcitycode":"HALDEN","municipalitid":3001,"countyid":30,"regionname":"ØST","services":"TRUMFBONUS","visitaddress":"Walkersgt. 4","phone":"69190650","fax":"69190651","email":"butikksjef.halden@meny.no","openinghours":{"days":[{"date":null,"label":"Hverdager","from":"07:00","to":"21:00"},{"date":null,"label":"Lørdag","from":"09:00","to":"20:00"},{"date":null,"label":"Søndag","from":"","to":""}],"special":[],"today":{"date":"2021-02-06","label":"Dagens åpningstider","from":"09:00","to":"20:00"},"isopenlate":false,"isopenonsunday":false},"istrumfactivated":true,"loc":{"lon":11.3833722321,"lat":59.1215105817},"municipality":"HALDEN","county":"VIKEN","suggestion":["HALDEN","VIKEN","MENY Halden","1771","Halden"]}},{"distance":1,"store":{"id":7080001124946,"chainid":1300,"name":"MENY Stopp Tune","link":"","description":"","location":{"latitude":59.2876658091,"longitude":11.0884545568},"zipcode":"1711","zipcitycode":"SARPSBORG","municipalitid":3003,"countyid":30,"regionname":"ØST","services":"TRUMFBONUS","visitaddress":"Lilletunveien 2","phone":"69101800","fax":"69101801","email":"butikksjef.stopptune@meny.no","openinghours":{"days":[{"date":null,"label":"Hverdager","from":"09:00","to":"20:00"},{"date":null,"label":"Lørdag","from":"09:00","to":"18:00"},{"date":null,"label":"Søndag","from":"","to":""}],"special":[],"today":{"date":"2021-02-06","label":"Dagens åpningstider","from":"09:00","to":"18:00"},"isopenlate":false,"isopenonsunday":false},"istrumfactivated":true,"loc":{"lon":11.0884545568,"lat":59.2876658091},"municipality":"SARPSBORG","county":"VIKEN","suggestion":["SARPSBORG","VIKEN","MENY Stopp Tune","1711","Stopp","Tune"]}},{"distance":1,"store":{"id":7080000068661,"chainid":1300,"name":"MENY Oslo City","link":"","description":"","location":{"latitude":59.9126066418,"longitude":10.7515438969},"zipcode":"0050","zipcitycode":"OSLO","municipalitid":301,"countyid":3,"regionname":"ØST","services":"TRUMFBONUS","visitaddress":"Stenersgaten 1","phone":"23159300","fax":"22176091","email":"butikksjef.oslocity@meny.no","openinghours":{"days":[{"date":null,"label":"Hverdager","from":"09:00","to":"20:00"},{"date":null,"label":"Lørdag","from":"09:00","to":"20:00"},{"date":null,"label":"Søndag","from":"","to":""}],"special":[],"today":{"date":"2021-02-06","label":"Dagens åpningstider","from":"09:00","to":"20:00"},"isopenlate":false,"isopenonsunday":false},"istrumfactivated":true,"loc":{"lon":10.7515438969,"lat":59.9126066418},"municipality":"OSLO","county":"OSLO","suggestion":["OSLO","OSLO","MENY Oslo City","0050","Oslo","City"]}},{"distance":1,"store":{"id":7080000036066,"chainid":1300,"name":"MENY Grønland Torg","link":"","description":"","location":{"latitude":59.9125084272,"longitude":10.7619130585},"zipcode":"0188","zipcitycode":"OSLO","municipalitid":301,"countyid":3,"regionname":"ØST","services":"TRUMFBONUS, TIPPING","visitaddress":"Smalgangen 49","phone":"22 05 26 50","fax":"22052662","email":"butikksjef.gronland@meny.no","openinghours":{"days":[{"date":null,"label":"Hverdager","from":"08:00","to":"22:00"},{"date":null,"label":"Lørdag","from":"08:00","to":"20:00"},{"date":null,"label":"Søndag","from":"","to":""}],"special":[],"today":{"date":"2021-02-06","label":"Dagens åpningstider","from":"08:00","to":"20:00"},"isopenlate":false,"isopenonsunday":false},"istrumfactivated":true,"loc":{"lon":10.7619130585,"lat":59.9125084272},"municipality":"OSLO","county":"OSLO","suggestion":["OSLO","OSLO","MENY Grønland Torg","0188","Grønland","Torg"]}},{"distance":1,"store":{"id":7080000025534,"chainid":1300,"name":"MENY Bogstadveien","link":"","description":"","location":{"latitude":59.9267009166,"longitude":10.7203321492},"zipcode":"0366","zipcitycode":"OSLO","municipalitid":301,"countyid":3,"regionname":"ØST","services":"TRUMFBONUS","visitaddress":"Bogstadv 36","phone":"22 59 15 70","fax":"22693379","email":"butikksjef.bogstadveien@meny.no","openinghours":{"days":[{"date":null,"label":"Hverdager","from":"08:00","to":"22:00"},{"date":null,"label":"Lørdag","from":"08:00","to":"20:00"},{"date":null,"label":"Søndag","from":"","to":""}],"special":[],"today":{"date":"2021-02-06","label":"Dagens åpningstider","from":"08:00","to":"20:00"},"isopenlate":false,"isopenonsunday":false},"istrumfactivated":true,"loc":{"lon":10.7203321492,"lat":59.9267009166},"municipality":"OSLO","county":"OSLO","suggestion":["OSLO","OSLO","MENY Bogstadveien","0366","Bogstadveien"]}},{"distance":1,"store":{"id":7080000003518,"chainid":1300,"name":"MENY Kringsjå","link":"","description":"","location":{"latitude":59.9634643038,"longitude":10.7369238147},"zipcode":"0862","zipcitycode":"OSLO","municipalitid":301,"countyid":3,"regionname":"ØST","services":"TRUMFBONUS, TIPPING","visitaddress":"Minister Ditleffsv. 21","phone":"23 00 85 85","fax":"22184118","email":"butikksjef.kringsja@meny.no","openinghours":{"days":[{"date":null,"label":"Hverdager","from":"09:00","to":"20:00"},{"date":null,"label":"Lørdag","from":"09:00","to":"18:00"},{"date":null,"label":"Søndag","from":"","to":""}],"special":[],"today":{"date":"2021-02-06","label":"Dagens åpningstider","from":"09:00","to":"18:00"},"isopenlate":false,"isopenonsunday":false},"istrumfactivated":true,"loc":{"lon":10.7369238147,"lat":59.9634643038},"municipality":"OSLO","county":"OSLO","suggestion":["OSLO","OSLO","MENY Kringsjå","0862","Kringsjå"]}},{"distance":1,"store":{"id":7080000945788,"chainid":1300,"name":"MENY Bærums Verk","link":"","description":"","location":{"latitude":59.9414268798,"longitude":10.5019758036},"zipcode":"1353","zipcitycode":"BÆRUMS VERK","municipalitid":3024,"countyid":30,"regionname":"ØST","services":"TRUMFBONUS, TIPPING","visitaddress":"Vertshusveien 2","phone":"67 17 54 20","fax":"67 15 09 11","email":"butikksjef.berumsverk@meny.no","openinghours":{"days":[{"date":null,"label":"Hverdager","from":"08:00","to":"22:00"},{"date":null,"label":"Lørdag","from":"08:00","to":"20:00"},{"date":null,"label":"Søndag","from":"","to":""}],"special":[],"today":{"date":"2021-02-06","label":"Dagens åpningstider","from":"08:00","to":"20:00"},"isopenlate":false,"isopenonsunday":false},"istrumfactivated":true,"loc":{"lon":10.5019758036,"lat":59.9414268798},"municipality":"BÆRUM","county":"VIKEN","suggestion":["BÆRUM","VIKEN","MENY Bærums Verk","1353","Bærums","Verk"]}},{"distance":1,"store":{"id":7080001016265,"chainid":1300,"name":"MENY Langhus","link":"","description":"","location":{"latitude":59.7543092012,"longitude":10.8448604397},"zipcode":"1405","zipcitycode":"LANGHUS","municipalitid":3020,"countyid":30,"regionname":"ØST","services":"TRUMFBONUS, TIPPING","visitaddress":"Langhus Senter","phone":"64 91 71 71","fax":"64 91 71 72 ","email":"butikksjef.langhus@meny.no","openinghours":{"days":[{"date":null,"label":"Hverdager","from":"08:00","to":"21:00"},{"date":null,"label":"Lørdag","from":"09:00","to":"20:00"},{"date":null,"label":"Søndag","from":"","to":""}],"special":[],"today":{"date":"2021-02-06","label":"Dagens åpningstider","from":"09:00","to":"20:00"},"isopenlate":false,"isopenonsunday":false},"istrumfactivated":true,"loc":{"lon":10.8448604397,"lat":59.7543092012},"municipality":"NORDRE FOLLO","county":"VIKEN","suggestion":["NORDRE FOLLO","VIKEN","MENY Langhus","1405","Langhus"]}},{"distance":1,"store":{"id":7080001110611,"chainid":1300,"name":"MENY Stadiontunet","link":"","description":"","location":{"latitude":59.1342334956,"longitude":10.2044570276},"zipcode":"3228","zipcitycode":"SANDEFJORD","municipalitid":3804,"countyid":38,"regionname":"VESTRE ØSTLAND","services":"TRUMFBONUS, RIKSTOTO, TIPPING","visitaddress":"Laskenveien 4","phone":"33 48 21 30","fax":"33 48 21 31","email":"butikksjef.stadiontunet@meny.no","openinghours":{"days":[{"date":null,"label":"Hverdager","from":"08:00","to":"22:00"},{"date":null,"label":"Lørdag","from":"08:00","to":"20:00"},{"date":null,"label":"Søndag","from":"","to":""}],"special":[],"today":{"date":"2021-02-06","label":"Dagens åpningstider","from":"08:00","to":"20:00"},"isopenlate":false,"isopenonsunday":false},"istrumfactivated":true,"loc":{"lon":10.2044570276,"lat":59.1342334956},"municipality":"SANDEFJORD","county":"VESTFOLD OG TELEMARK","suggestion":["SANDEFJORD","VESTFOLD OG TELEMARK","MENY Stadiontunet","3228","Stadiontunet"]}},{"distance":1,"store":{"id":7080001166243,"chainid":1300,"name":"MENY Karmsundgata","link":"","description":"","location":{"latitude":59.4039282619,"longitude":5.2885732636},"zipcode":"5529","zipcitycode":"HAUGESUND","municipalitid":1106,"countyid":11,"regionname":"ROGALAND","services":"TRUMFBONUS, TIPPING","visitaddress":"Karmsundgt. 60","phone":"52804500","fax":"52804501","email":"butikksjef.karmsundgata@meny.no","openinghours":{"days":[{"date":null,"label":"Hverdager","from":"07:00","to":"22:00"},{"date":null,"label":"Lørdag","from":"08:00","to":"20:00"},{"date":null,"label":"Søndag","from":"","to":""}],"special":[],"today":{"date":"2021-02-06","label":"Dagens åpningstider","from":"08:00","to":"20:00"},"isopenlate":false,"isopenonsunday":false},"istrumfactivated":true,"loc":{"lon":5.2885732636,"lat":59.4039282619},"municipality":"HAUGESUND","county":"ROGALAND","suggestion":["HAUGESUND","ROGALAND","MENY Karmsundgata","5529","Karmsundgata"]}},{"distance":1,"store":{"id":7080001357115,"chainid":1300,"name":"MENY GS","link":"","description":"","location":{"latitude":59.1499744092,"longitude":9.6309580161},"zipcode":"3740","zipcitycode":"SKIEN","municipalitid":3807,"countyid":38,"regionname":"VESTRE ØSTLAND","services":"TRUMFBONUS, RIKSTOTO, TIPPING","visitaddress":"Klyvevegen 25","phone":"35900800","fax":"35900801","email":"butikksjef.gs@meny.no","openinghours":{"days":[{"date":null,"label":"Hverdager","from":"06:30","to":"23:00"},{"date":null,"label":"Lørdag","from":"08:00","to":"20:00"},{"date":null,"label":"Søndag","from":"","to":""}],"special":[],"today":{"date":"2021-02-06","label":"Dagens åpningstider","from":"08:00","to":"20:00"},"isopenlate":true,"isopenonsunday":false},"istrumfactivated":true,"loc":{"lon":9.6309580161,"lat":59.1499744092},"municipality":"SKIEN","county":"VESTFOLD OG TELEMARK","suggestion":["SKIEN","VESTFOLD OG TELEMARK","MENY GS","3740","GS"]}},{"distance":1,"store":{"id":7080000583966,"chainid":1300,"name":"MENY Oasen Haugesund","link":"","description":"","location":{"latitude":59.3773528822,"longitude":5.3070448179},"zipcode":"5542","zipcitycode":"KARMSUND","municipalitid":1149,"countyid":11,"regionname":"ROGALAND","services":"PIB, TRUMFBONUS, RIKSTOTO, TIPPING","visitaddress":"Oasen Storsenter","phone":"52 81 12 00","fax":"52 81 12 01","email":"butikksjef.oasenhaugesund@meny.no","openinghours":{"days":[{"date":null,"label":"Hverdager","from":"07:00","to":"22:00"},{"date":null,"label":"Lørdag","from":"08:00","to":"19:00"},{"date":null,"label":"Søndag","from":"","to":""}],"special":[],"today":{"date":"2021-02-06","label":"Dagens åpningstider","from":"08:00","to":"19:00"},"isopenlate":false,"isopenonsunday":false},"istrumfactivated":true,"loc":{"lon":5.3070448179,"lat":59.3773528822},"municipality":"KARMØY","county":"ROGALAND","suggestion":["KARMØY","ROGALAND","MENY Oasen Haugesund","5542","Oasen","Haugesund"]}},{"distance":1,"store":{"id":7080001056063,"chainid":1300,"name":"MENY Albert","link":"","description":"","location":{"latitude":58.1661197963,"longitude":8.0358687202},"zipcode":"4633","zipcitycode":"KRISTIANSAND S","municipalitid":4204,"countyid":42,"regionname":"SØR","services":"TRUMFBONUS, TIPPING","visitaddress":"Olav Trygvassonsvei 2","phone":"38 10 44 00","fax":"38 10 44 01","email":"butikksjef.albert@meny.no","openinghours":{"days":[{"date":null,"label":"Hverdager","from":"07:00","to":"23:00"},{"date":null,"label":"Lørdag","from":"08:00","to":"20:00"},{"date":null,"label":"Søndag","from":"","to":""}],"special":[],"today":{"date":"2021-02-06","label":"Dagens åpningstider","from":"08:00","to":"20:00"},"isopenlate":true,"isopenonsunday":false},"istrumfactivated":true,"loc":{"lon":8.0358687202,"lat":58.1661197963},"municipality":"KRISTIANSAND","county":"AGDER","suggestion":["KRISTIANSAND","AGDER","MENY Albert","4633","Albert"]}},{"distance":1,"store":{"id":7080001296346,"chainid":1300,"name":"MENY Skøyen","link":"","description":"","location":{"latitude":59.9205214378,"longitude":10.6836406577},"zipcode":"0278","zipcitycode":"OSLO","municipalitid":301,"countyid":3,"regionname":"ØST","services":"TRUMFBONUS","visitaddress":"Karenslyst Allé 9","phone":"23276900","fax":"23276901","email":"butikksjef.skoyen@meny.no","openinghours":{"days":[{"date":null,"label":"Hverdager","from":"07:00","to":"21:00"},{"date":null,"label":"Lørdag","from":"09:00","to":"20:00"},{"date":null,"label":"Søndag","from":"","to":""}],"special":[],"today":{"date":"2021-02-06","label":"Dagens åpningstider","from":"09:00","to":"20:00"},"isopenlate":false,"isopenonsunday":false},"istrumfactivated":true,"loc":{"lon":10.6836406577,"lat":59.9205214378},"municipality":"OSLO","county":"OSLO","suggestion":["OSLO","OSLO","MENY Skøyen","0278","Skøyen"]}},{"distance":1,"store":{"id":7080001108786,"chainid":1300,"name":"MENY Slemmestad","link":"","description":"","location":{"latitude":59.7777911669,"longitude":10.4861400166},"zipcode":"3470","zipcitycode":"SLEMMESTAD","municipalitid":3025,"countyid":30,"regionname":"VESTRE ØSTLAND","services":"PIB, TRUMFBONUS, TIPPING","visitaddress":"Kirkealleen 1","phone":"31291000","fax":"31291001","email":"butikksjef.slemmestad@meny.no","openinghours":{"days":[{"date":null,"label":"Hverdager","from":"08:00","to":"23:00"},{"date":null,"label":"Lørdag","from":"08:00","to":"20:00"},{"date":null,"label":"Søndag","from":"","to":""}],"special":[],"today":{"date":"2021-02-06","label":"Dagens åpningstider","from":"08:00","to":"20:00"},"isopenlate":true,"isopenonsunday":false},"istrumfactivated":true,"loc":{"lon":10.4861400166,"lat":59.7777911669},"municipality":"ASKER","county":"VIKEN","suggestion":["ASKER","VIKEN","MENY Slemmestad","3470","Slemmestad"]}},{"distance":1,"store":{"id":7080001106782,"chainid":1300,"name":"Helgø MENY Hundvåg","link":"","description":"","location":{"latitude":58.9937020191,"longitude":5.7308257758},"zipcode":"4085","zipcitycode":"HUNDVÅG","municipalitid":1103,"countyid":11,"regionname":"ROGALAND","services":"TRUMFBONUS, TIPPING","visitaddress":"Hundvågveien 49","phone":"51 59 49 00","fax":"51 59 49 01","email":"butikksjef.hundvag@helgomeny.no","openinghours":{"days":[{"date":null,"label":"Hverdager","from":"07:00","to":"22:00"},{"date":null,"label":"Lørdag","from":"08:00","to":"20:00"},{"date":null,"label":"Søndag","from":"","to":""}],"special":[],"today":{"date":"2021-02-06","label":"Dagens åpningstider","from":"08:00","to":"20:00"},"isopenlate":false,"isopenonsunday":false},"istrumfactivated":true,"loc":{"lon":5.7308257758,"lat":58.9937020191},"municipality":"STAVANGER","county":"ROGALAND","suggestion":["STAVANGER","ROGALAND","Helgø MENY Hundvåg","4085","MENY","Hundvåg"]}},{"distance":1,"store":{"id":7080001064310,"chainid":1300,"name":"MENY Ski","link":"","description":"","location":{"latitude":59.7132748903,"longitude":10.8355674776},"zipcode":"1400","zipcitycode":"SKI","municipalitid":3020,"countyid":30,"regionname":"ØST","services":"TRUMFBONUS, TIPPING","visitaddress":"Eikeliv 1","phone":"64 878090","fax":"64 863312","email":"butikksjef.ski@meny.no","openinghours":{"days":[{"date":null,"label":"Hverdager","from":"07:00","to":"21:00"},{"date":null,"label":"Lørdag","from":"08:00","to":"20:00"},{"date":null,"label":"Søndag","from":"","to":""}],"special":[],"today":{"date":"2021-02-06","label":"Dagens åpningstider","from":"08:00","to":"20:00"},"isopenlate":false,"isopenonsunday":false},"istrumfactivated":true,"loc":{"lon":10.8355674776,"lat":59.7132748903},"municipality":"NORDRE FOLLO","county":"VIKEN","suggestion":["NORDRE FOLLO","VIKEN","MENY Ski","1400","Ski"]}},{"distance":1,"store":{"id":7080001098698,"chainid":1300,"name":"MENY Lerstad","link":"","description":"","location":{"latitude":62.4683986019,"longitude":6.2918883866},"zipcode":"6014","zipcitycode":"ÅLESUND","municipalitid":1507,"countyid":15,"regionname":"MØRE","services":"PIB, TRUMFBONUS, TIPPING","visitaddress":"Lerstadvegen 291","phone":"70117800","fax":"70117801","email":"butikksjef.lerstad@meny.no","openinghours":{"days":[{"date":null,"label":"Hverdager","from":"07:00","to":"23:00"},{"date":null,"label":"Lørdag","from":"07:00","to":"23:00"},{"date":null,"label":"Søndag","from":"","to":""}],"special":[],"today":{"date":"2021-02-06","label":"Dagens åpningstider","from":"07:00","to":"23:00"},"isopenlate":true,"isopenonsunday":false},"istrumfactivated":true,"loc":{"lon":6.2918883866,"lat":62.4683986019},"municipality":"ÅLESUND","county":"MØRE OG ROMSDAL","suggestion":["ÅLESUND","MØRE OG ROMSDAL","MENY Lerstad","6014","Lerstad"]}},{"distance":1,"store":{"id":7080001080839,"chainid":1300,"name":"MENY Krøgenes","link":"","description":"","location":{"latitude":58.4729125984,"longitude":8.8142204005},"zipcode":"4841","zipcitycode":"ARENDAL","municipalitid":4203,"countyid":42,"regionname":"SØR","services":"TRUMFBONUS, TIPPING","visitaddress":"Tromøyveien 1","phone":"37 06 20 00","fax":"37 06 20 01","email":"butikksjef.krogenes@meny.no","openinghours":{"days":[{"date":null,"label":"Hverdager","from":"07:00","to":"22:00"},{"date":null,"label":"Lørdag","from":"07:00","to":"22:00"},{"date":null,"label":"Søndag","from":"","to":""}],"special":[],"today":{"date":"2021-02-06","label":"Dagens åpningstider","from":"07:00","to":"22:00"},"isopenlate":false,"isopenonsunday":false},"istrumfactivated":true,"loc":{"lon":8.8142204005,"lat":58.4729125984},"municipality":"ARENDAL","county":"AGDER","suggestion":["ARENDAL","AGDER","MENY Krøgenes","4841","Krøgenes"]}},{"distance":1,"store":{"id":7080000951772,"chainid":1300,"name":"MENY Askim","link":"","description":"","location":{"latitude":59.5815871022,"longitude":11.1688081428},"zipcode":"1811","zipcitycode":"ASKIM","municipalitid":3014,"countyid":30,"regionname":"ØST","services":"TRUMFBONUS, TIPPING","visitaddress":"Haugomgata 17","phone":"69816950","fax":"69 889823","email":"butikksjef.askim@meny.no","openinghours":{"days":[{"date":null,"label":"Hverdager","from":"08:00","to":"22:00"},{"date":null,"label":"Lørdag","from":"09:00","to":"20:00"},{"date":null,"label":"Søndag","from":"","to":""}],"special":[],"today":{"date":"2021-02-06","label":"Dagens åpningstider","from":"09:00","to":"20:00"},"isopenlate":false,"isopenonsunday":false},"istrumfactivated":true,"loc":{"lon":11.1688081428,"lat":59.5815871022},"municipality":"INDRE ØSTFOLD","county":"VIKEN","suggestion":["INDRE ØSTFOLD","VIKEN","MENY Askim","1811","Askim"]}},{"distance":1,"store":{"id":7080000951024,"chainid":1300,"name":"MENY Brakerøya","link":"","description":"","location":{"latitude":59.7409672783,"longitude":10.2217508287},"zipcode":"3012","zipcitycode":"DRAMMEN","municipalitid":3005,"countyid":30,"regionname":"VESTRE ØSTLAND","services":"PIB, TRUMFBONUS, TIPPING","visitaddress":"Brandtenborggata 1","phone":"32 25 43 50","fax":"32 26 83 05","email":"butikksjef.brakeroya@meny.no","openinghours":{"days":[{"date":null,"label":"Hverdager","from":"07:00","to":"23:00"},{"date":null,"label":"Lørdag","from":"08:00","to":"20:00"},{"date":null,"label":"Søndag","from":"","to":""}],"special":[],"today":{"date":"2021-02-06","label":"Dagens åpningstider","from":"08:00","to":"20:00"},"isopenlate":true,"isopenonsunday":false},"istrumfactivated":true,"loc":{"lon":10.2217508287,"lat":59.7409672783},"municipality":"DRAMMEN","county":"VIKEN","suggestion":["DRAMMEN","VIKEN","MENY Brakerøya","3012","Brakerøya"]}},{"distance":1,"store":{"id":7080001150464,"chainid":1300,"name":"MENY Alna","link":"","description":"","location":{"latitude":59.9265942818,"longitude":10.8488260012},"zipcode":"0668","zipcitycode":"OSLO","municipalitid":301,"countyid":3,"regionname":"ØST","services":"TRUMFBONUS","visitaddress":"strømsveien 245","phone":"24 08 41 50","fax":"24 08 41 51","email":"butikksjef.alna@meny.no","openinghours":{"days":[{"date":null,"label":"Hverdager","from":"09:00","to":"21:00"},{"date":null,"label":"Lørdag","from":"09:00","to":"19:00"},{"date":null,"label":"Søndag","from":"","to":""}],"special":[],"today":{"date":"2021-02-06","label":"Dagens åpningstider","from":"09:00","to":"19:00"},"isopenlate":false,"isopenonsunday":false},"istrumfactivated":true,"loc":{"lon":10.8488260012,"lat":59.9265942818},"municipality":"OSLO","county":"OSLO","suggestion":["OSLO","OSLO","MENY Alna","0668","Alna"]}},{"distance":1,"store":{"id":7080000896899,"chainid":1300,"name":"Helgø MENY Kvadrat","link":"","description":"","location":{"latitude":58.8762648947,"longitude":5.7217542237},"zipcode":"4313","zipcitycode":"SANDNES","municipalitid":1108,"countyid":11,"regionname":"ROGALAND","services":"TRUMFBONUS","visitaddress":"Gamle Stokkavei 1","phone":"51 63 41 80","fax":"51 63 41 81","email":"butikksjef.kvadrat@helgomeny.no","openinghours":{"days":[{"date":null,"label":"Hverdager","from":"07:00","to":"21:00"},{"date":null,"label":"Lørdag","from":"08:00","to":"19:00"},{"date":null,"label":"Søndag","from":"","to":""}],"special":[],"today":{"date":"2021-02-06","label":"Dagens åpningstider","from":"08:00","to":"19:00"},"isopenlate":false,"isopenonsunday":false},"istrumfactivated":true,"loc":{"lon":5.7217542237,"lat":58.8762648947},"municipality":"SANDNES","county":"ROGALAND","suggestion":["SANDNES","ROGALAND","Helgø MENY Kvadrat","4313","MENY","Kvadrat"]}},{"distance":1,"store":{"id":7080000998067,"chainid":1300,"name":"Helgø MENY Bogafjell","link":"","description":"","location":{"latitude":58.821035383,"longitude":5.7532480499},"zipcode":"4325","zipcitycode":"SANDNES","municipalitid":1108,"countyid":11,"regionname":"ROGALAND","services":"PIB, TRUMFBONUS, TIPPING","visitaddress":"Bogafjellveien 65","phone":"51605500","fax":"51605501","email":"butikksjef.bogafjell@helgomeny.no","openinghours":{"days":[{"date":null,"label":"Hverdager","from":"07:00","to":"22:00"},{"date":null,"label":"Lørdag","from":"08:00","to":"21:00"},{"date":null,"label":"Søndag","from":"","to":""}],"special":[],"today":{"date":"2021-02-06","label":"Dagens åpningstider","from":"08:00","to":"21:00"},"isopenlate":false,"isopenonsunday":false},"istrumfactivated":true,"loc":{"lon":5.7532480499,"lat":58.821035383},"municipality":"SANDNES","county":"ROGALAND","suggestion":["SANDNES","ROGALAND","Helgø MENY Bogafjell","4325","MENY","Bogafjell"]}},{"distance":1,"store":{"id":7080001164188,"chainid":1300,"name":"MENY Union Brygge","link":"","description":"","location":{"latitude":59.7426893221,"longitude":10.1945411734},"zipcode":"3045","zipcitycode":"DRAMMEN","municipalitid":3005,"countyid":30,"regionname":"VESTRE ØSTLAND","services":"TRUMFBONUS, TIPPING","visitaddress":"Grønland 43-45","phone":"32 22 19 00","fax":"32 22 19 01","email":"butikksjef.unionbrygge@meny.no","openinghours":{"days":[{"date":null,"label":"Hverdager","from":"07:00","to":"21:00"},{"date":null,"label":"Lørdag","from":"08:00","to":"20:00"},{"date":null,"label":"Søndag","from":"","to":""}],"special":[],"today":{"date":"2021-02-06","label":"Dagens åpningstider","from":"08:00","to":"20:00"},"isopenlate":false,"isopenonsunday":false},"istrumfactivated":true,"loc":{"lon":10.1945411734,"lat":59.7426893221},"municipality":"DRAMMEN","county":"VIKEN","suggestion":["DRAMMEN","VIKEN","MENY Union Brygge","3045","Union","Brygge"]}},{"distance":1,"store":{"id":7080000873258,"chainid":1300,"name":"MENY Kalbakken","link":"","description":"","location":{"latitude":59.9526773745,"longitude":10.8684420207},"zipcode":"0953","zipcitycode":"OSLO","municipalitid":301,"countyid":3,"regionname":"ØST","services":"TRUMFBONUS, TIPPING","visitaddress":"Kalbakkveien 6","phone":"22 80 20 80","fax":"22 80 20 99","email":"butikksjef.kalbakken@meny.no","openinghours":{"days":[{"date":null,"label":"Hverdager","from":"08:00","to":"22:00"},{"date":null,"label":"Lørdag","from":"08:00","to":"20:00"},{"date":null,"label":"Søndag","from":"","to":""}],"special":[],"today":{"date":"2021-02-06","label":"Dagens åpningstider","from":"08:00","to":"20:00"},"isopenlate":false,"isopenonsunday":false},"istrumfactivated":true,"loc":{"lon":10.8684420207,"lat":59.9526773745},"municipality":"OSLO","county":"OSLO","suggestion":["OSLO","OSLO","MENY Kalbakken","0953","Kalbakken"]}},{"distance":1,"store":{"id":7080000913398,"chainid":1300,"name":"MENY Saga","link":"","description":"","location":{"latitude":59.1858553368,"longitude":9.6138460912},"zipcode":"3734","zipcitycode":"SKIEN","municipalitid":3807,"countyid":38,"regionname":"VESTRE ØSTLAND","services":"TRUMFBONUS, RIKSTOTO, TIPPING","visitaddress":"Telemarksveien 14","phone":"35 91 38 38","fax":"35 91 38 39","email":"butikksjef.saga@meny.no","openinghours":{"days":[{"date":null,"label":"Hverdager","from":"06:30","to":"22:00"},{"date":null,"label":"Lørdag","from":"07:00","to":"20:00"},{"date":null,"label":"Søndag","from":"","to":""}],"special":[],"today":{"date":"2021-02-06","label":"Dagens åpningstider","from":"07:00","to":"20:00"},"isopenlate":false,"isopenonsunday":false},"istrumfactivated":true,"loc":{"lon":9.6138460912,"lat":59.1858553368},"municipality":"SKIEN","county":"VESTFOLD OG TELEMARK","suggestion":["SKIEN","VESTFOLD OG TELEMARK","MENY Saga","3734","Saga"]}},{"distance":1,"store":{"id":7080001400682,"chainid":1300,"name":"MENY Sverresborg","link":"","description":"","location":{"latitude":63.4168998016,"longitude":10.3543029534},"zipcode":"7020","zipcitycode":"TRONDHEIM","municipalitid":5001,"countyid":50,"regionname":"MIDT","services":"TRUMFBONUS, TIPPING","visitaddress":"Gamle Oslovei 1","phone":"73805400","fax":"73805401","email":"butikksjef.sverresborg@meny.no","openinghours":{"days":[{"date":null,"label":"Hverdager","from":"08:00","to":"22:00"},{"date":null,"label":"Lørdag","from":"08:00","to":"20:00"},{"date":null,"label":"Søndag","from":"","to":""}],"special":[],"today":{"date":"2021-02-06","label":"Dagens åpningstider","from":"08:00","to":"20:00"},"isopenlate":false,"isopenonsunday":false},"istrumfactivated":true,"loc":{"lon":10.3543029534,"lat":63.4168998016},"municipality":"TRONDHEIM","county":"TRØNDELAG","suggestion":["TRONDHEIM","TRØNDELAG","MENY Sverresborg","7020","Sverresborg"]}},{"distance":1,"store":{"id":7080001400699,"chainid":1300,"name":"MENY Nordstrand","link":"","description":"","location":{"latitude":59.8610338129,"longitude":10.8014844653},"zipcode":"1163","zipcitycode":"OSLO","municipalitid":301,"countyid":3,"regionname":"ØST","services":"TRUMFBONUS","visitaddress":"Nordstrandveien 42","phone":"23287300","fax":"23287301","email":"butikksjef.nordstrand@meny.no","openinghours":{"days":[{"date":null,"label":"Hverdager","from":"08:00","to":"22:00"},{"date":null,"label":"Lørdag","from":"08:00","to":"20:00"},{"date":null,"label":"Søndag","from":"","to":""}],"special":[],"today":{"date":"2021-02-06","label":"Dagens åpningstider","from":"08:00","to":"20:00"},"isopenlate":false,"isopenonsunday":false},"istrumfactivated":true,"loc":{"lon":10.8014844653,"lat":59.8610338129},"municipality":"OSLO","county":"OSLO","suggestion":["OSLO","OSLO","MENY Nordstrand","1163","Nordstrand"]}},{"distance":1,"store":{"id":7080000069743,"chainid":1300,"name":"MENY Mosseporten","link":"","description":"","location":{"latitude":59.4462527998,"longitude":10.7032338421},"zipcode":"1599","zipcitycode":"MOSS","municipalitid":3002,"countyid":30,"regionname":"ØST","services":"TRUMFBONUS","visitaddress":"Patterødveien 2","phone":"69210600","fax":"69210601","email":"butikksjef.mosseporten@meny.no","openinghours":{"days":[{"date":null,"label":"Hverdager","from":"08:00","to":"21:00"},{"date":null,"label":"Lørdag","from":"09:00","to":"19:00"},{"date":null,"label":"Søndag","from":"","to":""}],"special":[],"today":{"date":"2021-02-06","label":"Dagens åpningstider","from":"09:00","to":"19:00"},"isopenlate":false,"isopenonsunday":false},"istrumfactivated":true,"loc":{"lon":10.7032338421,"lat":59.4462527998},"municipality":"MOSS","county":"VIKEN","suggestion":["MOSS","VIKEN","MENY Mosseporten","1599","Mosseporten"]}},{"distance":1,"store":{"id":7080001373429,"chainid":1300,"name":"MENY Gullgruven","link":"","description":"","location":{"latitude":60.4726130903,"longitude":5.3328539976},"zipcode":"5132","zipcitycode":"NYBORG","municipalitid":4601,"countyid":46,"regionname":"VEST","services":"TRUMFBONUS, RIKSTOTO, TIPPING","visitaddress":"Liamyrane 1","phone":"56 35 46 00","fax":null,"email":"butikksjef.gullgruven@meny.no","openinghours":{"days":[{"date":null,"label":"Hverdager","from":"08:00","to":"22:00"},{"date":null,"label":"Lørdag","from":"08:00","to":"20:00"},{"date":null,"label":"Søndag","from":"","to":""}],"special":[],"today":{"date":"2021-02-06","label":"Dagens åpningstider","from":"08:00","to":"20:00"},"isopenlate":false,"isopenonsunday":false},"istrumfactivated":true,"loc":{"lon":5.3328539976,"lat":60.4726130903},"municipality":"BERGEN","county":"VESTLAND","suggestion":["BERGEN","VESTLAND","MENY Gullgruven","5132","Gullgruven"]}},{"distance":1,"store":{"id":7080001097776,"chainid":1300,"name":"MENY Sogndal","link":"","description":"","location":{"latitude":61.2320145367,"longitude":7.1026069027},"zipcode":"6856","zipcitycode":"SOGNDAL","municipalitid":4640,"countyid":46,"regionname":"VEST","services":"TRUMFBONUS, TIPPING","visitaddress":"Hovevegen 8","phone":"57 67 69 50","fax":"57672651","email":"butikksjef.sogndal@meny.no","openinghours":{"days":[{"date":null,"label":"Hverdager","from":"08:00","to":"23:00"},{"date":null,"label":"Lørdag","from":"08:00","to":"21:00"},{"date":null,"label":"Søndag","from":"10:00","to":"20:00"}],"special":[],"today":{"date":"2021-02-06","label":"Dagens åpningstider","from":"08:00","to":"21:00"},"isopenlate":true,"isopenonsunday":true},"istrumfactivated":true,"loc":{"lon":7.1026069027,"lat":61.2320145367},"municipality":"SOGNDAL","county":"VESTLAND","suggestion":["SOGNDAL","VESTLAND","MENY Sogndal","6856","Sogndal"]}},{"distance":1,"store":{"id":7080001098230,"chainid":1300,"name":"MENY Sletten","link":"","description":"","location":{"latitude":60.3566042552,"longitude":5.359046062},"zipcode":"5081","zipcitycode":"BERGEN","municipalitid":4601,"countyid":46,"regionname":"VEST","services":"PIB, TRUMFBONUS, TIPPING","visitaddress":"Vilhelm Bjerknes vei 4","phone":"55598900","fax":"55598901","email":"butikksjef.sletten@meny.no","openinghours":{"days":[{"date":null,"label":"Hverdager","from":"08:00","to":"21:00"},{"date":null,"label":"Lørdag","from":"09:00","to":"20:00"},{"date":null,"label":"Søndag","from":"","to":""}],"special":[],"today":{"date":"2021-02-06","label":"Dagens åpningstider","from":"09:00","to":"20:00"},"isopenlate":false,"isopenonsunday":false},"istrumfactivated":true,"loc":{"lon":5.359046062,"lat":60.3566042552},"municipality":"BERGEN","county":"VESTLAND","suggestion":["BERGEN","VESTLAND","MENY Sletten","5081","Sletten"]}},{"distance":1,"store":{"id":7080000918737,"chainid":1300,"name":"MENY Skedsmo Senter","link":"","description":"","location":{"latitude":60.0009943686,"longitude":11.0397420062},"zipcode":"2020","zipcitycode":"SKEDSMOKORSET","municipalitid":3030,"countyid":30,"regionname":"ØST","services":"PIB, TRUMFBONUS","visitaddress":"Furuholtet 1","phone":"64838770","fax":"64838799","email":"butikksjef.skedsmokorset@meny.no","openinghours":{"days":[{"date":null,"label":"Hverdager","from":"08:00","to":"22:00"},{"date":null,"label":"Lørdag","from":"09:00","to":"20:00"},{"date":null,"label":"Søndag","from":"","to":""}],"special":[],"today":{"date":"2021-02-06","label":"Dagens åpningstider","from":"09:00","to":"20:00"},"isopenlate":false,"isopenonsunday":false},"istrumfactivated":true,"loc":{"lon":11.0397420062,"lat":60.0009943686},"municipality":"LILLESTRØM","county":"VIKEN","suggestion":["LILLESTRØM","VIKEN","MENY Skedsmo Senter","2020","Skedsmo","Senter"]}},{"distance":1,"store":{"id":7080001214104,"chainid":1300,"name":"MENY Lambertseter","link":"","description":"","location":{"latitude":59.8738100179,"longitude":10.8110808487},"zipcode":"1153","zipcitycode":"OSLO","municipalitid":301,"countyid":3,"regionname":"ØST","services":"TRUMFBONUS","visitaddress":"Cecilie Thoresensvei 21","phone":"23386700","fax":"23386701","email":"butikksjef.lambertseter@meny.no","openinghours":{"days":[{"date":null,"label":"Hverdager","from":"08:00","to":"21:00"},{"date":null,"label":"Lørdag","from":"08:00","to":"20:00"},{"date":null,"label":"Søndag","from":"","to":""}],"special":[],"today":{"date":"2021-02-06","label":"Dagens åpningstider","from":"08:00","to":"20:00"},"isopenlate":false,"isopenonsunday":false},"istrumfactivated":true,"loc":{"lon":10.8110808487,"lat":59.8738100179},"municipality":"OSLO","county":"OSLO","suggestion":["OSLO","OSLO","MENY Lambertseter","1153","Lambertseter"]}},{"distance":1,"store":{"id":7080001441241,"chainid":1300,"name":"MENY Åråsen","link":"","description":"","location":{"latitude":59.962981,"longitude":11.061767},"zipcode":"2007","zipcitycode":"KJELLER","municipalitid":3030,"countyid":30,"regionname":"ØST","services":"TRUMFBONUS","visitaddress":"C.J. Hansens vei 16","phone":"63 80 33 00","fax":null,"email":"butikksjef.arasen@meny.no","openinghours":{"days":[{"date":null,"label":"Hverdager","from":"07:00","to":"22:00"},{"date":null,"label":"Lørdag","from":"08:00","to":"20:00"},{"date":null,"label":"Søndag","from":"","to":""}],"special":[],"today":{"date":"2021-02-06","label":"Dagens åpningstider","from":"08:00","to":"20:00"},"isopenlate":false,"isopenonsunday":false},"istrumfactivated":true,"loc":{"lon":11.061767,"lat":59.962981},"municipality":"LILLESTRØM","county":"VIKEN","suggestion":["LILLESTRØM","VIKEN","MENY Åråsen","2007","Åråsen"]}},{"distance":1,"store":{"id":7080001441234,"chainid":1300,"name":"MENY Lillo Gård","link":"","description":"","location":{"latitude":59.945111,"longitude":10.772056},"zipcode":"0484","zipcitycode":"OSLO","municipalitid":301,"countyid":3,"regionname":"ØST","services":"TRUMFBONUS","visitaddress":"Sandakerveien 98-100","phone":"22 22 43 00","fax":null,"email":"butikksjef.lillogard@meny.no","openinghours":{"days":[{"date":null,"label":"Hverdager","from":"08:00","to":"22:00"},{"date":null,"label":"Lørdag","from":"08:00","to":"20:00"},{"date":null,"label":"Søndag","from":"","to":""}],"special":[],"today":{"date":"2021-02-06","label":"Dagens åpningstider","from":"08:00","to":"20:00"},"isopenlate":false,"isopenonsunday":false},"istrumfactivated":true,"loc":{"lon":10.772056,"lat":59.945111},"municipality":"OSLO","county":"OSLO","suggestion":["OSLO","OSLO","MENY Lillo Gård","0484","Lillo","Gård"]}},{"distance":1,"store":{"id":7080001016685,"chainid":1300,"name":"MENY Oasen Bergen","link":"","description":"","location":{"latitude":60.3496005371,"longitude":5.2901120827},"zipcode":"5147","zipcitycode":"FYLLINGSDALEN","municipalitid":4601,"countyid":46,"regionname":"VEST","services":"TRUMFBONUS","visitaddress":"Folke Bernadottesvei 50","phone":"55173800","fax":"55173801","email":"butikksjef.oasenbergen@meny.no","openinghours":{"days":[{"date":null,"label":"Hverdager","from":"07:00","to":"22:00"},{"date":null,"label":"Lørdag","from":"07:00","to":"20:00"},{"date":null,"label":"Søndag","from":"","to":""}],"special":[],"today":{"date":"2021-02-06","label":"Dagens åpningstider","from":"07:00","to":"20:00"},"isopenlate":false,"isopenonsunday":false},"istrumfactivated":true,"loc":{"lon":5.2901120827,"lat":60.3496005371},"municipality":"BERGEN","county":"VESTLAND","suggestion":["BERGEN","VESTLAND","MENY Oasen Bergen","5147","Oasen","Bergen"]}},{"distance":1,"store":{"id":7080001433291,"chainid":1300,"name":"MENY Sørlandsparken","link":"","description":"","location":{"latitude":58.1806325285,"longitude":8.126276473},"zipcode":"4636","zipcitycode":"KRISTIANSAND S","municipalitid":4204,"countyid":42,"regionname":"SØR","services":"TRUMFBONUS, TIPPING","visitaddress":"Grasdalen 16","phone":"48206520","fax":null,"email":"butikksjef.sorlandsparken@meny.no","openinghours":{"days":[{"date":null,"label":"Hverdager","from":"07:00","to":"22:00"},{"date":null,"label":"Lørdag","from":"08:00","to":"20:00"},{"date":null,"label":"Søndag","from":"","to":""}],"special":[],"today":{"date":"2021-02-06","label":"Dagens åpningstider","from":"08:00","to":"20:00"},"isopenlate":false,"isopenonsunday":false},"istrumfactivated":true,"loc":{"lon":8.126276473,"lat":58.1806325285},"municipality":"KRISTIANSAND","county":"AGDER","suggestion":["KRISTIANSAND","AGDER","MENY Sørlandsparken","4636","Sørlandsparken"]}},{"distance":1,"store":{"id":7080001151980,"chainid":1300,"name":"MENY Myren","link":"","description":"","location":{"latitude":59.2007424533,"longitude":9.5888276925},"zipcode":"3718","zipcitycode":"SKIEN","municipalitid":3807,"countyid":38,"regionname":"VESTRE ØSTLAND","services":"TRUMFBONUS, RIKSTOTO, TIPPING","visitaddress":"Sliperivegen 11","phone":"40 00 69 06","fax":"35 59 91 81","email":"butikksjef.myren@meny.no","openinghours":{"days":[{"date":null,"label":"Hverdager","from":"07:00","to":"23:00"},{"date":null,"label":"Lørdag","from":"08:00","to":"21:00"},{"date":null,"label":"Søndag","from":"","to":""}],"special":[],"today":{"date":"2021-02-06","label":"Dagens åpningstider","from":"08:00","to":"21:00"},"isopenlate":true,"isopenonsunday":false},"istrumfactivated":true,"loc":{"lon":9.5888276925,"lat":59.2007424533},"municipality":"SKIEN","county":"VESTFOLD OG TELEMARK","suggestion":["SKIEN","VESTFOLD OG TELEMARK","MENY Myren","3718","Myren"]}},{"distance":1,"store":{"id":7080001157067,"chainid":1300,"name":"MENY Lade","link":"","description":"","location":{"latitude":63.4392890238,"longitude":10.4607108596},"zipcode":"7041","zipcitycode":"TRONDHEIM","municipalitid":5001,"countyid":50,"regionname":"MIDT","services":"TRUMFBONUS, TIPPING","visitaddress":"Haakon VII's gate 25","phone":"73 90 75 00","fax":"73 90 75 01","email":"butikksjef.lade@meny.no","openinghours":{"days":[{"date":null,"label":"Hverdager","from":"08:00","to":"22:00"},{"date":null,"label":"Lørdag","from":"09:00","to":"20:00"},{"date":null,"label":"Søndag","from":"","to":""}],"special":[],"today":{"date":"2021-02-06","label":"Dagens åpningstider","from":"09:00","to":"20:00"},"isopenlate":false,"isopenonsunday":false},"istrumfactivated":true,"loc":{"lon":10.4607108596,"lat":63.4392890238},"municipality":"TRONDHEIM","county":"TRØNDELAG","suggestion":["TRONDHEIM","TRØNDELAG","MENY Lade","7041","Lade"]}},{"distance":1,"store":{"id":7080001156992,"chainid":1300,"name":"MENY OS","link":"","description":"","location":{"latitude":60.2046350877,"longitude":5.4496243243},"zipcode":"5200","zipcitycode":"OS","municipalitid":4624,"countyid":46,"regionname":"VEST","services":"TRUMFBONUS","visitaddress":"Industriveien 2","phone":"91895109","fax":"56300657","email":"butikksjef.os@meny.no","openinghours":{"days":[{"date":null,"label":"Hverdager","from":"","to":""},{"date":null,"label":"Lørdag","from":"","to":""},{"date":null,"label":"Søndag","from":"","to":""}],"special":[],"today":{"date":"2021-02-06","label":"Dagens åpningstider","from":"","to":""},"isopenlate":false,"isopenonsunday":false},"istrumfactivated":true,"loc":{"lon":5.4496243243,"lat":60.2046350877},"municipality":"BJØRNAFJORDEN","county":"VESTLAND","suggestion":["BJØRNAFJORDEN","VESTLAND","MENY OS","5200","OS"]}},{"distance":1,"store":{"id":7080000974429,"chainid":1300,"name":"MENY Rasta","link":"","description":"","location":{"latitude":59.9233640119,"longitude":10.9370620676},"zipcode":"1476","zipcitycode":"RASTA","municipalitid":3029,"countyid":30,"regionname":"ØST","services":"TRUMFBONUS, TIPPING","visitaddress":"Rastastubben 3","phone":"67978000","fax":"67978001","email":"butikksjef.rasta@meny.no","openinghours":{"days":[{"date":null,"label":"Hverdager","from":"08:00","to":"22:00"},{"date":null,"label":"Lørdag","from":"08:00","to":"20:00"},{"date":null,"label":"Søndag","from":"","to":""}],"special":[],"today":{"date":"2021-02-06","label":"Dagens åpningstider","from":"08:00","to":"20:00"},"isopenlate":false,"isopenonsunday":false},"istrumfactivated":true,"loc":{"lon":10.9370620676,"lat":59.9233640119},"municipality":"LØRENSKOG","county":"VIKEN","suggestion":["LØRENSKOG","VIKEN","MENY Rasta","1476","Rasta"]}},{"distance":1,"store":{"id":7080001096168,"chainid":1300,"name":"MENY Lillestrøm","link":"","description":"","location":{"latitude":59.9580985646,"longitude":11.0489997871},"zipcode":"2000","zipcitycode":"LILLESTRØM","municipalitid":3030,"countyid":30,"regionname":"ØST","services":"TRUMFBONUS, TIPPING","visitaddress":"Parkalleen 3","phone":"63 89 01 00","fax":"63 89 01 01","email":"butikksjef.lillestrom@meny.no","openinghours":{"days":[{"date":null,"label":"Hverdager","from":"08:00","to":"22:00"},{"date":null,"label":"Lørdag","from":"08:00","to":"21:00"},{"date":null,"label":"Søndag","from":"","to":""}],"special":[],"today":{"date":"2021-02-06","label":"Dagens åpningstider","from":"08:00","to":"21:00"},"isopenlate":false,"isopenonsunday":false},"istrumfactivated":true,"loc":{"lon":11.0489997871,"lat":59.9580985646},"municipality":"LILLESTRØM","county":"VIKEN","suggestion":["LILLESTRØM","VIKEN","MENY Lillestrøm","2000","Lillestrøm"]}},{"distance":1,"store":{"id":7080001107253,"chainid":1300,"name":"MENY Verdal","link":"","description":"","location":{"latitude":63.7905740342,"longitude":11.4859998387},"zipcode":"7650","zipcitycode":"VERDAL","municipalitid":5038,"countyid":50,"regionname":"MIDT","services":"TRUMFBONUS, TIPPING","visitaddress":"Jernbanegata 7","phone":"74 04 93 00","fax":"74 04 93 01","email":"butikksjef.verdal@meny.no","openinghours":{"days":[{"date":null,"label":"Hverdager","from":"08:00","to":"22:00"},{"date":null,"label":"Lørdag","from":"09:00","to":"20:00"},{"date":null,"label":"Søndag","from":"","to":""}],"special":[],"today":{"date":"2021-02-06","label":"Dagens åpningstider","from":"09:00","to":"20:00"},"isopenlate":false,"isopenonsunday":false},"istrumfactivated":true,"loc":{"lon":11.4859998387,"lat":63.7905740342},"municipality":"VERDAL","county":"TRØNDELAG","suggestion":["VERDAL","TRØNDELAG","MENY Verdal","7650","Verdal"]}},{"distance":1,"store":{"id":7080001134044,"chainid":1300,"name":"MENY Åneby","link":"","description":"","location":{"latitude":60.0890270586,"longitude":10.8719540288},"zipcode":"1488","zipcitycode":"HAKADAL","municipalitid":3031,"countyid":30,"regionname":"ØST","services":"PIB, TRUMFBONUS, TIPPING","visitaddress":"Ånebyveien 17","phone":"67 06 20 00","fax":"67 06 20 10","email":"butikksjef.aneby@meny.no","openinghours":{"days":[{"date":null,"label":"Hverdager","from":"08:00","to":"21:00"},{"date":null,"label":"Lørdag","from":"08:00","to":"19:00"},{"date":null,"label":"Søndag","from":"","to":""}],"special":[],"today":{"date":"2021-02-06","label":"Dagens åpningstider","from":"08:00","to":"19:00"},"isopenlate":false,"isopenonsunday":false},"istrumfactivated":true,"loc":{"lon":10.8719540288,"lat":60.0890270586},"municipality":"NITTEDAL","county":"VIKEN","suggestion":["NITTEDAL","VIKEN","MENY Åneby","1488","Åneby"]}},{"distance":1,"store":{"id":7080001394370,"chainid":1300,"name":"MENY Borgestad","link":"","description":"","location":{"latitude":59.1702911259,"longitude":9.651328546},"zipcode":"3712","zipcitycode":"SKIEN","municipalitid":3807,"countyid":38,"regionname":"VESTRE ØSTLAND","services":"PIB, TRUMFBONUS, TIPPING","visitaddress":"Gregorius Dagsonsgt. 221","phone":"35 50 96 00","fax":null,"email":"butikksjef.borgestad@meny.no","openinghours":{"days":[{"date":null,"label":"Hverdager","from":"08:00","to":"22:00"},{"date":null,"label":"Lørdag","from":"08:00","to":"20:00"},{"date":null,"label":"Søndag","from":"","to":""}],"special":[],"today":{"date":"2021-02-06","label":"Dagens åpningstider","from":"08:00","to":"20:00"},"isopenlate":false,"isopenonsunday":false},"istrumfactivated":true,"loc":{"lon":9.651328546,"lat":59.1702911259},"municipality":"SKIEN","county":"VESTFOLD OG TELEMARK","suggestion":["SKIEN","VESTFOLD OG TELEMARK","MENY Borgestad","3712","Borgestad"]}},{"distance":1,"store":{"id":7080000954711,"chainid":1300,"name":"MENY Åssiden","link":"","description":"","location":{"latitude":59.7537193782,"longitude":10.137492201},"zipcode":"3024","zipcitycode":"DRAMMEN","municipalitid":3005,"countyid":30,"regionname":"VESTRE ØSTLAND","services":"PIB, TRUMFBONUS, RIKSTOTO, TIPPING","visitaddress":"Ing. Rybergs gate 56 B","phone":"32 25 41 50 ","fax":"32820005","email":"butikksjef.assiden@meny.no","openinghours":{"days":[{"date":null,"label":"Hverdager","from":"07:00","to":"23:00"},{"date":null,"label":"Lørdag","from":"08:00","to":"20:00"},{"date":null,"label":"Søndag","from":"","to":""}],"special":[],"today":{"date":"2021-02-06","label":"Dagens åpningstider","from":"08:00","to":"20:00"},"isopenlate":true,"isopenonsunday":false},"istrumfactivated":true,"loc":{"lon":10.137492201,"lat":59.7537193782},"municipality":"DRAMMEN","county":"VIKEN","suggestion":["DRAMMEN","VIKEN","MENY Åssiden","3024","Åssiden"]}},{"distance":1,"store":{"id":7080000958610,"chainid":1300,"name":"MENY Greverud","link":"","description":"","location":{"latitude":59.7739793998,"longitude":10.8032298444},"zipcode":"1415","zipcitycode":"OPPEGÅRD","municipalitid":3020,"countyid":30,"regionname":"ØST","services":"PIB, TRUMFBONUS, TIPPING","visitaddress":"Flåtestadvn. 3","phone":"66822750","fax":"66991626","email":"butikksjef.greverud@meny.no","openinghours":{"days":[{"date":null,"label":"Hverdager","from":"07:00","to":"22:00"},{"date":null,"label":"Lørdag","from":"08:00","to":"20:00"},{"date":null,"label":"Søndag","from":"","to":""}],"special":[],"today":{"date":"2021-02-06","label":"Dagens åpningstider","from":"08:00","to":"20:00"},"isopenlate":false,"isopenonsunday":false},"istrumfactivated":true,"loc":{"lon":10.8032298444,"lat":59.7739793998},"municipality":"NORDRE FOLLO","county":"VIKEN","suggestion":["NORDRE FOLLO","VIKEN","MENY Greverud","1415","Greverud"]}},{"distance":1,"store":{"id":7080000956814,"chainid":1300,"name":"MENY Åmot","link":"","description":"","location":{"latitude":59.8929230526,"longitude":9.9258914237},"zipcode":"3340","zipcitycode":"ÅMOT","municipalitid":3047,"countyid":30,"regionname":"VESTRE ØSTLAND","services":"PIB, TRUMFBONUS, TIPPING","visitaddress":"Lilleåsgaten","phone":"32778600","fax":"32778601","email":"butikksjef.amot@meny.no","openinghours":{"days":[{"date":null,"label":"Hverdager","from":"07:00","to":"21:00"},{"date":null,"label":"Lørdag","from":"08:00","to":"20:00"},{"date":null,"label":"Søndag","from":"","to":""}],"special":[],"today":{"date":"2021-02-06","label":"Dagens åpningstider","from":"08:00","to":"20:00"},"isopenlate":false,"isopenonsunday":false},"istrumfactivated":true,"loc":{"lon":9.9258914237,"lat":59.8929230526},"municipality":"MODUM","county":"VIKEN","suggestion":["MODUM","VIKEN","MENY Åmot","3340","Åmot"]}},{"distance":1,"store":{"id":7080001150471,"chainid":1300,"name":"MENY Hagaløkkveien","link":"","description":"","location":{"latitude":59.8321860127,"longitude":10.4295229594},"zipcode":"1383","zipcitycode":"ASKER","municipalitid":3025,"countyid":30,"regionname":"ØST","services":"TRUMFBONUS, TIPPING","visitaddress":"Hagaløkkveien 7","phone":"66 76 69 00","fax":"66 76 69 01","email":"butikksjef.hagalokkveien@meny.no","openinghours":{"days":[{"date":null,"label":"Hverdager","from":"08:00","to":"22:00"},{"date":null,"label":"Lørdag","from":"08:00","to":"20:00"},{"date":null,"label":"Søndag","from":"","to":""}],"special":[],"today":{"date":"2021-02-06","label":"Dagens åpningstider","from":"08:00","to":"20:00"},"isopenlate":false,"isopenonsunday":false},"istrumfactivated":true,"loc":{"lon":10.4295229594,"lat":59.8321860127},"municipality":"ASKER","county":"VIKEN","suggestion":["ASKER","VIKEN","MENY Hagaløkkveien","1383","Hagaløkkveien"]}},{"distance":1,"store":{"id":7080001149895,"chainid":1300,"name":"MENY Liertoppen","link":"","description":"","location":{"latitude":59.8112920816,"longitude":10.3058276989},"zipcode":"3420","zipcitycode":"LIERSKOGEN","municipalitid":3049,"countyid":30,"regionname":"VESTRE ØSTLAND","services":"PIB, TRUMFBONUS, RIKSTOTO, TIPPING","visitaddress":"Drammensveien 201","phone":"32 22 70 00","fax":"32852628","email":"butikksjef.liertoppen@meny.no","openinghours":{"days":[{"date":null,"label":"Hverdager","from":"07:00","to":"22:00"},{"date":null,"label":"Lørdag","from":"08:00","to":"20:00"},{"date":null,"label":"Søndag","from":"","to":""}],"special":[],"today":{"date":"2021-02-06","label":"Dagens åpningstider","from":"08:00","to":"20:00"},"isopenlate":false,"isopenonsunday":false},"istrumfactivated":true,"loc":{"lon":10.3058276989,"lat":59.8112920816},"municipality":"LIER","county":"VIKEN","suggestion":["LIER","VIKEN","MENY Liertoppen","3420","Liertoppen"]}},{"distance":1,"store":{"id":7080001381936,"chainid":1300,"name":"MENY Teie Torg","link":"","description":"","location":{"latitude":59.2519895565,"longitude":10.4165030747},"zipcode":"3106","zipcitycode":"NØTTERØY","municipalitid":3811,"countyid":38,"regionname":"VESTRE ØSTLAND","services":"PIB, TRUMFBONUS, TIPPING","visitaddress":"Ørsnesalléen 37 A","phone":"33 35 20 60","fax":"33 35 20 70","email":"butikksjef.teietorg@meny.no","openinghours":{"days":[{"date":null,"label":"Hverdager","from":"07:00","to":"22:00"},{"date":null,"label":"Lørdag","from":"07:00","to":"22:00"},{"date":null,"label":"Søndag","from":"","to":""}],"special":[],"today":{"date":"2021-02-06","label":"Dagens åpningstider","from":"07:00","to":"22:00"},"isopenlate":false,"isopenonsunday":false},"istrumfactivated":true,"loc":{"lon":10.4165030747,"lat":59.2519895565},"municipality":"FÆRDER","county":"VESTFOLD OG TELEMARK","suggestion":["FÆRDER","VESTFOLD OG TELEMARK","MENY Teie Torg","3106","Teie","Torg"]}},{"distance":1,"store":{"id":7080001156978,"chainid":1300,"name":"MENY Kleppestø","link":"","description":"","location":{"latitude":60.4116266091,"longitude":5.2260116157},"zipcode":"5300","zipcitycode":"KLEPPESTØ","municipalitid":4627,"countyid":46,"regionname":"VEST","services":"PIB, TRUMFBONUS, RIKSTOTO, TIPPING","visitaddress":"Gamle Kleppestøvegen 2","phone":"91895115","fax":"94761693","email":"butikksjef.kleppesto@meny.no","openinghours":{"days":[{"date":null,"label":"Hverdager","from":"08:00","to":"22:00"},{"date":null,"label":"Lørdag","from":"08:00","to":"20:00"},{"date":null,"label":"Søndag","from":"09:00","to":"22:00"}],"special":[],"today":{"date":"2021-02-06","label":"Dagens åpningstider","from":"08:00","to":"20:00"},"isopenlate":false,"isopenonsunday":true},"istrumfactivated":true,"loc":{"lon":5.2260116157,"lat":60.4116266091},"municipality":"ASKØY","county":"VESTLAND","suggestion":["ASKØY","VESTLAND","MENY Kleppestø","5300","Kleppestø"]}},{"distance":1,"store":{"id":7080001156985,"chainid":1300,"name":"MENY Ravnanger","link":"","description":"","location":{"latitude":60.4598108473,"longitude":5.152097404},"zipcode":"5310","zipcitycode":"HAUGLANDSHELLA","municipalitid":4627,"countyid":46,"regionname":"VEST","services":"PIB, TRUMFBONUS, TIPPING","visitaddress":null,"phone":"91895116","fax":"56146001","email":"butikksjef.ravnanger@meny.no","openinghours":{"days":[{"date":null,"label":"Hverdager","from":"08:00","to":"22:00"},{"date":null,"label":"Lørdag","from":"08:00","to":"20:00"},{"date":null,"label":"Søndag","from":"","to":""}],"special":[],"today":{"date":"2021-02-06","label":"Dagens åpningstider","from":"08:00","to":"20:00"},"isopenlate":false,"isopenonsunday":false},"istrumfactivated":true,"loc":{"lon":5.152097404,"lat":60.4598108473},"municipality":"ASKØY","county":"VESTLAND","suggestion":["ASKØY","VESTLAND","MENY Ravnanger","5310","Ravnanger"]}},{"distance":1,"store":{"id":7080000030224,"chainid":1300,"name":"MENY Ørebekk","link":"","description":"","location":{"latitude":59.2300738237,"longitude":10.9117711561},"zipcode":"1624","zipcitycode":"GRESSVIK","municipalitid":3004,"countyid":30,"regionname":"ØST","services":"TRUMFBONUS, TIPPING","visitaddress":"Storveien 3 B","phone":"69355750","fax":"69355751","email":"butikksjef.orebekk@meny.no","openinghours":{"days":[{"date":null,"label":"Hverdager","from":"07:00","to":"21:00"},{"date":null,"label":"Lørdag","from":"08:00","to":"20:00"},{"date":null,"label":"Søndag","from":"","to":""}],"special":[],"today":{"date":"2021-02-06","label":"Dagens åpningstider","from":"08:00","to":"20:00"},"isopenlate":false,"isopenonsunday":false},"istrumfactivated":true,"loc":{"lon":10.9117711561,"lat":59.2300738237},"municipality":"FREDRIKSTAD","county":"VIKEN","suggestion":["FREDRIKSTAD","VIKEN","MENY Ørebekk","1624","Ørebekk"]}},{"distance":1,"store":{"id":7080000003990,"chainid":1300,"name":"MENY Åsgårdstrand","link":"","description":"","location":{"latitude":59.3496210129,"longitude":10.4594870005},"zipcode":"3179","zipcitycode":"ÅSGÅRDSTRAND","municipalitid":3801,"countyid":38,"regionname":"VESTRE ØSTLAND","services":"TRUMFBONUS, TIPPING","visitaddress":"Grev Wedelsgt. 46","phone":"33 08 10 04","fax":"33 08 11 19","email":"butikksjef.asgardstrand@meny.no","openinghours":{"days":[{"date":null,"label":"Hverdager","from":"08:00","to":"21:00"},{"date":null,"label":"Lørdag","from":"08:00","to":"20:00"},{"date":null,"label":"Søndag","from":"","to":""}],"special":[],"today":{"date":"2021-02-06","label":"Dagens åpningstider","from":"08:00","to":"20:00"},"isopenlate":false,"isopenonsunday":false},"istrumfactivated":true,"loc":{"lon":10.4594870005,"lat":59.3496210129},"municipality":"HORTEN","county":"VESTFOLD OG TELEMARK","suggestion":["HORTEN","VESTFOLD OG TELEMARK","MENY Åsgårdstrand","3179","Åsgårdstrand"]}},{"distance":1,"store":{"id":7080001161163,"chainid":1300,"name":"MENY Løren","link":"","description":"","location":{"latitude":59.9307480169,"longitude":10.7934603176},"zipcode":"0585","zipcitycode":"OSLO","municipalitid":301,"countyid":3,"regionname":"ØST","services":"PIB, TRUMFBONUS, TIPPING","visitaddress":"Lørenveien 44","phone":"23 05 86 00","fax":"23058602","email":"butikksjef.loren@meny.no","openinghours":{"days":[{"date":null,"label":"Hverdager","from":"08:00","to":"22:00"},{"date":null,"label":"Lørdag","from":"08:00","to":"20:00"},{"date":null,"label":"Søndag","from":"","to":""}],"special":[],"today":{"date":"2021-02-06","label":"Dagens åpningstider","from":"08:00","to":"20:00"},"isopenlate":false,"isopenonsunday":false},"istrumfactivated":true,"loc":{"lon":10.7934603176,"lat":59.9307480169},"municipality":"OSLO","county":"OSLO","suggestion":["OSLO","OSLO","MENY Løren","0585","Løren"]}},{"distance":1,"store":{"id":7080001165611,"chainid":1300,"name":"MENY Dolviken","link":"","description":"","location":{"latitude":60.3095723837,"longitude":5.2687357511},"zipcode":"5252","zipcitycode":"SØREIDGREND","municipalitid":4601,"countyid":46,"regionname":"VEST","services":"TRUMFBONUS, TIPPING","visitaddress":"Dolvikvegen 36","phone":"55526200","fax":"55526201","email":"butikksjef.dolviken@meny.no","openinghours":{"days":[{"date":null,"label":"Hverdager","from":"07:00","to":"22:00"},{"date":null,"label":"Lørdag","from":"09:00","to":"20:00"},{"date":null,"label":"Søndag","from":"","to":""}],"special":[],"today":{"date":"2021-02-06","label":"Dagens åpningstider","from":"09:00","to":"20:00"},"isopenlate":false,"isopenonsunday":false},"istrumfactivated":true,"loc":{"lon":5.2687357511,"lat":60.3095723837},"municipality":"BERGEN","county":"VESTLAND","suggestion":["BERGEN","VESTLAND","MENY Dolviken","5252","Dolviken"]}},{"distance":1,"store":{"id":7080001193874,"chainid":1300,"name":"MENY Mandal","link":"","description":"","location":{"latitude":58.0237148269,"longitude":7.4512757416},"zipcode":"4514","zipcitycode":"MANDAL","municipalitid":4205,"countyid":42,"regionname":"SØR","services":"TRUMFBONUS, TIPPING","visitaddress":"Kastellgata 12 D","phone":"38273900","fax":"38273901","email":"butikksjef.mandal@meny.no","openinghours":{"days":[{"date":null,"label":"Hverdager","from":"08:00","to":"22:00"},{"date":null,"label":"Lørdag","from":"08:00","to":"20:00"},{"date":null,"label":"Søndag","from":"","to":""}],"special":[],"today":{"date":"2021-02-06","label":"Dagens åpningstider","from":"08:00","to":"20:00"},"isopenlate":false,"isopenonsunday":false},"istrumfactivated":true,"loc":{"lon":7.4512757416,"lat":58.0237148269},"municipality":"LINDESNES","county":"AGDER","suggestion":["LINDESNES","AGDER","MENY Mandal","4514","Mandal"]}},{"distance":1,"store":{"id":7080001271954,"chainid":1300,"name":"MENY Magneten","link":"","description":"","location":{"latitude":63.7322109283,"longitude":11.2822339861},"zipcode":"7606","zipcitycode":"LEVANGER","municipalitid":5037,"countyid":50,"regionname":"MIDT","services":"TRUMFBONUS","visitaddress":"Moafjæra 12","phone":"74085800","fax":"74085801","email":"butikksjef.magneten@meny.no","openinghours":{"days":[{"date":null,"label":"Hverdager","from":"09:00","to":"21:00"},{"date":null,"label":"Lørdag","from":"09:00","to":"20:00"},{"date":null,"label":"Søndag","from":"","to":""}],"special":[],"today":{"date":"2021-02-06","label":"Dagens åpningstider","from":"09:00","to":"20:00"},"isopenlate":false,"isopenonsunday":false},"istrumfactivated":true,"loc":{"lon":11.2822339861,"lat":63.7322109283},"municipality":"LEVANGER","county":"TRØNDELAG","suggestion":["LEVANGER","TRØNDELAG","MENY Magneten","7606","Magneten"]}},{"distance":1,"store":{"id":7080001225261,"chainid":1300,"name":"MENY Larvik Sentrum","link":"","description":"","location":{"latitude":59.0537171067,"longitude":10.0324689921},"zipcode":"3257","zipcitycode":"LARVIK","municipalitid":3805,"countyid":38,"regionname":"VESTRE ØSTLAND","services":"TRUMFBONUS, RIKSTOTO, TIPPING","visitaddress":"Olavsgt. 30","phone":"33 12 23 00","fax":"33 18 24 47","email":"butikksjef.larvik@meny.no","openinghours":{"days":[{"date":null,"label":"Hverdager","from":"08:00","to":"22:00"},{"date":null,"label":"Lørdag","from":"08:00","to":"22:00"},{"date":null,"label":"Søndag","from":"","to":""}],"special":[],"today":{"date":"2021-02-06","label":"Dagens åpningstider","from":"08:00","to":"22:00"},"isopenlate":false,"isopenonsunday":false},"istrumfactivated":true,"loc":{"lon":10.0324689921,"lat":59.0537171067},"municipality":"LARVIK","county":"VESTFOLD OG TELEMARK","suggestion":["LARVIK","VESTFOLD OG TELEMARK","MENY Larvik Sentrum","3257","Larvik","Sentrum"]}},{"distance":1,"store":{"id":7080001179694,"chainid":1300,"name":"MENY Horten","link":"","description":"","location":{"latitude":59.4275149653,"longitude":10.4538165667},"zipcode":"3189","zipcitycode":"HORTEN","municipalitid":3801,"countyid":38,"regionname":"VESTRE ØSTLAND","services":"PIB, TRUMFBONUS, RIKSTOTO, TIPPING","visitaddress":"Dampejordet 1","phone":"33020480","fax":"33020481","email":"butikksjef.horten@meny.no","openinghours":{"days":[{"date":null,"label":"Hverdager","from":"08:00","to":"22:00"},{"date":null,"label":"Lørdag","from":"08:00","to":"20:00"},{"date":null,"label":"Søndag","from":"","to":""}],"special":[],"today":{"date":"2021-02-06","label":"Dagens åpningstider","from":"08:00","to":"20:00"},"isopenlate":false,"isopenonsunday":false},"istrumfactivated":true,"loc":{"lon":10.4538165667,"lat":59.4275149653},"municipality":"HORTEN","county":"VESTFOLD OG TELEMARK","suggestion":["HORTEN","VESTFOLD OG TELEMARK","MENY Horten","3189","Horten"]}},{"distance":1,"store":{"id":7080001233648,"chainid":1300,"name":"MENY Andebu","link":"","description":"","location":{"latitude":59.3051085958,"longitude":10.176709582},"zipcode":"3158","zipcitycode":"ANDEBU","municipalitid":3804,"countyid":38,"regionname":"VESTRE ØSTLAND","services":"TRUMFBONUS, RIKSTOTO, TIPPING","visitaddress":"Andebu Sentrum 21","phone":"33 43 00 70","fax":"33430080","email":"butikksjef.andebu@meny.no","openinghours":{"days":[{"date":null,"label":"Hverdager","from":"07:00","to":"22:00"},{"date":null,"label":"Lørdag","from":"09:00","to":"20:00"},{"date":null,"label":"Søndag","from":"","to":""}],"special":[],"today":{"date":"2021-02-06","label":"Dagens åpningstider","from":"09:00","to":"20:00"},"isopenlate":false,"isopenonsunday":false},"istrumfactivated":true,"loc":{"lon":10.176709582,"lat":59.3051085958},"municipality":"SANDEFJORD","county":"VESTFOLD OG TELEMARK","suggestion":["SANDEFJORD","VESTFOLD OG TELEMARK","MENY Andebu","3158","Andebu"]}},{"distance":1,"store":{"id":7080001061890,"chainid":1300,"name":"MENY Holmestrand","link":"","description":"","location":{"latitude":59.4897564601,"longitude":10.2951292475},"zipcode":"3080","zipcitycode":"HOLMESTRAND","municipalitid":3802,"countyid":38,"regionname":"VESTRE ØSTLAND","services":"TRUMFBONUS, RIKSTOTO, TIPPING","visitaddress":"Hvittingfossvn. 123","phone":"33 09 96 00","fax":"33 09 96 19","email":"butikksjef.holmestrand@meny.no","openinghours":{"days":[{"date":null,"label":"Hverdager","from":"07:00","to":"23:00"},{"date":null,"label":"Lørdag","from":"07:00","to":"20:00"},{"date":null,"label":"Søndag","from":"","to":""}],"special":[],"today":{"date":"2021-02-06","label":"Dagens åpningstider","from":"07:00","to":"20:00"},"isopenlate":true,"isopenonsunday":false},"istrumfactivated":true,"loc":{"lon":10.2951292475,"lat":59.4897564601},"municipality":"HOLMESTRAND","county":"VESTFOLD OG TELEMARK","suggestion":["HOLMESTRAND","VESTFOLD OG TELEMARK","MENY Holmestrand","3080","Holmestrand"]}},{"distance":1,"store":{"id":7080000003266,"chainid":1300,"name":"MENY Holmen","link":"","description":"","location":{"latitude":59.8558600742,"longitude":10.4896371356},"zipcode":"1394","zipcitycode":"NESBRU","municipalitid":3025,"countyid":30,"regionname":"ØST","services":"TRUMFBONUS, TIPPING","visitaddress":"Holmengt. 6","phone":"66 77 69 20","fax":"66 98 16 50","email":"butikksjef.holmen@meny.no","openinghours":{"days":[{"date":null,"label":"Hverdager","from":"08:00","to":"22:00"},{"date":null,"label":"Lørdag","from":"08:00","to":"20:00"},{"date":null,"label":"Søndag","from":"","to":""}],"special":[],"today":{"date":"2021-02-06","label":"Dagens åpningstider","from":"08:00","to":"20:00"},"isopenlate":false,"isopenonsunday":false},"istrumfactivated":true,"loc":{"lon":10.4896371356,"lat":59.8558600742},"municipality":"ASKER","county":"VIKEN","suggestion":["ASKER","VIKEN","MENY Holmen","1394","Holmen"]}},{"distance":1,"store":{"id":7080000002726,"chainid":1300,"name":"MENY Telemarksporten","link":"","description":"","location":{"latitude":59.1211663938,"longitude":9.7095757924},"zipcode":"3946","zipcitycode":"PORSGRUNN","municipalitid":3806,"countyid":38,"regionname":"VESTRE ØSTLAND","services":"TRUMFBONUS, RIKSTOTO, TIPPING","visitaddress":"Prestemoen 6","phone":"35573080","fax":"35573081","email":"butikksjef.telemarksporten@meny.no","openinghours":{"days":[{"date":null,"label":"Hverdager","from":"08:00","to":"21:00"},{"date":null,"label":"Lørdag","from":"08:00","to":"20:00"},{"date":null,"label":"Søndag","from":"10:00","to":"20:00"}],"special":[],"today":{"date":"2021-02-06","label":"Dagens åpningstider","from":"08:00","to":"20:00"},"isopenlate":false,"isopenonsunday":true},"istrumfactivated":true,"loc":{"lon":9.7095757924,"lat":59.1211663938},"municipality":"PORSGRUNN","county":"VESTFOLD OG TELEMARK","suggestion":["PORSGRUNN","VESTFOLD OG TELEMARK","MENY Telemarksporten","3946","Telemarksporten"]}},{"distance":1,"store":{"id":7080003538949,"chainid":1300,"name":"MENY Fornebu","link":"","description":"","location":{"latitude":59.8935163941,"longitude":10.6207596914},"zipcode":"1364","zipcitycode":"FORNEBU","municipalitid":3024,"countyid":30,"regionname":"ØST","services":"PIB, TRUMFBONUS","visitaddress":"Snarøyveien 55-57","phone":"67 12 98 00","fax":null,"email":"butikksjef.fornebu@meny.no","openinghours":{"days":[{"date":null,"label":"Hverdager","from":"08:00","to":"21:00"},{"date":null,"label":"Lørdag","from":"08:00","to":"19:00"},{"date":null,"label":"Søndag","from":"","to":""}],"special":[],"today":{"date":"2021-02-06","label":"Dagens åpningstider","from":"08:00","to":"19:00"},"isopenlate":false,"isopenonsunday":false},"istrumfactivated":true,"loc":{"lon":10.6207596914,"lat":59.8935163941},"municipality":"BÆRUM","county":"VIKEN","suggestion":["BÆRUM","VIKEN","MENY Fornebu","1364","Fornebu"]}},{"distance":1,"store":{"id":7080000079520,"chainid":1300,"name":"MENY Høyden","link":"","description":"","location":{"latitude":59.4179141074,"longitude":10.6862098112},"zipcode":"1528","zipcitycode":"MOSS","municipalitid":3002,"countyid":30,"regionname":"ØST","services":"TRUMFBONUS, TIPPING","visitaddress":"Ryggeveien 96 Høyden","phone":"69232800","fax":"69232801","email":"butikksjef.hoyden@meny.no","openinghours":{"days":[{"date":null,"label":"Hverdager","from":"07:00","to":"22:00"},{"date":null,"label":"Lørdag","from":"08:00","to":"20:00"},{"date":null,"label":"Søndag","from":"","to":""}],"special":[],"today":{"date":"2021-02-06","label":"Dagens åpningstider","from":"08:00","to":"20:00"},"isopenlate":false,"isopenonsunday":false},"istrumfactivated":true,"loc":{"lon":10.6862098112,"lat":59.4179141074},"municipality":"MOSS","county":"VIKEN","suggestion":["MOSS","VIKEN","MENY Høyden","1528","Høyden"]}},{"distance":1,"store":{"id":7080000954674,"chainid":1300,"name":"MENY Osloveien","link":"","description":"","location":{"latitude":60.1529200486,"longitude":10.2552637286},"zipcode":"3511","zipcitycode":"HØNEFOSS","municipalitid":3007,"countyid":30,"regionname":"VESTRE ØSTLAND","services":"TRUMFBONUS, RIKSTOTO, TIPPING","visitaddress":"Dronning Åstasgt 4","phone":"32 17 92 00","fax":"32 17 14 90","email":"butikksjef.osloveien@meny.no","openinghours":{"days":[{"date":null,"label":"Hverdager","from":"07:00","to":"23:00"},{"date":null,"label":"Lørdag","from":"08:00","to":"20:00"},{"date":null,"label":"Søndag","from":"","to":""}],"special":[],"today":{"date":"2021-02-06","label":"Dagens åpningstider","from":"08:00","to":"20:00"},"isopenlate":true,"isopenonsunday":false},"istrumfactivated":true,"loc":{"lon":10.2552637286,"lat":60.1529200486},"municipality":"RINGERIKE","county":"VIKEN","suggestion":["RINGERIKE","VIKEN","MENY Osloveien","3511","Osloveien"]}},{"distance":1,"store":{"id":7080003295699,"chainid":1300,"name":"Helgø MENY Sola","link":"","description":"","location":{"latitude":58.8831133721,"longitude":5.6503764649},"zipcode":"4050","zipcitycode":"SOLA","municipalitid":1124,"countyid":11,"regionname":"ROGALAND","services":"TRUMFBONUS, TIPPING","visitaddress":"Solakrossveien 2","phone":"51641200","fax":"51641201","email":"butikksjef.sola@helgomeny.no","openinghours":{"days":[{"date":null,"label":"Hverdager","from":"07:00","to":"22:00"},{"date":null,"label":"Lørdag","from":"08:00","to":"21:00"},{"date":null,"label":"Søndag","from":"","to":""}],"special":[],"today":{"date":"2021-02-06","label":"Dagens åpningstider","from":"08:00","to":"21:00"},"isopenlate":false,"isopenonsunday":false},"istrumfactivated":true,"loc":{"lon":5.6503764649,"lat":58.8831133721},"municipality":"SOLA","county":"ROGALAND","suggestion":["SOLA","ROGALAND","Helgø MENY Sola","4050","MENY","Sola"]}},{"distance":1,"store":{"id":7080000778492,"chainid":1300,"name":"Helgø MENY Sandved","link":"","description":"","location":{"latitude":58.8461048935,"longitude":5.7164499135},"zipcode":"4318","zipcitycode":"SANDNES","municipalitid":1108,"countyid":11,"regionname":"ROGALAND","services":"TRUMFBONUS, TIPPING","visitaddress":"Åsheimveien 2","phone":"51 68 49 50","fax":"51 68 49 51","email":"butikksjef.sandved@helgomeny.no","openinghours":{"days":[{"date":null,"label":"Hverdager","from":"07:00","to":"22:00"},{"date":null,"label":"Lørdag","from":"08:00","to":"21:00"},{"date":null,"label":"Søndag","from":"","to":""}],"special":[],"today":{"date":"2021-02-06","label":"Dagens åpningstider","from":"08:00","to":"21:00"},"isopenlate":false,"isopenonsunday":false},"istrumfactivated":true,"loc":{"lon":5.7164499135,"lat":58.8461048935},"municipality":"SANDNES","county":"ROGALAND","suggestion":["SANDNES","ROGALAND","Helgø MENY Sandved","4318","MENY","Sandved"]}},{"distance":1,"store":{"id":7080000450817,"chainid":1300,"name":"Helgø MENY Stokka","link":"","description":"","location":{"latitude":58.9645686722,"longitude":5.7027328354},"zipcode":"4023","zipcitycode":"STAVANGER","municipalitid":1103,"countyid":11,"regionname":"ROGALAND","services":"TRUMFBONUS, TIPPING","visitaddress":"Øvre Stokkavei 46","phone":"51538650","fax":"51538687","email":"butikksjef.stokka@helgomeny.no","openinghours":{"days":[{"date":null,"label":"Hverdager","from":"07:00","to":"22:00"},{"date":null,"label":"Lørdag","from":"08:00","to":"21:00"},{"date":null,"label":"Søndag","from":"09:00","to":"21:00"}],"special":[],"today":{"date":"2021-02-06","label":"Dagens åpningstider","from":"08:00","to":"21:00"},"isopenlate":false,"isopenonsunday":true},"istrumfactivated":true,"loc":{"lon":5.7027328354,"lat":58.9645686722},"municipality":"STAVANGER","county":"ROGALAND","suggestion":["STAVANGER","ROGALAND","Helgø MENY Stokka","4023","MENY","Stokka"]}},{"distance":1,"store":{"id":7080000954704,"chainid":1300,"name":"MENY Krokstadelva","link":"","description":"","location":{"latitude":59.7581154715,"longitude":9.9918075297},"zipcode":"3055","zipcitycode":"KROKSTADELVA","municipalitid":3005,"countyid":30,"regionname":"VESTRE ØSTLAND","services":"TRUMFBONUS","visitaddress":"Kjerraten 4","phone":"32 23 20 20","fax":"32232021","email":"butikksjef.krokstadelva@meny.no","openinghours":{"days":[{"date":null,"label":"Hverdager","from":"08:00","to":"22:00"},{"date":null,"label":"Lørdag","from":"08:00","to":"20:00"},{"date":null,"label":"Søndag","from":"","to":""}],"special":[],"today":{"date":"2021-02-06","label":"Dagens åpningstider","from":"08:00","to":"20:00"},"isopenlate":false,"isopenonsunday":false},"istrumfactivated":true,"loc":{"lon":9.9918075297,"lat":59.7581154715},"municipality":"DRAMMEN","county":"VIKEN","suggestion":["DRAMMEN","VIKEN","MENY Krokstadelva","3055","Krokstadelva"]}},{"distance":1,"store":{"id":7080001008727,"chainid":1300,"name":"MENY Stortorvet","link":"","description":"","location":{"latitude":59.668855125,"longitude":9.6517601832},"zipcode":"3612","zipcitycode":"KONGSBERG","municipalitid":3006,"countyid":30,"regionname":"VESTRE ØSTLAND","services":"TRUMFBONUS","visitaddress":"Stortorvet/Karchesgt.3","phone":"32 86 56 00","fax":"32865601","email":"butikksjef.stortorvet@meny.no","openinghours":{"days":[{"date":null,"label":"Hverdager","from":"09:00","to":"20:00"},{"date":null,"label":"Lørdag","from":"09:00","to":"19:00"},{"date":null,"label":"Søndag","from":"","to":""}],"special":[],"today":{"date":"2021-02-06","label":"Dagens åpningstider","from":"09:00","to":"19:00"},"isopenlate":false,"isopenonsunday":false},"istrumfactivated":true,"loc":{"lon":9.6517601832,"lat":59.668855125},"municipality":"KONGSBERG","county":"VIKEN","suggestion":["KONGSBERG","VIKEN","MENY Stortorvet","3612","Stortorvet"]}},{"distance":1,"store":{"id":7080000996834,"chainid":1300,"name":"MENY Grimstad","link":"","description":"","location":{"latitude":58.3353061342,"longitude":8.5905866011},"zipcode":"4876","zipcitycode":"GRIMSTAD","municipalitid":4202,"countyid":42,"regionname":"SØR","services":"PIB, TRUMFBONUS, TIPPING","visitaddress":"Bark Silasvei 7","phone":"37252770","fax":"37252771","email":"butikksjef.grimstad@meny.no","openinghours":{"days":[{"date":null,"label":"Hverdager","from":"08:00","to":"22:00"},{"date":null,"label":"Lørdag","from":"08:00","to":"20:00"},{"date":null,"label":"Søndag","from":"","to":""}],"special":[],"today":{"date":"2021-02-06","label":"Dagens åpningstider","from":"08:00","to":"20:00"},"isopenlate":false,"isopenonsunday":false},"istrumfactivated":true,"loc":{"lon":8.5905866011,"lat":58.3353061342},"municipality":"GRIMSTAD","county":"AGDER","suggestion":["GRIMSTAD","AGDER","MENY Grimstad","4876","Grimstad"]}},{"distance":1,"store":{"id":7080001209629,"chainid":1300,"name":"MENY Tiller","link":"","description":"","location":{"latitude":63.358183892,"longitude":10.3748897358},"zipcode":"7075","zipcitycode":"TILLER","municipalitid":5001,"countyid":50,"regionname":"MIDT","services":"TRUMFBONUS","visitaddress":"Ivar Lykkes vei 3","phone":"72896700","fax":"72896701","email":"butikksjef.tiller@meny.no","openinghours":{"days":[{"date":null,"label":"Hverdager","from":"08:00","to":"21:00"},{"date":null,"label":"Lørdag","from":"09:00","to":"20:00"},{"date":null,"label":"Søndag","from":"","to":""}],"special":[],"today":{"date":"2021-02-06","label":"Dagens åpningstider","from":"09:00","to":"20:00"},"isopenlate":false,"isopenonsunday":false},"istrumfactivated":true,"loc":{"lon":10.3748897358,"lat":63.358183892},"municipality":"TRONDHEIM","county":"TRØNDELAG","suggestion":["TRONDHEIM","TRØNDELAG","MENY Tiller","7075","Tiller"]}},{"distance":1,"store":{"id":7080001022945,"chainid":1300,"name":"MENY Kolsås","link":"","description":"","location":{"latitude":59.9165795374,"longitude":10.5007631712},"zipcode":"1352","zipcitycode":"KOLSÅS","municipalitid":3024,"countyid":30,"regionname":"ØST","services":"PIB, TRUMFBONUS","visitaddress":"Rødskiferv 1","phone":"67 15 10 20","fax":"67 13 18 51","email":"butikksjef.kolsas@meny.no","openinghours":{"days":[{"date":null,"label":"Hverdager","from":"08:00","to":"22:00"},{"date":null,"label":"Lørdag","from":"08:00","to":"20:00"},{"date":null,"label":"Søndag","from":"","to":""}],"special":[],"today":{"date":"2021-02-06","label":"Dagens åpningstider","from":"08:00","to":"20:00"},"isopenlate":false,"isopenonsunday":false},"istrumfactivated":true,"loc":{"lon":10.5007631712,"lat":59.9165795374},"municipality":"BÆRUM","county":"VIKEN","suggestion":["BÆRUM","VIKEN","MENY Kolsås","1352","Kolsås"]}},{"distance":1,"store":{"id":7080000003242,"chainid":1300,"name":"MENY Grorud","link":"","description":"","location":{"latitude":59.9599103744,"longitude":10.8812707846},"zipcode":"0963","zipcitycode":"OSLO","municipalitid":301,"countyid":3,"regionname":"ØST","services":"TRUMFBONUS","visitaddress":"Bergensvn. 2-4","phone":"22918520","fax":"22167178","email":"butikksjef.grorud@meny.no","openinghours":{"days":[{"date":null,"label":"Hverdager","from":"09:00","to":"21:00"},{"date":null,"label":"Lørdag","from":"09:00","to":"20:00"},{"date":null,"label":"Søndag","from":"","to":""}],"special":[],"today":{"date":"2021-02-06","label":"Dagens åpningstider","from":"09:00","to":"20:00"},"isopenlate":false,"isopenonsunday":false},"istrumfactivated":true,"loc":{"lon":10.8812707846,"lat":59.9599103744},"municipality":"OSLO","county":"OSLO","suggestion":["OSLO","OSLO","MENY Grorud","0963","Grorud"]}},{"distance":1,"store":{"id":7080003308481,"chainid":1300,"name":"MENY Jarhuset","link":"","description":"","location":{"latitude":59.9264153685,"longitude":10.6208686632},"zipcode":"1358","zipcitycode":"JAR","municipalitid":3024,"countyid":30,"regionname":"ØST","services":"TRUMFBONUS","visitaddress":"Jarmyra 1","phone":"67103400","fax":"67103401","email":"butikksjef.jarhuset@meny.no","openinghours":{"days":[{"date":null,"label":"Hverdager","from":"08:00","to":"22:00"},{"date":null,"label":"Lørdag","from":"09:00","to":"20:00"},{"date":null,"label":"Søndag","from":"","to":""}],"special":[],"today":{"date":"2021-02-06","label":"Dagens åpningstider","from":"09:00","to":"20:00"},"isopenlate":false,"isopenonsunday":false},"istrumfactivated":true,"loc":{"lon":10.6208686632,"lat":59.9264153685},"municipality":"BÆRUM","county":"VIKEN","suggestion":["BÆRUM","VIKEN","MENY Jarhuset","1358","Jarhuset"]}},{"distance":1,"store":{"id":7080000024971,"chainid":1300,"name":"MENY Drøbak City","link":"","description":"","location":{"latitude":59.6734563431,"longitude":10.6584813184},"zipcode":"1440","zipcitycode":"DRØBAK","municipalitid":3022,"countyid":30,"regionname":"ØST","services":"PIB, TRUMFBONUS","visitaddress":"Drøbak City","phone":"64907270","fax":"64935702","email":"butikksjef.drobak@meny.no","openinghours":{"days":[{"date":null,"label":"Hverdager","from":"07:00","to":"21:00"},{"date":null,"label":"Lørdag","from":"09:00","to":"20:00"},{"date":null,"label":"Søndag","from":"","to":""}],"special":[],"today":{"date":"2021-02-06","label":"Dagens åpningstider","from":"09:00","to":"20:00"},"isopenlate":false,"isopenonsunday":false},"istrumfactivated":true,"loc":{"lon":10.6584813184,"lat":59.6734563431},"municipality":"FROGN","county":"VIKEN","suggestion":["FROGN","VIKEN","MENY Drøbak City","1440","Drøbak","City"]}},{"distance":1,"store":{"id":7080000068074,"chainid":1300,"name":"MENY Østerås","link":"","description":"","location":{"latitude":59.9437096629,"longitude":10.607422642},"zipcode":"1361","zipcitycode":"ØSTERÅS","municipalitid":3024,"countyid":30,"regionname":"ØST","services":"TRUMFBONUS","visitaddress":"Otto Rugesvei 80","phone":"67 16 60 20","fax":"67 14 79 72","email":"butikksjef.osteras@meny.no","openinghours":{"days":[{"date":null,"label":"Hverdager","from":"09:00","to":"21:00"},{"date":null,"label":"Lørdag","from":"09:00","to":"19:00"},{"date":null,"label":"Søndag","from":"","to":""}],"special":[],"today":{"date":"2021-02-06","label":"Dagens åpningstider","from":"09:00","to":"19:00"},"isopenlate":false,"isopenonsunday":false},"istrumfactivated":true,"loc":{"lon":10.607422642,"lat":59.9437096629},"municipality":"BÆRUM","county":"VIKEN","suggestion":["BÆRUM","VIKEN","MENY Østerås","1361","Østerås"]}},{"distance":1,"store":{"id":7080000008896,"chainid":1300,"name":"MENY Fosnavåg","link":"","description":"","location":{"latitude":62.3419888999,"longitude":5.6341401934},"zipcode":"6090","zipcitycode":"FOSNAVÅG","municipalitid":1515,"countyid":15,"regionname":"MØRE","services":"PIB, TRUMFBONUS, TIPPING","visitaddress":"Holmsild vei","phone":"70089670","fax":"70089455","email":"butikksjef.fosnavag@meny.no","openinghours":{"days":[{"date":null,"label":"Hverdager","from":"08:00","to":"22:00"},{"date":null,"label":"Lørdag","from":"08:00","to":"20:00"},{"date":null,"label":"Søndag","from":"","to":""}],"special":[],"today":{"date":"2021-02-06","label":"Dagens åpningstider","from":"08:00","to":"20:00"},"isopenlate":false,"isopenonsunday":false},"istrumfactivated":true,"loc":{"lon":5.6341401934,"lat":62.3419888999},"municipality":"HERØY","county":"MØRE OG ROMSDAL","suggestion":["HERØY","MØRE OG ROMSDAL","MENY Fosnavåg","6090","Fosnavåg"]}},{"distance":1,"store":{"id":7080000005055,"chainid":1300,"name":"Helgø MENY Mariero","link":"","description":"","location":{"latitude":58.934497886,"longitude":5.7394557643},"zipcode":"4017","zipcitycode":"STAVANGER","municipalitid":1103,"countyid":11,"regionname":"ROGALAND","services":"TRUMFBONUS, TIPPING","visitaddress":"Breidablikkvn. 3","phone":"51827700","fax":"51 82 77 21","email":"butikksjef.mariero@helgomeny.no","openinghours":{"days":[{"date":null,"label":"Hverdager","from":"07:00","to":"22:00"},{"date":null,"label":"Lørdag","from":"08:00","to":"21:00"},{"date":null,"label":"Søndag","from":"","to":""}],"special":[],"today":{"date":"2021-02-06","label":"Dagens åpningstider","from":"08:00","to":"21:00"},"isopenlate":false,"isopenonsunday":false},"istrumfactivated":true,"loc":{"lon":5.7394557643,"lat":58.934497886},"municipality":"STAVANGER","county":"ROGALAND","suggestion":["STAVANGER","ROGALAND","Helgø MENY Mariero","4017","MENY","Mariero"]}},{"distance":1,"store":{"id":7080001099312,"chainid":1300,"name":"MENY Tuven","link":"","description":"","location":{"latitude":59.5661906177,"longitude":9.2226644955},"zipcode":"3676","zipcitycode":"NOTODDEN","municipalitid":3808,"countyid":38,"regionname":"VESTRE ØSTLAND","services":"TRUMFBONUS","visitaddress":"Tuvenbøygen 2","phone":"35 02 90 70","fax":"35029077","email":"butikksjef.tuven@meny.no","openinghours":{"days":[{"date":null,"label":"Hverdager","from":"09:00","to":"20:00"},{"date":null,"label":"Lørdag","from":"09:00","to":"18:00"},{"date":null,"label":"Søndag","from":"","to":""}],"special":[],"today":{"date":"2021-02-06","label":"Dagens åpningstider","from":"09:00","to":"18:00"},"isopenlate":false,"isopenonsunday":false},"istrumfactivated":true,"loc":{"lon":9.2226644955,"lat":59.5661906177},"municipality":"NOTODDEN","county":"VESTFOLD OG TELEMARK","suggestion":["NOTODDEN","VESTFOLD OG TELEMARK","MENY Tuven","3676","Tuven"]}},{"distance":1,"store":{"id":7080000554492,"chainid":1300,"name":"MENY Wilbergjordet","link":"","description":"","location":{"latitude":59.2250232426,"longitude":10.9540595884},"zipcode":"1605","zipcitycode":"FREDRIKSTAD","municipalitid":3004,"countyid":30,"regionname":"ØST","services":"PIB, TRUMFBONUS, TIPPING","visitaddress":"Wilbergjordet 10","phone":"69366050","fax":"69366060","email":"butikksjef.wilbergjordet@meny.no","openinghours":{"days":[{"date":null,"label":"Hverdager","from":"07:00","to":"20:00"},{"date":null,"label":"Lørdag","from":"08:00","to":"20:00"},{"date":null,"label":"Søndag","from":"","to":""}],"special":[],"today":{"date":"2021-02-06","label":"Dagens åpningstider","from":"08:00","to":"20:00"},"isopenlate":false,"isopenonsunday":false},"istrumfactivated":true,"loc":{"lon":10.9540595884,"lat":59.2250232426},"municipality":"FREDRIKSTAD","county":"VIKEN","suggestion":["FREDRIKSTAD","VIKEN","MENY Wilbergjordet","1605","Wilbergjordet"]}},{"distance":1,"store":{"id":7080000003273,"chainid":1300,"name":"MENY Oppsal","link":"","description":"","location":{"latitude":59.8939855857,"longitude":10.8399548334},"zipcode":"0686","zipcitycode":"OSLO","municipalitid":301,"countyid":3,"regionname":"ØST","services":"TRUMFBONUS","visitaddress":"Haakon Tveters v 90","phone":"22757020","fax":null,"email":"butikksjef.oppsal@meny.no","openinghours":{"days":[{"date":null,"label":"Hverdager","from":"08:00","to":"22:00"},{"date":null,"label":"Lørdag","from":"09:00","to":"20:00"},{"date":null,"label":"Søndag","from":"","to":""}],"special":[],"today":{"date":"2021-02-06","label":"Dagens åpningstider","from":"09:00","to":"20:00"},"isopenlate":false,"isopenonsunday":false},"istrumfactivated":true,"loc":{"lon":10.8399548334,"lat":59.8939855857},"municipality":"OSLO","county":"OSLO","suggestion":["OSLO","OSLO","MENY Oppsal","0686","Oppsal"]}},{"distance":1,"store":{"id":7080001414092,"chainid":1300,"name":"MENY Torvet","link":"","description":"","location":{"latitude":58.1450286843,"longitude":7.9945385451},"zipcode":"4611","zipcitycode":"KRISTIANSAND S","municipalitid":4204,"countyid":42,"regionname":"SØR","services":"TRUMFBONUS","visitaddress":"Markensgate 14","phone":"38100999","fax":null,"email":"butikksjef.torvet@meny.no","openinghours":{"days":[{"date":null,"label":"Hverdager","from":"08:00","to":"21:00"},{"date":null,"label":"Lørdag","from":"08:00","to":"19:00"},{"date":null,"label":"Søndag","from":"","to":""}],"special":[],"today":{"date":"2021-02-06","label":"Dagens åpningstider","from":"08:00","to":"19:00"},"isopenlate":false,"isopenonsunday":false},"istrumfactivated":true,"loc":{"lon":7.9945385451,"lat":58.1450286843},"municipality":"KRISTIANSAND","county":"AGDER","suggestion":["KRISTIANSAND","AGDER","MENY Torvet","4611","Torvet"]}},{"distance":1,"store":{"id":7080001085186,"chainid":1300,"name":"MENY Gulskogen","link":"","description":"","location":{"latitude":59.742529,"longitude":10.157971},"zipcode":"3048","zipcitycode":"DRAMMEN","municipalitid":3005,"countyid":30,"regionname":"VESTRE ØSTLAND","services":"TRUMFBONUS","visitaddress":"Guldlisten 35","phone":"32884900","fax":null,"email":"butikksjef.gulskogen@meny.no","openinghours":{"days":[{"date":null,"label":"Hverdager","from":"08:00","to":"22:00"},{"date":null,"label":"Lørdag","from":"08:00","to":"20:00"},{"date":null,"label":"Søndag","from":"","to":""}],"special":[],"today":{"date":"2021-02-06","label":"Dagens åpningstider","from":"08:00","to":"20:00"},"isopenlate":false,"isopenonsunday":false},"istrumfactivated":true,"loc":{"lon":10.157971,"lat":59.742529},"municipality":"DRAMMEN","county":"VIKEN","suggestion":["DRAMMEN","VIKEN","MENY Gulskogen","3048","Gulskogen"]}},{"distance":1,"store":{"id":7080001135034,"chainid":1300,"name":"MENY Kuben","link":"","description":"","location":{"latitude":60.1647435615,"longitude":10.2546385155},"zipcode":"3510","zipcitycode":"HØNEFOSS","municipalitid":3007,"countyid":30,"regionname":"VESTRE ØSTLAND","services":"PIB, TRUMFBONUS, TIPPING","visitaddress":"Kong Ringsgate 1","phone":"32115800","fax":"32115801","email":"butikksjef.kuben@meny.no","openinghours":{"days":[{"date":null,"label":"Hverdager","from":"08:00","to":"20:00"},{"date":null,"label":"Lørdag","from":"09:00","to":"18:00"},{"date":null,"label":"Søndag","from":"","to":""}],"special":[],"today":{"date":"2021-02-06","label":"Dagens åpningstider","from":"09:00","to":"18:00"},"isopenlate":false,"isopenonsunday":false},"istrumfactivated":true,"loc":{"lon":10.2546385155,"lat":60.1647435615},"municipality":"RINGERIKE","county":"VIKEN","suggestion":["RINGERIKE","VIKEN","MENY Kuben","3510","Kuben"]}},{"distance":1,"store":{"id":7080000011162,"chainid":1300,"name":"MENY Vestkanten","link":"","description":"","location":{"latitude":60.3632207343,"longitude":5.2335810158},"zipcode":"5171","zipcitycode":"LODDEFJORD","municipalitid":4601,"countyid":46,"regionname":"VEST","services":"TRUMFBONUS, TIPPING","visitaddress":"Loddefjordveien 2","phone":"55 50 18 50","fax":"55 50 18 60","email":"butikksjef.vestkanten@meny.no","openinghours":{"days":[{"date":null,"label":"Hverdager","from":"09:00","to":"22:00"},{"date":null,"label":"Lørdag","from":"09:00","to":"20:00"},{"date":null,"label":"Søndag","from":"","to":""}],"special":[],"today":{"date":"2021-02-06","label":"Dagens åpningstider","from":"09:00","to":"20:00"},"isopenlate":false,"isopenonsunday":false},"istrumfactivated":true,"loc":{"lon":5.2335810158,"lat":60.3632207343},"municipality":"BERGEN","county":"VESTLAND","suggestion":["BERGEN","VESTLAND","MENY Vestkanten","5171","Vestkanten"]}},{"distance":1,"store":{"id":7080001150457,"chainid":1300,"name":"MENY Høvik","link":"","description":"","location":{"latitude":59.89917998,"longitude":10.5795134928},"zipcode":"1363","zipcitycode":"HØVIK","municipalitid":3024,"countyid":30,"regionname":"ØST","services":"PIB, TRUMFBONUS, TIPPING","visitaddress":"O. H. Bangsvei 5","phone":"67 10 24 00","fax":"67 10 24 10","email":"butikksjef.hovik@meny.no","openinghours":{"days":[{"date":null,"label":"Hverdager","from":"08:00","to":"22:00"},{"date":null,"label":"Lørdag","from":"08:00","to":"20:00"},{"date":null,"label":"Søndag","from":"","to":""}],"special":[],"today":{"date":"2021-02-06","label":"Dagens åpningstider","from":"08:00","to":"20:00"},"isopenlate":false,"isopenonsunday":false},"istrumfactivated":true,"loc":{"lon":10.5795134928,"lat":59.89917998},"municipality":"BÆRUM","county":"VIKEN","suggestion":["BÆRUM","VIKEN","MENY Høvik","1363","Høvik"]}},{"distance":1,"store":{"id":7080000028054,"chainid":1300,"name":"Lerøy Mat","link":"","description":"","location":{"latitude":60.3929259425,"longitude":5.324592978},"zipcode":"5014","zipcitycode":"BERGEN","municipalitid":4601,"countyid":46,"regionname":"VEST","services":"","visitaddress":"Torgalmeningen 8","phone":"55301930","fax":"55301939","email":"butikksjef.leroymat@ngbutikk.net","openinghours":{"days":[{"date":null,"label":"Hverdager","from":"09:00","to":"21:00"},{"date":null,"label":"Lørdag","from":"09:00","to":"18:00"},{"date":null,"label":"Søndag","from":"","to":""}],"special":[],"today":{"date":"2021-02-06","label":"Dagens åpningstider","from":"09:00","to":"18:00"},"isopenlate":false,"isopenonsunday":false},"istrumfactivated":false,"loc":{"lon":5.324592978,"lat":60.3929259425},"municipality":"BERGEN","county":"VESTLAND","suggestion":["BERGEN","VESTLAND","Lerøy Mat","5014","Mat"]}},{"distance":1,"store":{"id":7080000998326,"chainid":1300,"name":"MENY Voss","link":"","description":"","location":{"latitude":60.6288328557,"longitude":6.434967963},"zipcode":"5705","zipcitycode":"VOSS","municipalitid":4621,"countyid":46,"regionname":"VEST","services":"TRUMFBONUS","visitaddress":"Hardangervegen 25","phone":"56529700","fax":"56529701","email":"butikksjef.voss@meny.no","openinghours":{"days":[{"date":null,"label":"Hverdager","from":"08:00","to":"21:00"},{"date":null,"label":"Lørdag","from":"08:00","to":"20:00"},{"date":null,"label":"Søndag","from":"","to":""}],"special":[],"today":{"date":"2021-02-06","label":"Dagens åpningstider","from":"08:00","to":"20:00"},"isopenlate":false,"isopenonsunday":false},"istrumfactivated":true,"loc":{"lon":6.434967963,"lat":60.6288328557},"municipality":"VOSS","county":"VESTLAND","suggestion":["VOSS","VESTLAND","MENY Voss","5705","Voss"]}},{"distance":1,"store":{"id":7080001347918,"chainid":1300,"name":"MENY Nanset","link":"","description":"","location":{"latitude":59.0682946922,"longitude":10.0465386087},"zipcode":"3274","zipcitycode":"LARVIK","municipalitid":3805,"countyid":38,"regionname":"VESTRE ØSTLAND","services":"TRUMFBONUS","visitaddress":"Yttersøveien 2","phone":"33 16 51 00","fax":"33 16 51 01","email":"butikksjef.nansetlarvik@meny.no","openinghours":{"days":[{"date":null,"label":"Hverdager","from":"08:00","to":"21:00"},{"date":null,"label":"Lørdag","from":"08:00","to":"19:00"},{"date":null,"label":"Søndag","from":"","to":""}],"special":[],"today":{"date":"2021-02-06","label":"Dagens åpningstider","from":"08:00","to":"19:00"},"isopenlate":false,"isopenonsunday":false},"istrumfactivated":true,"loc":{"lon":10.0465386087,"lat":59.0682946922},"municipality":"LARVIK","county":"VESTFOLD OG TELEMARK","suggestion":["LARVIK","VESTFOLD OG TELEMARK","MENY Nanset","3274","Nanset"]}},{"distance":1,"store":{"id":7080001150433,"chainid":1300,"name":"MENY Sarpsborg","link":"","description":"","location":{"latitude":59.2842033466,"longitude":11.1081651817},"zipcode":"1723","zipcitycode":"SARPSBORG","municipalitid":3003,"countyid":30,"regionname":"ØST","services":"TRUMFBONUS","visitaddress":"Roald Amundsensgate 28","phone":"69 13 02 00","fax":"69130201","email":"butikksjef.sarpsborg@meny.no","openinghours":{"days":[{"date":null,"label":"Hverdager","from":"07:00","to":"20:00"},{"date":null,"label":"Lørdag","from":"09:00","to":"18:00"},{"date":null,"label":"Søndag","from":"","to":""}],"special":[],"today":{"date":"2021-02-06","label":"Dagens åpningstider","from":"09:00","to":"18:00"},"isopenlate":false,"isopenonsunday":false},"istrumfactivated":true,"loc":{"lon":11.1081651817,"lat":59.2842033466},"municipality":"SARPSBORG","county":"VIKEN","suggestion":["SARPSBORG","VIKEN","MENY Sarpsborg","1723","Sarpsborg"]}},{"distance":1,"store":{"id":7080001347154,"chainid":1300,"name":"MENY Romerikssenteret","link":"","description":"","location":{"latitude":60.0761272439,"longitude":11.1361171237},"zipcode":"2040","zipcitycode":"KLØFTA","municipalitid":3033,"countyid":30,"regionname":"ØST","services":"TRUMFBONUS","visitaddress":"Trondheimsvegen 86","phone":"63 94 27 00","fax":"63 94 27 01","email":"butikksjef.romerikssenteret@meny.no","openinghours":{"days":[{"date":null,"label":"Hverdager","from":"08:00","to":"21:00"},{"date":null,"label":"Lørdag","from":"09:00","to":"20:00"},{"date":null,"label":"Søndag","from":"","to":""}],"special":[],"today":{"date":"2021-02-06","label":"Dagens åpningstider","from":"09:00","to":"20:00"},"isopenlate":false,"isopenonsunday":false},"istrumfactivated":true,"loc":{"lon":11.1361171237,"lat":60.0761272439},"municipality":"ULLENSAKER","county":"VIKEN","suggestion":["ULLENSAKER","VIKEN","MENY Romerikssenteret","2040","Romerikssenteret"]}},{"distance":1,"store":{"id":7080001151973,"chainid":1300,"name":"MENY Lietorvet","link":"","description":"","location":{"latitude":59.2104054267,"longitude":9.6049671956},"zipcode":"3717","zipcitycode":"SKIEN","municipalitid":3807,"countyid":38,"regionname":"VESTRE ØSTLAND","services":"TRUMFBONUS","visitaddress":"Liegata 10 -12","phone":"35 91 56 60","fax":"35 91 56 61","email":"butikksjef.lietorvet@meny.no","openinghours":{"days":[{"date":null,"label":"Hverdager","from":"08:00","to":"21:00"},{"date":null,"label":"Lørdag","from":"08:00","to":"19:00"},{"date":null,"label":"Søndag","from":"","to":""}],"special":[],"today":{"date":"2021-02-06","label":"Dagens åpningstider","from":"08:00","to":"19:00"},"isopenlate":false,"isopenonsunday":false},"istrumfactivated":true,"loc":{"lon":9.6049671956,"lat":59.2104054267},"municipality":"SKIEN","county":"VESTFOLD OG TELEMARK","suggestion":["SKIEN","VESTFOLD OG TELEMARK","MENY Lietorvet","3717","Lietorvet"]}},{"distance":1,"store":{"id":7080000068647,"chainid":1300,"name":"MENY Trekanten","link":"","description":"","location":{"latitude":59.8363466657,"longitude":10.4345980728},"zipcode":"1383","zipcitycode":"ASKER","municipalitid":3025,"countyid":30,"regionname":"ØST","services":"TRUMFBONUS","visitaddress":"Trekanten Knud Askers v 20","phone":"66 76 47 00","fax":"66 76 47 01","email":"butikksjef.trekanten@meny.no","openinghours":{"days":[{"date":null,"label":"Hverdager","from":"08:00","to":"21:00"},{"date":null,"label":"Lørdag","from":"09:00","to":"19:00"},{"date":null,"label":"Søndag","from":"","to":""}],"special":[],"today":{"date":"2021-02-06","label":"Dagens åpningstider","from":"09:00","to":"19:00"},"isopenlate":false,"isopenonsunday":false},"istrumfactivated":true,"loc":{"lon":10.4345980728,"lat":59.8363466657},"municipality":"ASKER","county":"VIKEN","suggestion":["ASKER","VIKEN","MENY Trekanten","1383","Trekanten"]}},{"distance":1,"store":{"id":7080001373399,"chainid":1300,"name":"MENY Brotorvet","link":"","description":"","location":{"latitude":59.0458661107,"longitude":9.6938713941},"zipcode":"3960","zipcitycode":"STATHELLE","municipalitid":3813,"countyid":38,"regionname":"VESTRE ØSTLAND","services":"TRUMFBONUS","visitaddress":"Gangveien 10","phone":"35963680","fax":"35963681","email":"butikksjef.brotorvet@meny.no","openinghours":{"days":[{"date":null,"label":"Hverdager","from":"08:00","to":"21:00"},{"date":null,"label":"Lørdag","from":"08:00","to":"19:00"},{"date":null,"label":"Søndag","from":"","to":""}],"special":[],"today":{"date":"2021-02-06","label":"Dagens åpningstider","from":"08:00","to":"19:00"},"isopenlate":false,"isopenonsunday":false},"istrumfactivated":true,"loc":{"lon":9.6938713941,"lat":59.0458661107},"municipality":"BAMBLE","county":"VESTFOLD OG TELEMARK","suggestion":["BAMBLE","VESTFOLD OG TELEMARK","MENY Brotorvet","3960","Brotorvet"]}},{"distance":1,"store":{"id":7080001151652,"chainid":1300,"name":"MENY Tvedestrand","link":"","description":"","location":{"latitude":58.6287370686,"longitude":8.9158057855},"zipcode":"4900","zipcitycode":"TVEDESTRAND","municipalitid":4213,"countyid":42,"regionname":"SØR","services":"PIB, TRUMFBONUS","visitaddress":"Industriveien 8","phone":"37199200","fax":"37199201","email":"butikksjef.tvedestrand@meny.no","openinghours":{"days":[{"date":null,"label":"Hverdager","from":"07:00","to":"22:00"},{"date":null,"label":"Lørdag","from":"07:00","to":"22:00"},{"date":null,"label":"Søndag","from":"","to":""}],"special":[],"today":{"date":"2021-02-06","label":"Dagens åpningstider","from":"07:00","to":"22:00"},"isopenlate":false,"isopenonsunday":false},"istrumfactivated":true,"loc":{"lon":8.9158057855,"lat":58.6287370686},"municipality":"TVEDESTRAND","county":"AGDER","suggestion":["TVEDESTRAND","AGDER","MENY Tvedestrand","4900","Tvedestrand"]}},{"distance":1,"store":{"id":7080001161262,"chainid":1300,"name":"MENY Ringnes Park","link":"","description":"","location":{"latitude":59.9285850577,"longitude":10.7605040756},"zipcode":"0555","zipcitycode":"OSLO","municipalitid":301,"countyid":3,"regionname":"ØST","services":"TRUMFBONUS","visitaddress":"Sannergata 6 C","phone":"22 38 70 00","fax":"22 38 70 01","email":"butikksjef.ringnespark@meny.no","openinghours":{"days":[{"date":null,"label":"Hverdager","from":"08:00","to":"22:00"},{"date":null,"label":"Lørdag","from":"08:00","to":"21:00"},{"date":null,"label":"Søndag","from":"","to":""}],"special":[],"today":{"date":"2021-02-06","label":"Dagens åpningstider","from":"08:00","to":"21:00"},"isopenlate":false,"isopenonsunday":false},"istrumfactivated":true,"loc":{"lon":10.7605040756,"lat":59.9285850577},"municipality":"OSLO","county":"OSLO","suggestion":["OSLO","OSLO","MENY Ringnes Park","0555","Ringnes","Park"]}},{"distance":1,"store":{"id":7080001008543,"chainid":1300,"name":"MENY Bø","link":"","description":"","location":{"latitude":59.4113100476,"longitude":9.0708281245},"zipcode":"3800","zipcitycode":"BØ I TELEMARK","municipalitid":3817,"countyid":38,"regionname":"VESTRE ØSTLAND","services":"TRUMFBONUS","visitaddress":"Stasjonsveien 28","phone":"35060150","fax":"35 95 18 03","email":"butikksjef.bo@meny.no","openinghours":{"days":[{"date":null,"label":"Hverdager","from":"09:00","to":"21:00"},{"date":null,"label":"Lørdag","from":"09:00","to":"20:00"},{"date":null,"label":"Søndag","from":"","to":""}],"special":[],"today":{"date":"2021-02-06","label":"Dagens åpningstider","from":"09:00","to":"20:00"},"isopenlate":false,"isopenonsunday":false},"istrumfactivated":true,"loc":{"lon":9.0708281245,"lat":59.4113100476},"municipality":"MIDT-TELEMARK","county":"VESTFOLD OG TELEMARK","suggestion":["MIDT-TELEMARK","VESTFOLD OG TELEMARK","MENY Bø","3800","Bø"]}}
