[
  {
    "city": "Oslo",
    "lat": 59.916667,
    "lng": 10.75,
    "country": "Norway",
    "iso2": "NO",
    "admin": "Oslo",
    "capital": "primary",
    "population": 835000,
    "population_proper": 580000
  },
  {
    "city": "Bergen",
    "lat": 60.391111,
    "lng": 5.324722,
    "country": "Norway",
    "iso2": "NO",
    "admin": "Hordaland",
    "capital": "admin",
    "population": 213585,
    "population_proper": 187194
  },
  {
    "city": "Stavanger",
    "lat": 58.966667,
    "lng": 5.75,
    "country": "Norway",
    "iso2": "NO",
    "admin": "Rogaland",
    "capital": "admin",
    "population": 173132,
    "population_proper": 100866
  },
  {
    "city": "Trondheim",
    "lat": 63.416667,
    "lng": 10.416667,
    "country": "Norway",
    "iso2": "NO",
    "admin": "Sør-Trøndelag",
    "capital": "admin",
    "population": 147139,
    "population_proper": 141533
  },
  {
    "city": "Drammen",
    "lat": 59.7425,
    "lng": 10.211667,
    "country": "Norway",
    "iso2": "NO",
    "admin": "Buskerud",
    "capital": "admin",
    "population": 90722,
    "population_proper": 80153
  },
  {
    "city": "Skyer",
    "lat": 59.2,
    "lng": 9.683333,
    "country": "Norway",
    "iso2": "NO",
    "admin": "Telemark",
    "capital": "",
    "population": 73330,
    "population_proper": 73330
  },
  {
    "city": "Kristiansand",
    "lat": 58.166667,
    "lng": 8,
    "country": "Norway",
    "iso2": "NO",
    "admin": "Vest-Agder",
    "capital": "admin",
    "population": 63814,
    "population_proper": 52770
  },
  {
    "city": "Tomasjorda",
    "lat": 69.666667,
    "lng": 19.016667,
    "country": "Norway",
    "iso2": "NO",
    "admin": "Troms",
    "capital": "",
    "population": 52436,
    "population_proper": 45365
  },
  {
    "city": "Ålesund",
    "lat": 62.47276,
    "lng": 6.15346,
    "country": "Norway",
    "iso2": "NO",
    "admin": "Møre og Romsdal",
    "capital": "minor",
    "population": 47772,
    "population_proper": 42982
  },
  {
    "city": "Sandnes",
    "lat": 58.85,
    "lng": 5.733333,
    "country": "Norway",
    "iso2": "NO",
    "admin": "Rogaland",
    "capital": "minor",
    "population": 46911,
    "population_proper": 46911
  },
  {
    "city": "Haugesund",
    "lat": 59.411944,
    "lng": 5.2775,
    "country": "Norway",
    "iso2": "NO",
    "admin": "Rogaland",
    "capital": "minor",
    "population": 40321,
    "population_proper": 32118
  },
  {
    "city": "Tønsberg",
    "lat": 59.285833,
    "lng": 10.418056,
    "country": "Norway",
    "iso2": "NO",
    "admin": "Vestfold",
    "capital": "admin",
    "population": 38914,
    "population_proper": 38914
  },
  {
    "city": "Moss",
    "lat": 59.436667,
    "lng": 10.669167,
    "country": "Norway",
    "iso2": "NO",
    "admin": "Østfold",
    "capital": "minor",
    "population": 36901,
    "population_proper": 34492
  },
  {
    "city": "Bodø",
    "lat": 67.283333,
    "lng": 14.383333,
    "country": "Norway",
    "iso2": "NO",
    "admin": "Nordland",
    "capital": "admin",
    "population": 34073,
    "population_proper": 28694
  },
  {
    "city": "Arendal",
    "lat": 58.460278,
    "lng": 8.766667,
    "country": "Norway",
    "iso2": "NO",
    "admin": "Aust-Agder",
    "capital": "admin",
    "population": 30916,
    "population_proper": 30916
  },
  {
    "city": "Hamar",
    "lat": 60.8,
    "lng": 11.1,
    "country": "Norway",
    "iso2": "NO",
    "admin": "Hedmark",
    "capital": "admin",
    "population": 29479,
    "population_proper": 29479
  },
  {
    "city": "Gjøvik",
    "lat": 60.8,
    "lng": 10.7,
    "country": "Norway",
    "iso2": "NO",
    "admin": "Oppland",
    "capital": "minor",
    "population": 22719,
    "population_proper": 17596
  },
  {
    "city": "Mo i Rana",
    "lat": 66.316667,
    "lng": 14.166667,
    "country": "Norway",
    "iso2": "NO",
    "admin": "Nordland",
    "capital": "minor",
    "population": 20409,
    "population_proper": 17853
  },
  {
    "city": "Narvik",
    "lat": 68.435556,
    "lng": 17.437222,
    "country": "Norway",
    "iso2": "NO",
    "admin": "Nordland",
    "capital": "minor",
    "population": 20000,
    "population_proper": 18473
  },
  {
    "city": "Lillehammer",
    "lat": 61.133333,
    "lng": 10.5,
    "country": "Norway",
    "iso2": "NO",
    "admin": "Oppland",
    "capital": "admin",
    "population": 19542,
    "population_proper": 19096
  },
  {
    "city": "Harstad",
    "lat": 68.8025,
    "lng": 16.545556,
    "country": "Norway",
    "iso2": "NO",
    "admin": "Troms",
    "capital": "minor",
    "population": 19433,
    "population_proper": 18973
  },
  {
    "city": "Molde",
    "lat": 62.733333,
    "lng": 7.183333,
    "country": "Norway",
    "iso2": "NO",
    "admin": "Møre og Romsdal",
    "capital": "admin",
    "population": 18594,
    "population_proper": 13749
  },
  {
    "city": "Alta",
    "lat": 69.966667,
    "lng": 23.241667,
    "country": "Norway",
    "iso2": "NO",
    "admin": "Finnmark",
    "capital": "minor",
    "population": 12077,
    "population_proper": 12077
  },
  {
    "city": "Steinkjer",
    "lat": 64.016667,
    "lng": 11.5,
    "country": "Norway",
    "iso2": "NO",
    "admin": "Nord-Trøndelag",
    "capital": "admin",
    "population": 11274,
    "population_proper": 11113
  },
  {
    "city": "Hammerfest",
    "lat": 70.661667,
    "lng": 23.688333,
    "country": "Norway",
    "iso2": "NO",
    "admin": "Finnmark",
    "capital": "minor",
    "population": 10000,
    "population_proper": 9934
  },
  {
    "city": "Namsos",
    "lat": 64.483333,
    "lng": 11.5,
    "country": "Norway",
    "iso2": "NO",
    "admin": "Nord-Trøndelag",
    "capital": "minor",
    "population": 9035,
    "population_proper": 9035
  },
  {
    "city": "Vossevangen",
    "lat": 60.633333,
    "lng": 6.433333,
    "country": "Norway",
    "iso2": "NO",
    "admin": "Hordaland",
    "capital": "",
    "population": 5571,
    "population_proper": 5571
  },
  {
    "city": "Vadsø",
    "lat": 70.073056,
    "lng": 29.769722,
    "country": "Norway",
    "iso2": "NO",
    "admin": "Finnmark",
    "capital": "admin",
    "population": 5139,
    "population_proper": 5139
  },
  {
    "city": "Svolvær",
    "lat": 68.233333,
    "lng": 14.566667,
    "country": "Norway",
    "iso2": "NO",
    "admin": "Nordland",
    "capital": "minor",
    "population": 4197,
    "population_proper": 4197
  },
  {
    "city": "Finnsnes",
    "lat": 69.233333,
    "lng": 17.983333,
    "country": "Norway",
    "iso2": "NO",
    "admin": "Troms",
    "capital": "minor",
    "population": 3907,
    "population_proper": 3315
  },
  {
    "city": "Kirkenes",
    "lat": 69.725,
    "lng": 30.051667,
    "country": "Norway",
    "iso2": "NO",
    "admin": "Finnmark",
    "capital": "minor",
    "population": 3282,
    "population_proper": 2174
  },
  {
    "city": "Rørvik",
    "lat": 64.85,
    "lng": 11.233333,
    "country": "Norway",
    "iso2": "NO",
    "admin": "Nord-Trøndelag",
    "capital": "minor",
    "population": 2615,
    "population_proper": 2615
  },
  {
    "city": "Hermansverk",
    "lat": 61.183333,
    "lng": 6.85,
    "country": "Norway",
    "iso2": "NO",
    "admin": "Sogn og Fjordane",
    "capital": "admin",
    "population": 1965,
    "population_proper": 1965
  },
  {
    "city": "Skogsvåg",
    "lat": 60.25559,
    "lng": 5.10167,
    "country": "Norway",
    "iso2": "NO",
    "admin": "Hordaland",
    "capital": "minor",
    "population": "",
    "population_proper": ""
  },
  {
    "city": "Noresund",
    "lat": 60.166667,
    "lng": 9.616667,
    "country": "Norway",
    "iso2": "NO",
    "admin": "Buskerud",
    "capital": "minor",
    "population": "",
    "population_proper": ""
  },
  {
    "city": "Sandnessjøen",
    "lat": 66.016667,
    "lng": 12.633333,
    "country": "Norway",
    "iso2": "NO",
    "admin": "Nordland",
    "capital": "minor",
    "population": "",
    "population_proper": ""
  },
  {
    "city": "Hansnes",
    "lat": 69.966667,
    "lng": 19.6,
    "country": "Norway",
    "iso2": "NO",
    "admin": "Troms",
    "capital": "minor",
    "population": "",
    "population_proper": ""
  },
  {
    "city": "Råde",
    "lat": 59.35,
    "lng": 10.85,
    "country": "Norway",
    "iso2": "NO",
    "admin": "Østfold",
    "capital": "minor",
    "population": "",
    "population_proper": ""
  },
  {
    "city": "Tingvoll",
    "lat": 62.913056,
    "lng": 8.205556,
    "country": "Norway",
    "iso2": "NO",
    "admin": "Møre og Romsdal",
    "capital": "minor",
    "population": "",
    "population_proper": ""
  },
  {
    "city": "Årdalstangen",
    "lat": 61.233333,
    "lng": 7.716667,
    "country": "Norway",
    "iso2": "NO",
    "admin": "Sogn og Fjordane",
    "capital": "minor",
    "population": "",
    "population_proper": ""
  },
  {
    "city": "Rosendal",
    "lat": 59.983333,
    "lng": 6.016667,
    "country": "Norway",
    "iso2": "NO",
    "admin": "Hordaland",
    "capital": "minor",
    "population": "",
    "population_proper": ""
  },
  {
    "city": "Batnfjordsøra",
    "lat": 62.883333,
    "lng": 7.7,
    "country": "Norway",
    "iso2": "NO",
    "admin": "Møre og Romsdal",
    "capital": "minor",
    "population": "",
    "population_proper": ""
  },
  {
    "city": "Namdalseid",
    "lat": 64.22287,
    "lng": 11.22102,
    "country": "Norway",
    "iso2": "NO",
    "admin": "Nord-Trøndelag",
    "capital": "minor",
    "population": "",
    "population_proper": ""
  },
  {
    "city": "Jaren",
    "lat": 60.383333,
    "lng": 10.55,
    "country": "Norway",
    "iso2": "NO",
    "admin": "Oppland",
    "capital": "minor",
    "population": "",
    "population_proper": ""
  },
  {
    "city": "Hov",
    "lat": 60.7,
    "lng": 10.35,
    "country": "Norway",
    "iso2": "NO",
    "admin": "Oppland",
    "capital": "minor",
    "population": "",
    "population_proper": ""
  },
  {
    "city": "Kragerø",
    "lat": 58.866667,
    "lng": 9.416667,
    "country": "Norway",
    "iso2": "NO",
    "admin": "Telemark",
    "capital": "minor",
    "population": "",
    "population_proper": ""
  },
  {
    "city": "Stranda",
    "lat": 62.316667,
    "lng": 6.9,
    "country": "Norway",
    "iso2": "NO",
    "admin": "Møre og Romsdal",
    "capital": "minor",
    "population": "",
    "population_proper": ""
  },
  {
    "city": "Gratangen",
    "lat": 68.65,
    "lng": 17.683333,
    "country": "Norway",
    "iso2": "NO",
    "admin": "Troms",
    "capital": "minor",
    "population": "",
    "population_proper": ""
  },
  {
    "city": "Valldal",
    "lat": 62.333333,
    "lng": 7.35,
    "country": "Norway",
    "iso2": "NO",
    "admin": "Møre og Romsdal",
    "capital": "minor",
    "population": "",
    "population_proper": ""
  },
  {
    "city": "Ulefoss",
    "lat": 59.283333,
    "lng": 9.266667,
    "country": "Norway",
    "iso2": "NO",
    "admin": "Telemark",
    "capital": "minor",
    "population": "",
    "population_proper": ""
  },
  {
    "city": "Våler",
    "lat": 60.666667,
    "lng": 11.833333,
    "country": "Norway",
    "iso2": "NO",
    "admin": "Hedmark",
    "capital": "minor",
    "population": "",
    "population_proper": ""
  },
  {
    "city": "Drøbak",
    "lat": 59.663333,
    "lng": 10.631111,
    "country": "Norway",
    "iso2": "NO",
    "admin": "Akershus",
    "capital": "minor",
    "population": "",
    "population_proper": ""
  },
  {
    "city": "Hokksund",
    "lat": 59.77187,
    "lng": 9.88385,
    "country": "Norway",
    "iso2": "NO",
    "admin": "Buskerud",
    "capital": "minor",
    "population": "",
    "population_proper": ""
  },
  {
    "city": "Lurøy",
    "lat": 66.417,
    "lng": 12.84472,
    "country": "Norway",
    "iso2": "NO",
    "admin": "Nordland",
    "capital": "minor",
    "population": "",
    "population_proper": ""
  },
  {
    "city": "Vik",
    "lat": 65.3,
    "lng": 12.15,
    "country": "Norway",
    "iso2": "NO",
    "admin": "Nordland",
    "capital": "minor",
    "population": "",
    "population_proper": ""
  },
  {
    "city": "Tysse",
    "lat": 60.370833,
    "lng": 5.756111,
    "country": "Norway",
    "iso2": "NO",
    "admin": "Hordaland",
    "capital": "minor",
    "population": "",
    "population_proper": ""
  },
  {
    "city": "Kleppe",
    "lat": 58.766667,
    "lng": 5.666667,
    "country": "Norway",
    "iso2": "NO",
    "admin": "Rogaland",
    "capital": "minor",
    "population": "",
    "population_proper": ""
  },
  {
    "city": "Skjåk",
    "lat": 61.88105,
    "lng": 8.36928,
    "country": "Norway",
    "iso2": "NO",
    "admin": "Oppland",
    "capital": "minor",
    "population": "",
    "population_proper": ""
  },
  {
    "city": "Vågå",
    "lat": 61.86877,
    "lng": 9.12332,
    "country": "Norway",
    "iso2": "NO",
    "admin": "Oppland",
    "capital": "minor",
    "population": "",
    "population_proper": ""
  },
  {
    "city": "Åseral",
    "lat": 58.616667,
    "lng": 7.416667,
    "country": "Norway",
    "iso2": "NO",
    "admin": "Vest-Agder",
    "capital": "minor",
    "population": "",
    "population_proper": ""
  },
  {
    "city": "Langesund",
    "lat": 59,
    "lng": 9.75,
    "country": "Norway",
    "iso2": "NO",
    "admin": "Telemark",
    "capital": "minor",
    "population": "",
    "population_proper": ""
  },
  {
    "city": "Sørumsand",
    "lat": 59.966667,
    "lng": 11.25,
    "country": "Norway",
    "iso2": "NO",
    "admin": "Akershus",
    "capital": "minor",
    "population": "",
    "population_proper": ""
  },
  {
    "city": "Randaberg",
    "lat": 59,
    "lng": 5.6,
    "country": "Norway",
    "iso2": "NO",
    "admin": "Rogaland",
    "capital": "minor",
    "population": "",
    "population_proper": ""
  },
  {
    "city": "Treungen",
    "lat": 59.033333,
    "lng": 8.55,
    "country": "Norway",
    "iso2": "NO",
    "admin": "Telemark",
    "capital": "minor",
    "population": "",
    "population_proper": ""
  },
  {
    "city": "Ølen",
    "lat": 59.603611,
    "lng": 5.8075,
    "country": "Norway",
    "iso2": "NO",
    "admin": "Rogaland",
    "capital": "minor",
    "population": "",
    "population_proper": ""
  },
  {
    "city": "Sykkylven",
    "lat": 62.39723,
    "lng": 6.58321,
    "country": "Norway",
    "iso2": "NO",
    "admin": "Møre og Romsdal",
    "capital": "minor",
    "population": "",
    "population_proper": ""
  },
  {
    "city": "Ål",
    "lat": 60.633333,
    "lng": 8.566667,
    "country": "Norway",
    "iso2": "NO",
    "admin": "Buskerud",
    "capital": "minor",
    "population": "",
    "population_proper": ""
  },
  {
    "city": "Kongsberg",
    "lat": 59.65,
    "lng": 9.65,
    "country": "Norway",
    "iso2": "NO",
    "admin": "Buskerud",
    "capital": "minor",
    "population": "",
    "population_proper": ""
  },
  {
    "city": "Ski",
    "lat": 59.716667,
    "lng": 10.833333,
    "country": "Norway",
    "iso2": "NO",
    "admin": "Akershus",
    "capital": "minor",
    "population": "",
    "population_proper": ""
  },
  {
    "city": "Dale",
    "lat": 60.583333,
    "lng": 5.816667,
    "country": "Norway",
    "iso2": "NO",
    "admin": "Hordaland",
    "capital": "minor",
    "population": "",
    "population_proper": ""
  },
  {
    "city": "Lyngdal",
    "lat": 58.133333,
    "lng": 7.083333,
    "country": "Norway",
    "iso2": "NO",
    "admin": "Vest-Agder",
    "capital": "minor",
    "population": "",
    "population_proper": ""
  },
  {
    "city": "Kongsvinger",
    "lat": 60.2,
    "lng": 12,
    "country": "Norway",
    "iso2": "NO",
    "admin": "Hedmark",
    "capital": "minor",
    "population": "",
    "population_proper": ""
  },
  {
    "city": "Brøstadbotn",
    "lat": 69.079444,
    "lng": 17.701389,
    "country": "Norway",
    "iso2": "NO",
    "admin": "Troms",
    "capital": "minor",
    "population": "",
    "population_proper": ""
  },
  {
    "city": "Sør-Fron",
    "lat": 61.566667,
    "lng": 9.933333,
    "country": "Norway",
    "iso2": "NO",
    "admin": "Oppland",
    "capital": "minor",
    "population": "",
    "population_proper": ""
  },
  {
    "city": "Oppdal",
    "lat": 62.6,
    "lng": 9.666667,
    "country": "Norway",
    "iso2": "NO",
    "admin": "Sør-Trøndelag",
    "capital": "minor",
    "population": "",
    "population_proper": ""
  },
  {
    "city": "Bjørkelangen",
    "lat": 59.883333,
    "lng": 11.566667,
    "country": "Norway",
    "iso2": "NO",
    "admin": "Akershus",
    "capital": "minor",
    "population": "",
    "population_proper": ""
  },
  {
    "city": "Alvdal",
    "lat": 62.116667,
    "lng": 10.65,
    "country": "Norway",
    "iso2": "NO",
    "admin": "Hedmark",
    "capital": "minor",
    "population": "",
    "population_proper": ""
  },
  {
    "city": "Brekstad",
    "lat": 63.683333,
    "lng": 9.683333,
    "country": "Norway",
    "iso2": "NO",
    "admin": "Sør-Trøndelag",
    "capital": "minor",
    "population": "",
    "population_proper": ""
  },
  {
    "city": "Iveland",
    "lat": 58.44727,
    "lng": 7.91631,
    "country": "Norway",
    "iso2": "NO",
    "admin": "Aust-Agder",
    "capital": "minor",
    "population": "",
    "population_proper": ""
  },
  {
    "city": "Storslett",
    "lat": 69.766667,
    "lng": 21.016667,
    "country": "Norway",
    "iso2": "NO",
    "admin": "Troms",
    "capital": "minor",
    "population": "",
    "population_proper": ""
  },
  {
    "city": "Søgne",
    "lat": 58.083333,
    "lng": 7.816667,
    "country": "Norway",
    "iso2": "NO",
    "admin": "Vest-Agder",
    "capital": "minor",
    "population": "",
    "population_proper": ""
  },
  {
    "city": "Rena",
    "lat": 61.133333,
    "lng": 11.366667,
    "country": "Norway",
    "iso2": "NO",
    "admin": "Hedmark",
    "capital": "minor",
    "population": "",
    "population_proper": ""
  },
  {
    "city": "Evje",
    "lat": 58.6,
    "lng": 7.85,
    "country": "Norway",
    "iso2": "NO",
    "admin": "Aust-Agder",
    "capital": "minor",
    "population": "",
    "population_proper": ""
  },
  {
    "city": "Brønnøysund",
    "lat": 65.466667,
    "lng": 12.216667,
    "country": "Norway",
    "iso2": "NO",
    "admin": "Nordland",
    "capital": "minor",
    "population": "",
    "population_proper": ""
  },
  {
    "city": "Selbu",
    "lat": 63.21654,
    "lng": 11.03954,
    "country": "Norway",
    "iso2": "NO",
    "admin": "Sør-Trøndelag",
    "capital": "minor",
    "population": "",
    "population_proper": ""
  },
  {
    "city": "Nesna",
    "lat": 66.2,
    "lng": 13.033333,
    "country": "Norway",
    "iso2": "NO",
    "admin": "Nordland",
    "capital": "minor",
    "population": "",
    "population_proper": ""
  },
  {
    "city": "Nannestad",
    "lat": 60.212364,
    "lng": 11.004408,
    "country": "Norway",
    "iso2": "NO",
    "admin": "Akershus",
    "capital": "minor",
    "population": "",
    "population_proper": ""
  },
  {
    "city": "Andenes",
    "lat": 69.320278,
    "lng": 16.142778,
    "country": "Norway",
    "iso2": "NO",
    "admin": "Nordland",
    "capital": "minor",
    "population": "",
    "population_proper": ""
  },
  {
    "city": "Borkenes",
    "lat": 68.783333,
    "lng": 16.183333,
    "country": "Norway",
    "iso2": "NO",
    "admin": "Troms",
    "capital": "minor",
    "population": "",
    "population_proper": ""
  },
  {
    "city": "Bremnes",
    "lat": 59.795278,
    "lng": 5.175278,
    "country": "Norway",
    "iso2": "NO",
    "admin": "Hordaland",
    "capital": "minor",
    "population": "",
    "population_proper": ""
  },
  {
    "city": "Jevnaker",
    "lat": 60.25,
    "lng": 10.466667,
    "country": "Norway",
    "iso2": "NO",
    "admin": "Oppland",
    "capital": "minor",
    "population": "",
    "population_proper": ""
  },
  {
    "city": "Bruflat",
    "lat": 60.883333,
    "lng": 9.616667,
    "country": "Norway",
    "iso2": "NO",
    "admin": "Oppland",
    "capital": "minor",
    "population": "",
    "population_proper": ""
  },
  {
    "city": "Stokmarknes",
    "lat": 68.561944,
    "lng": 14.908611,
    "country": "Norway",
    "iso2": "NO",
    "admin": "Nordland",
    "capital": "minor",
    "population": "",
    "population_proper": ""
  },
  {
    "city": "Kjøllefjord",
    "lat": 70.933333,
    "lng": 27.35,
    "country": "Norway",
    "iso2": "NO",
    "admin": "Finnmark",
    "capital": "minor",
    "population": "",
    "population_proper": ""
  },
  {
    "city": "Røyrvik",
    "lat": 64.883333,
    "lng": 13.55,
    "country": "Norway",
    "iso2": "NO",
    "admin": "Nord-Trøndelag",
    "capital": "minor",
    "population": "",
    "population_proper": ""
  },
  {
    "city": "Fiskå",
    "lat": 62.09988,
    "lng": 5.55656,
    "country": "Norway",
    "iso2": "NO",
    "admin": "Møre og Romsdal",
    "capital": "minor",
    "population": "",
    "population_proper": ""
  },
  {
    "city": "Rognan",
    "lat": 67.1,
    "lng": 15.383333,
    "country": "Norway",
    "iso2": "NO",
    "admin": "Nordland",
    "capital": "minor",
    "population": "",
    "population_proper": ""
  },
  {
    "city": "Hommelvik",
    "lat": 63.416667,
    "lng": 10.8,
    "country": "Norway",
    "iso2": "NO",
    "admin": "Sør-Trøndelag",
    "capital": "minor",
    "population": "",
    "population_proper": ""
  },
  {
    "city": "Volda",
    "lat": 62.15,
    "lng": 6.1,
    "country": "Norway",
    "iso2": "NO",
    "admin": "Møre og Romsdal",
    "capital": "minor",
    "population": "",
    "population_proper": ""
  },
  {
    "city": "Alstad",
    "lat": 63.58519,
    "lng": 10.73769,
    "country": "Norway",
    "iso2": "NO",
    "admin": "Nord-Trøndelag",
    "capital": "minor",
    "population": "",
    "population_proper": ""
  },
  {
    "city": "Valderhaug",
    "lat": 62.49853,
    "lng": 6.12775,
    "country": "Norway",
    "iso2": "NO",
    "admin": "Møre og Romsdal",
    "capital": "minor",
    "population": "",
    "population_proper": ""
  },
  {
    "city": "Surnadal",
    "lat": 62.97544,
    "lng": 8.72457,
    "country": "Norway",
    "iso2": "NO",
    "admin": "Møre og Romsdal",
    "capital": "minor",
    "population": "",
    "population_proper": ""
  },
  {
    "city": "Hauge",
    "lat": 58.35,
    "lng": 6.283333,
    "country": "Norway",
    "iso2": "NO",
    "admin": "Rogaland",
    "capital": "minor",
    "population": "",
    "population_proper": ""
  },
  {
    "city": "Bø",
    "lat": 59.416667,
    "lng": 9.066667,
    "country": "Norway",
    "iso2": "NO",
    "admin": "Telemark",
    "capital": "minor",
    "population": "",
    "population_proper": ""
  },
  {
    "city": "Gryllefjord",
    "lat": 69.366667,
    "lng": 17.016667,
    "country": "Norway",
    "iso2": "NO",
    "admin": "Troms",
    "capital": "minor",
    "population": "",
    "population_proper": ""
  },
  {
    "city": "Kopervik",
    "lat": 59.283333,
    "lng": 5.3,
    "country": "Norway",
    "iso2": "NO",
    "admin": "Rogaland",
    "capital": "minor",
    "population": "",
    "population_proper": ""
  },
  {
    "city": "Gjerstad",
    "lat": 58.866667,
    "lng": 9,
    "country": "Norway",
    "iso2": "NO",
    "admin": "Aust-Agder",
    "capital": "minor",
    "population": "",
    "population_proper": ""
  },
  {
    "city": "Leksvik",
    "lat": 63.67267,
    "lng": 10.62948,
    "country": "Norway",
    "iso2": "NO",
    "admin": "Nord-Trøndelag",
    "capital": "minor",
    "population": "",
    "population_proper": ""
  },
  {
    "city": "Kvalsund",
    "lat": 70.5025,
    "lng": 23.988056,
    "country": "Norway",
    "iso2": "NO",
    "admin": "Finnmark",
    "capital": "minor",
    "population": "",
    "population_proper": ""
  },
  {
    "city": "Ås",
    "lat": 63.05,
    "lng": 11.65,
    "country": "Norway",
    "iso2": "NO",
    "admin": "Sør-Trøndelag",
    "capital": "minor",
    "population": "",
    "population_proper": ""
  },
  {
    "city": "Reine",
    "lat": 67.93372,
    "lng": 13.08914,
    "country": "Norway",
    "iso2": "NO",
    "admin": "Nordland",
    "capital": "minor",
    "population": "",
    "population_proper": ""
  },
  {
    "city": "Brattvåg",
    "lat": 62.6,
    "lng": 6.45,
    "country": "Norway",
    "iso2": "NO",
    "admin": "Møre og Romsdal",
    "capital": "minor",
    "population": "",
    "population_proper": ""
  },
  {
    "city": "Støren",
    "lat": 63.03718,
    "lng": 10.28558,
    "country": "Norway",
    "iso2": "NO",
    "admin": "Sør-Trøndelag",
    "capital": "minor",
    "population": "",
    "population_proper": ""
  },
  {
    "city": "Meldal",
    "lat": 63.04613,
    "lng": 9.71033,
    "country": "Norway",
    "iso2": "NO",
    "admin": "Sør-Trøndelag",
    "capital": "minor",
    "population": "",
    "population_proper": ""
  },
  {
    "city": "Larsnes",
    "lat": 62.216667,
    "lng": 5.6,
    "country": "Norway",
    "iso2": "NO",
    "admin": "Møre og Romsdal",
    "capital": "minor",
    "population": "",
    "population_proper": ""
  },
  {
    "city": "Lena",
    "lat": 60.666667,
    "lng": 10.8,
    "country": "Norway",
    "iso2": "NO",
    "admin": "Oppland",
    "capital": "minor",
    "population": "",
    "population_proper": ""
  },
  {
    "city": "Sørland",
    "lat": 67.666667,
    "lng": 12.7,
    "country": "Norway",
    "iso2": "NO",
    "admin": "Nordland",
    "capital": "minor",
    "population": "",
    "population_proper": ""
  },
  {
    "city": "Steinshamn",
    "lat": 62.783333,
    "lng": 6.483333,
    "country": "Norway",
    "iso2": "NO",
    "admin": "Møre og Romsdal",
    "capital": "minor",
    "population": "",
    "population_proper": ""
  },
  {
    "city": "Skjervøy",
    "lat": 70.033333,
    "lng": 20.983333,
    "country": "Norway",
    "iso2": "NO",
    "admin": "Troms",
    "capital": "minor",
    "population": "",
    "population_proper": ""
  },
  {
    "city": "Skarnes",
    "lat": 60.25,
    "lng": 11.683333,
    "country": "Norway",
    "iso2": "NO",
    "admin": "Hedmark",
    "capital": "minor",
    "population": "",
    "population_proper": ""
  },
  {
    "city": "Dokka",
    "lat": 60.833333,
    "lng": 10.083333,
    "country": "Norway",
    "iso2": "NO",
    "admin": "Oppland",
    "capital": "minor",
    "population": "",
    "population_proper": ""
  },
  {
    "city": "Masfjordnes",
    "lat": 60.8,
    "lng": 5.3,
    "country": "Norway",
    "iso2": "NO",
    "admin": "Hordaland",
    "capital": "minor",
    "population": "",
    "population_proper": ""
  },
  {
    "city": "Kvinesdal",
    "lat": 58.316667,
    "lng": 6.95,
    "country": "Norway",
    "iso2": "NO",
    "admin": "Vest-Agder",
    "capital": "minor",
    "population": "",
    "population_proper": ""
  },
  {
    "city": "Bruhagen",
    "lat": 63.05332,
    "lng": 7.63226,
    "country": "Norway",
    "iso2": "NO",
    "admin": "Møre og Romsdal",
    "capital": "minor",
    "population": "",
    "population_proper": ""
  },
  {
    "city": "Isdalstø",
    "lat": 60.555556,
    "lng": 5.269167,
    "country": "Norway",
    "iso2": "NO",
    "admin": "Hordaland",
    "capital": "minor",
    "population": "",
    "population_proper": ""
  },
  {
    "city": "Falkhytta",
    "lat": 62.80578,
    "lng": 6.88576,
    "country": "Norway",
    "iso2": "NO",
    "admin": "Møre og Romsdal",
    "capital": "minor",
    "population": "",
    "population_proper": ""
  },
  {
    "city": "Flekkefjord",
    "lat": 58.283333,
    "lng": 6.683333,
    "country": "Norway",
    "iso2": "NO",
    "admin": "Vest-Agder",
    "capital": "minor",
    "population": "",
    "population_proper": ""
  },
  {
    "city": "Kolvereid",
    "lat": 64.85,
    "lng": 11.6,
    "country": "Norway",
    "iso2": "NO",
    "admin": "Nord-Trøndelag",
    "capital": "minor",
    "population": "",
    "population_proper": ""
  },
  {
    "city": "Øksfjord",
    "lat": 70.239167,
    "lng": 22.371389,
    "country": "Norway",
    "iso2": "NO",
    "admin": "Finnmark",
    "capital": "minor",
    "population": "",
    "population_proper": ""
  },
  {
    "city": "Oteren",
    "lat": 69.255384,
    "lng": 19.881581,
    "country": "Norway",
    "iso2": "NO",
    "admin": "Troms",
    "capital": "minor",
    "population": "",
    "population_proper": ""
  },
  {
    "city": "Honningsvåg",
    "lat": 70.983333,
    "lng": 25.983333,
    "country": "Norway",
    "iso2": "NO",
    "admin": "Finnmark",
    "capital": "minor",
    "population": "",
    "population_proper": ""
  },
  {
    "city": "Sunndalsøra",
    "lat": 62.666667,
    "lng": 8.55,
    "country": "Norway",
    "iso2": "NO",
    "admin": "Møre og Romsdal",
    "capital": "minor",
    "population": "",
    "population_proper": ""
  },
  {
    "city": "Tynset",
    "lat": 62.283333,
    "lng": 10.783333,
    "country": "Norway",
    "iso2": "NO",
    "admin": "Hedmark",
    "capital": "minor",
    "population": "",
    "population_proper": ""
  },
  {
    "city": "Granvin",
    "lat": 60.55,
    "lng": 6.716667,
    "country": "Norway",
    "iso2": "NO",
    "admin": "Hordaland",
    "capital": "minor",
    "population": "",
    "population_proper": ""
  },
  {
    "city": "Sørreisa",
    "lat": 69.138732,
    "lng": 18.17983,
    "country": "Norway",
    "iso2": "NO",
    "admin": "Troms",
    "capital": "minor",
    "population": "",
    "population_proper": ""
  },
  {
    "city": "Årnes",
    "lat": 63.966667,
    "lng": 10.233333,
    "country": "Norway",
    "iso2": "NO",
    "admin": "Sør-Trøndelag",
    "capital": "minor",
    "population": "",
    "population_proper": ""
  },
  {
    "city": "Hareid",
    "lat": 62.366667,
    "lng": 6.033333,
    "country": "Norway",
    "iso2": "NO",
    "admin": "Møre og Romsdal",
    "capital": "minor",
    "population": "",
    "population_proper": ""
  },
  {
    "city": "Tromsø",
    "lat": 69.666667,
    "lng": 18.966667,
    "country": "Norway",
    "iso2": "NO",
    "admin": "Troms",
    "capital": "admin",
    "population": "",
    "population_proper": ""
  },
  {
    "city": "Terråk",
    "lat": 65.083333,
    "lng": 12.416667,
    "country": "Norway",
    "iso2": "NO",
    "admin": "Nordland",
    "capital": "minor",
    "population": "",
    "population_proper": ""
  },
  {
    "city": "Lom",
    "lat": 61.833333,
    "lng": 8.55,
    "country": "Norway",
    "iso2": "NO",
    "admin": "Oppland",
    "capital": "minor",
    "population": "",
    "population_proper": ""
  },
  {
    "city": "Trysil",
    "lat": 61.316667,
    "lng": 12.266667,
    "country": "Norway",
    "iso2": "NO",
    "admin": "Hedmark",
    "capital": "minor",
    "population": "",
    "population_proper": ""
  },
  {
    "city": "Bardu",
    "lat": 68.86563,
    "lng": 18.34735,
    "country": "Norway",
    "iso2": "NO",
    "admin": "Troms",
    "capital": "minor",
    "population": "",
    "population_proper": ""
  },
  {
    "city": "Bogen",
    "lat": 68.52619,
    "lng": 16.9945,
    "country": "Norway",
    "iso2": "NO",
    "admin": "Nordland",
    "capital": "minor",
    "population": "",
    "population_proper": ""
  },
  {
    "city": "Rong",
    "lat": 60.513333,
    "lng": 4.903333,
    "country": "Norway",
    "iso2": "NO",
    "admin": "Hordaland",
    "capital": "minor",
    "population": "",
    "population_proper": ""
  },
  {
    "city": "Burfjord",
    "lat": 69.933333,
    "lng": 22.05,
    "country": "Norway",
    "iso2": "NO",
    "admin": "Troms",
    "capital": "minor",
    "population": "",
    "population_proper": ""
  },
  {
    "city": "Koppang",
    "lat": 61.566667,
    "lng": 11.066667,
    "country": "Norway",
    "iso2": "NO",
    "admin": "Hedmark",
    "capital": "minor",
    "population": "",
    "population_proper": ""
  },
  {
    "city": "Eidsvåg",
    "lat": 62.781944,
    "lng": 8.071111,
    "country": "Norway",
    "iso2": "NO",
    "admin": "Møre og Romsdal",
    "capital": "minor",
    "population": "",
    "population_proper": ""
  },
  {
    "city": "Eidsvoll",
    "lat": 60.316667,
    "lng": 11.233333,
    "country": "Norway",
    "iso2": "NO",
    "admin": "Akershus",
    "capital": "minor",
    "population": "",
    "population_proper": ""
  },
  {
    "city": "Sagstua",
    "lat": 60.38846,
    "lng": 11.53763,
    "country": "Norway",
    "iso2": "NO",
    "admin": "Hedmark",
    "capital": "minor",
    "population": "",
    "population_proper": ""
  },
  {
    "city": "Flå",
    "lat": 60.416667,
    "lng": 9.466667,
    "country": "Norway",
    "iso2": "NO",
    "admin": "Buskerud",
    "capital": "minor",
    "population": "",
    "population_proper": ""
  },
  {
    "city": "Rjukan",
    "lat": 59.883333,
    "lng": 8.6,
    "country": "Norway",
    "iso2": "NO",
    "admin": "Telemark",
    "capital": "minor",
    "population": "",
    "population_proper": ""
  },
  {
    "city": "Sveio",
    "lat": 59.544722,
    "lng": 5.349167,
    "country": "Norway",
    "iso2": "NO",
    "admin": "Hordaland",
    "capital": "minor",
    "population": "",
    "population_proper": ""
  },
  {
    "city": "Karasjok",
    "lat": 69.45,
    "lng": 25.5,
    "country": "Norway",
    "iso2": "NO",
    "admin": "Finnmark",
    "capital": "minor",
    "population": "",
    "population_proper": ""
  },
  {
    "city": "Vikevåg",
    "lat": 59.098056,
    "lng": 5.698056,
    "country": "Norway",
    "iso2": "NO",
    "admin": "Rogaland",
    "capital": "minor",
    "population": "",
    "population_proper": ""
  },
  {
    "city": "Vågaholmen",
    "lat": 66.70914,
    "lng": 13.2693,
    "country": "Norway",
    "iso2": "NO",
    "admin": "Nordland",
    "capital": "minor",
    "population": "",
    "population_proper": ""
  },
  {
    "city": "Ramberg",
    "lat": 68.083333,
    "lng": 13.233333,
    "country": "Norway",
    "iso2": "NO",
    "admin": "Nordland",
    "capital": "minor",
    "population": "",
    "population_proper": ""
  },
  {
    "city": "Hamnvik",
    "lat": 68.783333,
    "lng": 17.183333,
    "country": "Norway",
    "iso2": "NO",
    "admin": "Troms",
    "capital": "minor",
    "population": "",
    "population_proper": ""
  },
  {
    "city": "Midsund",
    "lat": 62.683333,
    "lng": 6.683333,
    "country": "Norway",
    "iso2": "NO",
    "admin": "Møre og Romsdal",
    "capital": "minor",
    "population": "",
    "population_proper": ""
  },
  {
    "city": "Skien",
    "lat": 59.2,
    "lng": 9.6,
    "country": "Norway",
    "iso2": "NO",
    "admin": "Telemark",
    "capital": "admin",
    "population": "",
    "population_proper": ""
  },
  {
    "city": "Enebakk",
    "lat": 59.756127,
    "lng": 11.136371,
    "country": "Norway",
    "iso2": "NO",
    "admin": "Akershus",
    "capital": "minor",
    "population": "",
    "population_proper": ""
  },
  {
    "city": "Birkeland",
    "lat": 58.333333,
    "lng": 8.233333,
    "country": "Norway",
    "iso2": "NO",
    "admin": "Aust-Agder",
    "capital": "minor",
    "population": "",
    "population_proper": ""
  },
  {
    "city": "Flisa",
    "lat": 60.60781,
    "lng": 12.05206,
    "country": "Norway",
    "iso2": "NO",
    "admin": "Hedmark",
    "capital": "minor",
    "population": "",
    "population_proper": ""
  },
  {
    "city": "Raufoss",
    "lat": 60.716667,
    "lng": 10.616667,
    "country": "Norway",
    "iso2": "NO",
    "admin": "Oppland",
    "capital": "minor",
    "population": "",
    "population_proper": ""
  },
  {
    "city": "Ørnes",
    "lat": 66.866667,
    "lng": 13.7,
    "country": "Norway",
    "iso2": "NO",
    "admin": "Nordland",
    "capital": "minor",
    "population": "",
    "population_proper": ""
  },
  {
    "city": "Krokstadøra",
    "lat": 63.4,
    "lng": 9.5,
    "country": "Norway",
    "iso2": "NO",
    "admin": "Sør-Trøndelag",
    "capital": "minor",
    "population": "",
    "population_proper": ""
  },
  {
    "city": "Olderdalen",
    "lat": 69.616667,
    "lng": 20.533333,
    "country": "Norway",
    "iso2": "NO",
    "admin": "Troms",
    "capital": "minor",
    "population": "",
    "population_proper": ""
  },
  {
    "city": "Eivinvik",
    "lat": 60.983333,
    "lng": 5.066667,
    "country": "Norway",
    "iso2": "NO",
    "admin": "Sogn og Fjordane",
    "capital": "minor",
    "population": "",
    "population_proper": ""
  },
  {
    "city": "Høyanger",
    "lat": 61.216667,
    "lng": 6.083333,
    "country": "Norway",
    "iso2": "NO",
    "admin": "Sogn og Fjordane",
    "capital": "minor",
    "population": "",
    "population_proper": ""
  },
  {
    "city": "Manger",
    "lat": 60.641667,
    "lng": 5.039167,
    "country": "Norway",
    "iso2": "NO",
    "admin": "Hordaland",
    "capital": "minor",
    "population": "",
    "population_proper": ""
  },
  {
    "city": "Balestrand",
    "lat": 61.2,
    "lng": 6.533333,
    "country": "Norway",
    "iso2": "NO",
    "admin": "Sogn og Fjordane",
    "capital": "minor",
    "population": "",
    "population_proper": ""
  },
  {
    "city": "Liabøen",
    "lat": 63.116667,
    "lng": 8.3,
    "country": "Norway",
    "iso2": "NO",
    "admin": "Møre og Romsdal",
    "capital": "minor",
    "population": "",
    "population_proper": ""
  },
  {
    "city": "Inndyr",
    "lat": 67.033333,
    "lng": 14.033333,
    "country": "Norway",
    "iso2": "NO",
    "admin": "Nordland",
    "capital": "minor",
    "population": "",
    "population_proper": ""
  },
  {
    "city": "Breivikbotn",
    "lat": 70.592644,
    "lng": 22.297676,
    "country": "Norway",
    "iso2": "NO",
    "admin": "Finnmark",
    "capital": "minor",
    "population": "",
    "population_proper": ""
  },
  {
    "city": "Tana Bru",
    "lat": 70.20238,
    "lng": 28.17331,
    "country": "Norway",
    "iso2": "NO",
    "admin": "Finnmark",
    "capital": "minor",
    "population": "",
    "population_proper": ""
  },
  {
    "city": "Hemsedal",
    "lat": 60.866667,
    "lng": 8.566667,
    "country": "Norway",
    "iso2": "NO",
    "admin": "Buskerud",
    "capital": "minor",
    "population": "",
    "population_proper": ""
  },
  {
    "city": "Rømskog",
    "lat": 59.712676,
    "lng": 11.841647,
    "country": "Norway",
    "iso2": "NO",
    "admin": "Østfold",
    "capital": "minor",
    "population": "",
    "population_proper": ""
  },
  {
    "city": "Dale",
    "lat": 61.366667,
    "lng": 5.416667,
    "country": "Norway",
    "iso2": "NO",
    "admin": "Sogn og Fjordane",
    "capital": "minor",
    "population": "",
    "population_proper": ""
  },
  {
    "city": "Røyken",
    "lat": 59.7475,
    "lng": 10.393611,
    "country": "Norway",
    "iso2": "NO",
    "admin": "Buskerud",
    "capital": "minor",
    "population": "",
    "population_proper": ""
  },
  {
    "city": "Bryne",
    "lat": 58.733333,
    "lng": 5.65,
    "country": "Norway",
    "iso2": "NO",
    "admin": "Rogaland",
    "capital": "minor",
    "population": "",
    "population_proper": ""
  },
  {
    "city": "Os",
    "lat": 62.5,
    "lng": 11.2,
    "country": "Norway",
    "iso2": "NO",
    "admin": "Hedmark",
    "capital": "minor",
    "population": "",
    "population_proper": ""
  },
  {
    "city": "Hol",
    "lat": 60.62003,
    "lng": 8.297178,
    "country": "Norway",
    "iso2": "NO",
    "admin": "Buskerud",
    "capital": "minor",
    "population": "",
    "population_proper": ""
  },
  {
    "city": "Rygge",
    "lat": 59.383333,
    "lng": 10.716667,
    "country": "Norway",
    "iso2": "NO",
    "admin": "Østfold",
    "capital": "minor",
    "population": "",
    "population_proper": ""
  },
  {
    "city": "Verdal",
    "lat": 63.8,
    "lng": 11.483333,
    "country": "Norway",
    "iso2": "NO",
    "admin": "Nord-Trøndelag",
    "capital": "minor",
    "population": "",
    "population_proper": ""
  },
  {
    "city": "Lyngseidet",
    "lat": 69.583333,
    "lng": 20.216667,
    "country": "Norway",
    "iso2": "NO",
    "admin": "Troms",
    "capital": "minor",
    "population": "",
    "population_proper": ""
  },
  {
    "city": "Mandal",
    "lat": 58.033333,
    "lng": 7.45,
    "country": "Norway",
    "iso2": "NO",
    "admin": "Vest-Agder",
    "capital": "minor",
    "population": "",
    "population_proper": ""
  },
  {
    "city": "Sætre",
    "lat": 59.681667,
    "lng": 10.524722,
    "country": "Norway",
    "iso2": "NO",
    "admin": "Buskerud",
    "capital": "minor",
    "population": "",
    "population_proper": ""
  },
  {
    "city": "Utsira",
    "lat": 59.3,
    "lng": 4.9,
    "country": "Norway",
    "iso2": "NO",
    "admin": "Rogaland",
    "capital": "minor",
    "population": "",
    "population_proper": ""
  },
  {
    "city": "Fagernes",
    "lat": 60.983333,
    "lng": 9.25,
    "country": "Norway",
    "iso2": "NO",
    "admin": "Oppland",
    "capital": "minor",
    "population": "",
    "population_proper": ""
  },
  {
    "city": "Sandane",
    "lat": 61.766667,
    "lng": 6.216667,
    "country": "Norway",
    "iso2": "NO",
    "admin": "Sogn og Fjordane",
    "capital": "minor",
    "population": "",
    "population_proper": ""
  },
  {
    "city": "Heggenes",
    "lat": 61.15,
    "lng": 9.083333,
    "country": "Norway",
    "iso2": "NO",
    "admin": "Oppland",
    "capital": "minor",
    "population": "",
    "population_proper": ""
  },
  {
    "city": "Odda",
    "lat": 60.066667,
    "lng": 6.55,
    "country": "Norway",
    "iso2": "NO",
    "admin": "Hordaland",
    "capital": "minor",
    "population": "",
    "population_proper": ""
  },
  {
    "city": "Fetsund",
    "lat": 59.933333,
    "lng": 11.166667,
    "country": "Norway",
    "iso2": "NO",
    "admin": "Akershus",
    "capital": "minor",
    "population": "",
    "population_proper": ""
  },
  {
    "city": "Naustdal",
    "lat": 61.516667,
    "lng": 5.716667,
    "country": "Norway",
    "iso2": "NO",
    "admin": "Sogn og Fjordane",
    "capital": "minor",
    "population": "",
    "population_proper": ""
  },
  {
    "city": "Rissa",
    "lat": 63.58324,
    "lng": 9.95911,
    "country": "Norway",
    "iso2": "NO",
    "admin": "Sør-Trøndelag",
    "capital": "minor",
    "population": "",
    "population_proper": ""
  },
  {
    "city": "Våler",
    "lat": 59.487374,
    "lng": 10.852732,
    "country": "Norway",
    "iso2": "NO",
    "admin": "Østfold",
    "capital": "minor",
    "population": "",
    "population_proper": ""
  },
  {
    "city": "Hobøl",
    "lat": 59.598415,
    "lng": 10.942048,
    "country": "Norway",
    "iso2": "NO",
    "admin": "Østfold",
    "capital": "minor",
    "population": "",
    "population_proper": ""
  },
  {
    "city": "Elnesvågen",
    "lat": 62.85382,
    "lng": 7.15363,
    "country": "Norway",
    "iso2": "NO",
    "admin": "Møre og Romsdal",
    "capital": "minor",
    "population": "",
    "population_proper": ""
  },
  {
    "city": "Frekhaug",
    "lat": 60.517222,
    "lng": 5.246111,
    "country": "Norway",
    "iso2": "NO",
    "admin": "Hordaland",
    "capital": "minor",
    "population": "",
    "population_proper": ""
  },
  {
    "city": "Straumen",
    "lat": 67.35,
    "lng": 15.6,
    "country": "Norway",
    "iso2": "NO",
    "admin": "Nordland",
    "capital": "minor",
    "population": "",
    "population_proper": ""
  },
  {
    "city": "Tvedestrand",
    "lat": 58.624444,
    "lng": 8.928611,
    "country": "Norway",
    "iso2": "NO",
    "admin": "Aust-Agder",
    "capital": "minor",
    "population": "",
    "population_proper": ""
  },
  {
    "city": "Ålen",
    "lat": 62.85,
    "lng": 11.283333,
    "country": "Norway",
    "iso2": "NO",
    "admin": "Sør-Trøndelag",
    "capital": "minor",
    "population": "",
    "population_proper": ""
  },
  {
    "city": "Fauske",
    "lat": 67.25,
    "lng": 15.4,
    "country": "Norway",
    "iso2": "NO",
    "admin": "Nordland",
    "capital": "minor",
    "population": "",
    "population_proper": ""
  },
  {
    "city": "Grong",
    "lat": 64.45,
    "lng": 12.333333,
    "country": "Norway",
    "iso2": "NO",
    "admin": "Nord-Trøndelag",
    "capital": "minor",
    "population": "",
    "population_proper": ""
  },
  {
    "city": "Sjøvegan",
    "lat": 68.873333,
    "lng": 17.864444,
    "country": "Norway",
    "iso2": "NO",
    "admin": "Troms",
    "capital": "minor",
    "population": "",
    "population_proper": ""
  },
  {
    "city": "Høylandet",
    "lat": 64.62775,
    "lng": 12.29996,
    "country": "Norway",
    "iso2": "NO",
    "admin": "Nord-Trøndelag",
    "capital": "minor",
    "population": "",
    "population_proper": ""
  },
  {
    "city": "Kyrksæterøra",
    "lat": 63.283333,
    "lng": 9.1,
    "country": "Norway",
    "iso2": "NO",
    "admin": "Sør-Trøndelag",
    "capital": "minor",
    "population": "",
    "population_proper": ""
  },
  {
    "city": "Judaberg",
    "lat": 59.183333,
    "lng": 5.85,
    "country": "Norway",
    "iso2": "NO",
    "admin": "Rogaland",
    "capital": "minor",
    "population": "",
    "population_proper": ""
  },
  {
    "city": "Norheimsund",
    "lat": 60.366667,
    "lng": 6.133333,
    "country": "Norway",
    "iso2": "NO",
    "admin": "Hordaland",
    "capital": "minor",
    "population": "",
    "population_proper": ""
  },
  {
    "city": "Ulvik",
    "lat": 60.566667,
    "lng": 6.9,
    "country": "Norway",
    "iso2": "NO",
    "admin": "Hordaland",
    "capital": "minor",
    "population": "",
    "population_proper": ""
  },
  {
    "city": "Berlevåg",
    "lat": 70.85,
    "lng": 29.1,
    "country": "Norway",
    "iso2": "NO",
    "admin": "Finnmark",
    "capital": "minor",
    "population": "",
    "population_proper": ""
  },
  {
    "city": "Østre Gausdal",
    "lat": 61.25812,
    "lng": 10.15394,
    "country": "Norway",
    "iso2": "NO",
    "admin": "Oppland",
    "capital": "minor",
    "population": "",
    "population_proper": ""
  },
  {
    "city": "Ålgård",
    "lat": 58.766667,
    "lng": 5.85,
    "country": "Norway",
    "iso2": "NO",
    "admin": "Rogaland",
    "capital": "minor",
    "population": "",
    "population_proper": ""
  },
  {
    "city": "Orkanger",
    "lat": 63.316667,
    "lng": 9.866667,
    "country": "Norway",
    "iso2": "NO",
    "admin": "Sør-Trøndelag",
    "capital": "minor",
    "population": "",
    "population_proper": ""
  },
  {
    "city": "Ørje",
    "lat": 59.483333,
    "lng": 11.65,
    "country": "Norway",
    "iso2": "NO",
    "admin": "Østfold",
    "capital": "minor",
    "population": "",
    "population_proper": ""
  },
  {
    "city": "Førde",
    "lat": 61.45,
    "lng": 5.866667,
    "country": "Norway",
    "iso2": "NO",
    "admin": "Sogn og Fjordane",
    "capital": "minor",
    "population": "",
    "population_proper": ""
  },
  {
    "city": "Årnes",
    "lat": 60.15,
    "lng": 11.466667,
    "country": "Norway",
    "iso2": "NO",
    "admin": "Akershus",
    "capital": "minor",
    "population": "",
    "population_proper": ""
  },
  {
    "city": "Vestby",
    "lat": 59.6,
    "lng": 10.75,
    "country": "Norway",
    "iso2": "NO",
    "admin": "Akershus",
    "capital": "minor",
    "population": "",
    "population_proper": ""
  },
  {
    "city": "Otta",
    "lat": 61.766667,
    "lng": 9.533333,
    "country": "Norway",
    "iso2": "NO",
    "admin": "Oppland",
    "capital": "minor",
    "population": "",
    "population_proper": ""
  },
  {
    "city": "Røyse",
    "lat": 60.07685,
    "lng": 10.19652,
    "country": "Norway",
    "iso2": "NO",
    "admin": "Buskerud",
    "capital": "minor",
    "population": "",
    "population_proper": ""
  },
  {
    "city": "Rødberg",
    "lat": 60.27107,
    "lng": 8.95367,
    "country": "Norway",
    "iso2": "NO",
    "admin": "Buskerud",
    "capital": "minor",
    "population": "",
    "population_proper": ""
  },
  {
    "city": "Lampeland",
    "lat": 59.83422,
    "lng": 9.57586,
    "country": "Norway",
    "iso2": "NO",
    "admin": "Buskerud",
    "capital": "minor",
    "population": "",
    "population_proper": ""
  },
  {
    "city": "Vang",
    "lat": 61.12448,
    "lng": 8.57399,
    "country": "Norway",
    "iso2": "NO",
    "admin": "Oppland",
    "capital": "minor",
    "population": "",
    "population_proper": ""
  },
  {
    "city": "Lauvsnes",
    "lat": 64.5,
    "lng": 10.916667,
    "country": "Norway",
    "iso2": "NO",
    "admin": "Nord-Trøndelag",
    "capital": "minor",
    "population": "",
    "population_proper": ""
  },
  {
    "city": "Aurlandsvangen",
    "lat": 60.90626,
    "lng": 7.18635,
    "country": "Norway",
    "iso2": "NO",
    "admin": "Sogn og Fjordane",
    "capital": "minor",
    "population": "",
    "population_proper": ""
  },
  {
    "city": "Gaupne",
    "lat": 61.40481,
    "lng": 7.29415,
    "country": "Norway",
    "iso2": "NO",
    "admin": "Sogn og Fjordane",
    "capital": "minor",
    "population": "",
    "population_proper": ""
  },
  {
    "city": "Korgen",
    "lat": 66.083333,
    "lng": 13.833333,
    "country": "Norway",
    "iso2": "NO",
    "admin": "Nordland",
    "capital": "minor",
    "population": "",
    "population_proper": ""
  },
  {
    "city": "Spydeberg",
    "lat": 59.6,
    "lng": 11.083333,
    "country": "Norway",
    "iso2": "NO",
    "admin": "Østfold",
    "capital": "minor",
    "population": "",
    "population_proper": ""
  },
  {
    "city": "Asker",
    "lat": 59.833333,
    "lng": 10.433333,
    "country": "Norway",
    "iso2": "NO",
    "admin": "Akershus",
    "capital": "minor",
    "population": "",
    "population_proper": ""
  },
  {
    "city": "Namsskogan",
    "lat": 64.916667,
    "lng": 13.166667,
    "country": "Norway",
    "iso2": "NO",
    "admin": "Nord-Trøndelag",
    "capital": "minor",
    "population": "",
    "population_proper": ""
  },
  {
    "city": "Mosjøen",
    "lat": 65.833333,
    "lng": 13.2,
    "country": "Norway",
    "iso2": "NO",
    "admin": "Nordland",
    "capital": "minor",
    "population": "",
    "population_proper": ""
  },
  {
    "city": "Fredrikstad",
    "lat": 59.216667,
    "lng": 10.95,
    "country": "Norway",
    "iso2": "NO",
    "admin": "Østfold",
    "capital": "minor",
    "population": "",
    "population_proper": ""
  },
  {
    "city": "Grimstad",
    "lat": 58.340556,
    "lng": 8.588611,
    "country": "Norway",
    "iso2": "NO",
    "admin": "Aust-Agder",
    "capital": "minor",
    "population": "",
    "population_proper": ""
  },
  {
    "city": "Langevåg",
    "lat": 62.44342,
    "lng": 6.18836,
    "country": "Norway",
    "iso2": "NO",
    "admin": "Møre og Romsdal",
    "capital": "minor",
    "population": "",
    "population_proper": ""
  },
  {
    "city": "Mjøndalen",
    "lat": 59.75,
    "lng": 10.016667,
    "country": "Norway",
    "iso2": "NO",
    "admin": "Buskerud",
    "capital": "minor",
    "population": "",
    "population_proper": ""
  },
  {
    "city": "Fillan",
    "lat": 63.6,
    "lng": 8.983333,
    "country": "Norway",
    "iso2": "NO",
    "admin": "Sør-Trøndelag",
    "capital": "minor",
    "population": "",
    "population_proper": ""
  },
  {
    "city": "Uggdal",
    "lat": 60.008889,
    "lng": 5.512222,
    "country": "Norway",
    "iso2": "NO",
    "admin": "Hordaland",
    "capital": "minor",
    "population": "",
    "population_proper": ""
  },
  {
    "city": "Dovre",
    "lat": 61.983333,
    "lng": 9.25,
    "country": "Norway",
    "iso2": "NO",
    "admin": "Oppland",
    "capital": "minor",
    "population": "",
    "population_proper": ""
  },
  {
    "city": "Drangedal",
    "lat": 59.1,
    "lng": 9.066667,
    "country": "Norway",
    "iso2": "NO",
    "admin": "Telemark",
    "capital": "minor",
    "population": "",
    "population_proper": ""
  },
  {
    "city": "Malm",
    "lat": 64.066667,
    "lng": 11.216667,
    "country": "Norway",
    "iso2": "NO",
    "admin": "Nord-Trøndelag",
    "capital": "minor",
    "population": "",
    "population_proper": ""
  },
  {
    "city": "Stordal",
    "lat": 62.38203,
    "lng": 6.98608,
    "country": "Norway",
    "iso2": "NO",
    "admin": "Møre og Romsdal",
    "capital": "minor",
    "population": "",
    "population_proper": ""
  },
  {
    "city": "Leknes",
    "lat": 65.1,
    "lng": 11.7,
    "country": "Norway",
    "iso2": "NO",
    "admin": "Nord-Trøndelag",
    "capital": "minor",
    "population": "",
    "population_proper": ""
  },
  {
    "city": "Varhaug",
    "lat": 58.616667,
    "lng": 5.65,
    "country": "Norway",
    "iso2": "NO",
    "admin": "Rogaland",
    "capital": "minor",
    "population": "",
    "population_proper": ""
  },
  {
    "city": "Konsmo",
    "lat": 58.3,
    "lng": 7.4,
    "country": "Norway",
    "iso2": "NO",
    "admin": "Vest-Agder",
    "capital": "minor",
    "population": "",
    "population_proper": ""
  },
  {
    "city": "Mo",
    "lat": 60.816667,
    "lng": 5.8,
    "country": "Norway",
    "iso2": "NO",
    "admin": "Hordaland",
    "capital": "minor",
    "population": "",
    "population_proper": ""
  },
  {
    "city": "Bagn",
    "lat": 60.816667,
    "lng": 9.566667,
    "country": "Norway",
    "iso2": "NO",
    "admin": "Oppland",
    "capital": "minor",
    "population": "",
    "population_proper": ""
  },
  {
    "city": "Kirkenær",
    "lat": 60.466667,
    "lng": 12.05,
    "country": "Norway",
    "iso2": "NO",
    "admin": "Hedmark",
    "capital": "minor",
    "population": "",
    "population_proper": ""
  },
  {
    "city": "Ringebu",
    "lat": 61.516667,
    "lng": 10.166667,
    "country": "Norway",
    "iso2": "NO",
    "admin": "Oppland",
    "capital": "minor",
    "population": "",
    "population_proper": ""
  },
  {
    "city": "Øyer",
    "lat": 61.26715,
    "lng": 10.42444,
    "country": "Norway",
    "iso2": "NO",
    "admin": "Oppland",
    "capital": "minor",
    "population": "",
    "population_proper": ""
  },
  {
    "city": "Straume",
    "lat": 60.35578,
    "lng": 5.1196,
    "country": "Norway",
    "iso2": "NO",
    "admin": "Hordaland",
    "capital": "minor",
    "population": "",
    "population_proper": ""
  },
  {
    "city": "Austrheim",
    "lat": 60.76443,
    "lng": 4.91349,
    "country": "Norway",
    "iso2": "NO",
    "admin": "Hordaland",
    "capital": "minor",
    "population": "",
    "population_proper": ""
  },
  {
    "city": "Kinsarvik",
    "lat": 60.37583,
    "lng": 6.72593,
    "country": "Norway",
    "iso2": "NO",
    "admin": "Hordaland",
    "capital": "minor",
    "population": "",
    "population_proper": ""
  },
  {
    "city": "Voss",
    "lat": 60.63182,
    "lng": 6.41669,
    "country": "Norway",
    "iso2": "NO",
    "admin": "Hordaland",
    "capital": "minor",
    "population": "",
    "population_proper": ""
  },
  {
    "city": "Stord",
    "lat": 59.77384,
    "lng": 5.49028,
    "country": "Norway",
    "iso2": "NO",
    "admin": "Hordaland",
    "capital": "minor",
    "population": "",
    "population_proper": ""
  },
  {
    "city": "Os",
    "lat": 60.18346,
    "lng": 5.46663,
    "country": "Norway",
    "iso2": "NO",
    "admin": "Hordaland",
    "capital": "minor",
    "population": "",
    "population_proper": ""
  },
  {
    "city": "Slidre",
    "lat": 61.08825,
    "lng": 8.98076,
    "country": "Norway",
    "iso2": "NO",
    "admin": "Oppland",
    "capital": "minor",
    "population": "",
    "population_proper": ""
  },
  {
    "city": "Eikelandsosen",
    "lat": 60.239444,
    "lng": 5.753889,
    "country": "Norway",
    "iso2": "NO",
    "admin": "Hordaland",
    "capital": "minor",
    "population": "",
    "population_proper": ""
  },
  {
    "city": "Lesja",
    "lat": 62.12123,
    "lng": 8.8457,
    "country": "Norway",
    "iso2": "NO",
    "admin": "Oppland",
    "capital": "minor",
    "population": "",
    "population_proper": ""
  },
  {
    "city": "Ørskog",
    "lat": 62.47886,
    "lng": 6.81155,
    "country": "Norway",
    "iso2": "NO",
    "admin": "Møre og Romsdal",
    "capital": "minor",
    "population": "",
    "population_proper": ""
  },
  {
    "city": "Bykle",
    "lat": 59.35,
    "lng": 7.333333,
    "country": "Norway",
    "iso2": "NO",
    "admin": "Aust-Agder",
    "capital": "minor",
    "population": "",
    "population_proper": ""
  },
  {
    "city": "Bygland",
    "lat": 58.85,
    "lng": 7.85,
    "country": "Norway",
    "iso2": "NO",
    "admin": "Aust-Agder",
    "capital": "minor",
    "population": "",
    "population_proper": ""
  },
  {
    "city": "Skodje",
    "lat": 62.516667,
    "lng": 6.716667,
    "country": "Norway",
    "iso2": "NO",
    "admin": "Møre og Romsdal",
    "capital": "minor",
    "population": "",
    "population_proper": ""
  },
  {
    "city": "Storsteinnes",
    "lat": 69.233333,
    "lng": 19.25,
    "country": "Norway",
    "iso2": "NO",
    "admin": "Troms",
    "capital": "minor",
    "population": "",
    "population_proper": ""
  },
  {
    "city": "Lonevåg",
    "lat": 60.533333,
    "lng": 5.5,
    "country": "Norway",
    "iso2": "NO",
    "admin": "Hordaland",
    "capital": "minor",
    "population": "",
    "population_proper": ""
  },
  {
    "city": "Evenskjer",
    "lat": 68.583333,
    "lng": 16.566667,
    "country": "Norway",
    "iso2": "NO",
    "admin": "Troms",
    "capital": "minor",
    "population": "",
    "population_proper": ""
  },
  {
    "city": "Tennevoll",
    "lat": 68.75,
    "lng": 17.8,
    "country": "Norway",
    "iso2": "NO",
    "admin": "Troms",
    "capital": "minor",
    "population": "",
    "population_proper": ""
  },
  {
    "city": "Marnardal",
    "lat": 58.21242,
    "lng": 7.51168,
    "country": "Norway",
    "iso2": "NO",
    "admin": "Vest-Agder",
    "capital": "minor",
    "population": "",
    "population_proper": ""
  },
  {
    "city": "Sandvika",
    "lat": 59.891667,
    "lng": 10.524722,
    "country": "Norway",
    "iso2": "NO",
    "admin": "Akershus",
    "capital": "minor",
    "population": "",
    "population_proper": ""
  },
  {
    "city": "Selje",
    "lat": 62.049167,
    "lng": 5.348056,
    "country": "Norway",
    "iso2": "NO",
    "admin": "Sogn og Fjordane",
    "capital": "minor",
    "population": "",
    "population_proper": ""
  },
  {
    "city": "Løten",
    "lat": 60.816667,
    "lng": 11.316667,
    "country": "Norway",
    "iso2": "NO",
    "admin": "Hedmark",
    "capital": "minor",
    "population": "",
    "population_proper": ""
  },
  {
    "city": "Nodeland",
    "lat": 58.15,
    "lng": 7.85,
    "country": "Norway",
    "iso2": "NO",
    "admin": "Vest-Agder",
    "capital": "minor",
    "population": "",
    "population_proper": ""
  },
  {
    "city": "Lensvik",
    "lat": 63.516667,
    "lng": 9.816667,
    "country": "Norway",
    "iso2": "NO",
    "admin": "Sør-Trøndelag",
    "capital": "minor",
    "population": "",
    "population_proper": ""
  },
  {
    "city": "Skaland",
    "lat": 69.45,
    "lng": 17.3,
    "country": "Norway",
    "iso2": "NO",
    "admin": "Troms",
    "capital": "minor",
    "population": "",
    "population_proper": ""
  },
  {
    "city": "Vennesla",
    "lat": 58.283333,
    "lng": 7.983333,
    "country": "Norway",
    "iso2": "NO",
    "admin": "Vest-Agder",
    "capital": "minor",
    "population": "",
    "population_proper": ""
  },
  {
    "city": "Nittedal",
    "lat": 60.022466,
    "lng": 10.923943,
    "country": "Norway",
    "iso2": "NO",
    "admin": "Akershus",
    "capital": "minor",
    "population": "",
    "population_proper": ""
  },
  {
    "city": "Notodden",
    "lat": 59.566667,
    "lng": 9.283333,
    "country": "Norway",
    "iso2": "NO",
    "admin": "Telemark",
    "capital": "minor",
    "population": "",
    "population_proper": ""
  },
  {
    "city": "Leland",
    "lat": 66.066667,
    "lng": 12.95,
    "country": "Norway",
    "iso2": "NO",
    "admin": "Nordland",
    "capital": "minor",
    "population": "",
    "population_proper": ""
  },
  {
    "city": "Sauda",
    "lat": 59.65,
    "lng": 6.333333,
    "country": "Norway",
    "iso2": "NO",
    "admin": "Rogaland",
    "capital": "minor",
    "population": "",
    "population_proper": ""
  },
  {
    "city": "Halden",
    "lat": 59.15,
    "lng": 11.383333,
    "country": "Norway",
    "iso2": "NO",
    "admin": "Østfold",
    "capital": "minor",
    "population": "",
    "population_proper": ""
  },
  {
    "city": "Fedje",
    "lat": 60.781111,
    "lng": 4.713056,
    "country": "Norway",
    "iso2": "NO",
    "admin": "Hordaland",
    "capital": "minor",
    "population": "",
    "population_proper": ""
  },
  {
    "city": "Aksdal",
    "lat": 59.42588,
    "lng": 5.42903,
    "country": "Norway",
    "iso2": "NO",
    "admin": "Rogaland",
    "capital": "minor",
    "population": "",
    "population_proper": ""
  },
  {
    "city": "Snåsa",
    "lat": 64.25,
    "lng": 12.366667,
    "country": "Norway",
    "iso2": "NO",
    "admin": "Nord-Trøndelag",
    "capital": "minor",
    "population": "",
    "population_proper": ""
  },
  {
    "city": "Lærdalsøyri",
    "lat": 61.1,
    "lng": 7.483333,
    "country": "Norway",
    "iso2": "NO",
    "admin": "Sogn og Fjordane",
    "capital": "minor",
    "population": "",
    "population_proper": ""
  },
  {
    "city": "Myre",
    "lat": 68.9,
    "lng": 15.083333,
    "country": "Norway",
    "iso2": "NO",
    "admin": "Nordland",
    "capital": "minor",
    "population": "",
    "population_proper": ""
  },
  {
    "city": "Fyresdal",
    "lat": 59.18849,
    "lng": 8.08974,
    "country": "Norway",
    "iso2": "NO",
    "admin": "Telemark",
    "capital": "minor",
    "population": "",
    "population_proper": ""
  },
  {
    "city": "Klæbu",
    "lat": 63.29886,
    "lng": 10.48054,
    "country": "Norway",
    "iso2": "NO",
    "admin": "Sør-Trøndelag",
    "capital": "minor",
    "population": "",
    "population_proper": ""
  },
  {
    "city": "Vestnes",
    "lat": 62.633333,
    "lng": 7.083333,
    "country": "Norway",
    "iso2": "NO",
    "admin": "Møre og Romsdal",
    "capital": "minor",
    "population": "",
    "population_proper": ""
  },
  {
    "city": "Sarpsborg",
    "lat": 59.283333,
    "lng": 11.116667,
    "country": "Norway",
    "iso2": "NO",
    "admin": "Østfold",
    "capital": "admin",
    "population": "",
    "population_proper": ""
  },
  {
    "city": "Seljord",
    "lat": 59.483333,
    "lng": 8.616667,
    "country": "Norway",
    "iso2": "NO",
    "admin": "Telemark",
    "capital": "minor",
    "population": "",
    "population_proper": ""
  },
  {
    "city": "Åndalsnes",
    "lat": 62.566667,
    "lng": 7.7,
    "country": "Norway",
    "iso2": "NO",
    "admin": "Møre og Romsdal",
    "capital": "minor",
    "population": "",
    "population_proper": ""
  },
  {
    "city": "Sand",
    "lat": 59.48234,
    "lng": 6.27883,
    "country": "Norway",
    "iso2": "NO",
    "admin": "Rogaland",
    "capital": "minor",
    "population": "",
    "population_proper": ""
  },
  {
    "city": "Gjerdrum",
    "lat": 60.083333,
    "lng": 11.1,
    "country": "Norway",
    "iso2": "NO",
    "admin": "Akershus",
    "capital": "minor",
    "population": "",
    "population_proper": ""
  },
  {
    "city": "Berkåk",
    "lat": 62.833333,
    "lng": 10,
    "country": "Norway",
    "iso2": "NO",
    "admin": "Sør-Trøndelag",
    "capital": "minor",
    "population": "",
    "population_proper": ""
  },
  {
    "city": "Jondal",
    "lat": 60.283333,
    "lng": 6.283333,
    "country": "Norway",
    "iso2": "NO",
    "admin": "Hordaland",
    "capital": "minor",
    "population": "",
    "population_proper": ""
  },
  {
    "city": "Tonstad",
    "lat": 58.666667,
    "lng": 6.716667,
    "country": "Norway",
    "iso2": "NO",
    "admin": "Vest-Agder",
    "capital": "minor",
    "population": "",
    "population_proper": ""
  },
  {
    "city": "Trofors",
    "lat": 65.566667,
    "lng": 13.416667,
    "country": "Norway",
    "iso2": "NO",
    "admin": "Nordland",
    "capital": "minor",
    "population": "",
    "population_proper": ""
  },
  {
    "city": "Farsund",
    "lat": 58.083333,
    "lng": 6.8,
    "country": "Norway",
    "iso2": "NO",
    "admin": "Vest-Agder",
    "capital": "minor",
    "population": "",
    "population_proper": ""
  },
  {
    "city": "Sande",
    "lat": 61.333333,
    "lng": 5.8,
    "country": "Norway",
    "iso2": "NO",
    "admin": "Sogn og Fjordane",
    "capital": "minor",
    "population": "",
    "population_proper": ""
  },
  {
    "city": "Florø",
    "lat": 61.6,
    "lng": 5,
    "country": "Norway",
    "iso2": "NO",
    "admin": "Sogn og Fjordane",
    "capital": "minor",
    "population": "",
    "population_proper": ""
  },
  {
    "city": "Mysen",
    "lat": 59.55,
    "lng": 11.333333,
    "country": "Norway",
    "iso2": "NO",
    "admin": "Østfold",
    "capital": "minor",
    "population": "",
    "population_proper": ""
  },
  {
    "city": "Etne",
    "lat": 59.666667,
    "lng": 5.933333,
    "country": "Norway",
    "iso2": "NO",
    "admin": "Hordaland",
    "capital": "minor",
    "population": "",
    "population_proper": ""
  },
  {
    "city": "Eide",
    "lat": 62.916667,
    "lng": 7.433333,
    "country": "Norway",
    "iso2": "NO",
    "admin": "Møre og Romsdal",
    "capital": "minor",
    "population": "",
    "population_proper": ""
  },
  {
    "city": "Kautokeino",
    "lat": 68.983333,
    "lng": 23.133333,
    "country": "Norway",
    "iso2": "NO",
    "admin": "Finnmark",
    "capital": "minor",
    "population": "",
    "population_proper": ""
  },
  {
    "city": "Brumunddal",
    "lat": 60.883333,
    "lng": 10.933333,
    "country": "Norway",
    "iso2": "NO",
    "admin": "Hedmark",
    "capital": "minor",
    "population": "",
    "population_proper": ""
  },
  {
    "city": "Kristiansund",
    "lat": 63.116667,
    "lng": 7.75,
    "country": "Norway",
    "iso2": "NO",
    "admin": "Møre og Romsdal",
    "capital": "minor",
    "population": "",
    "population_proper": ""
  },
  {
    "city": "Botngard",
    "lat": 63.766667,
    "lng": 9.816667,
    "country": "Norway",
    "iso2": "NO",
    "admin": "Sør-Trøndelag",
    "capital": "minor",
    "population": "",
    "population_proper": ""
  },
  {
    "city": "Fosnavåg",
    "lat": 62.35,
    "lng": 5.65,
    "country": "Norway",
    "iso2": "NO",
    "admin": "Møre og Romsdal",
    "capital": "minor",
    "population": "",
    "population_proper": ""
  },
  {
    "city": "Nordli",
    "lat": 64.46533,
    "lng": 13.59341,
    "country": "Norway",
    "iso2": "NO",
    "admin": "Nord-Trøndelag",
    "capital": "minor",
    "population": "",
    "population_proper": ""
  },
  {
    "city": "Meråker",
    "lat": 63.433333,
    "lng": 11.75,
    "country": "Norway",
    "iso2": "NO",
    "admin": "Nord-Trøndelag",
    "capital": "minor",
    "population": "",
    "population_proper": ""
  },
  {
    "city": "Sola",
    "lat": 58.883333,
    "lng": 5.6,
    "country": "Norway",
    "iso2": "NO",
    "admin": "Rogaland",
    "capital": "minor",
    "population": "",
    "population_proper": ""
  },
  {
    "city": "Svelgen",
    "lat": 61.766667,
    "lng": 5.3,
    "country": "Norway",
    "iso2": "NO",
    "admin": "Sogn og Fjordane",
    "capital": "minor",
    "population": "",
    "population_proper": ""
  },
  {
    "city": "Jessheim",
    "lat": 60.15,
    "lng": 11.183333,
    "country": "Norway",
    "iso2": "NO",
    "admin": "Akershus",
    "capital": "minor",
    "population": "",
    "population_proper": ""
  },
  {
    "city": "Kviteseid",
    "lat": 59.4,
    "lng": 8.5,
    "country": "Norway",
    "iso2": "NO",
    "admin": "Telemark",
    "capital": "minor",
    "population": "",
    "population_proper": ""
  },
  {
    "city": "Røst",
    "lat": 67.516667,
    "lng": 12.116667,
    "country": "Norway",
    "iso2": "NO",
    "admin": "Nordland",
    "capital": "minor",
    "population": "",
    "population_proper": ""
  },
  {
    "city": "Froland",
    "lat": 58.533333,
    "lng": 8.65,
    "country": "Norway",
    "iso2": "NO",
    "admin": "Aust-Agder",
    "capital": "minor",
    "population": "",
    "population_proper": ""
  },
  {
    "city": "Ås",
    "lat": 59.666667,
    "lng": 10.8,
    "country": "Norway",
    "iso2": "NO",
    "admin": "Akershus",
    "capital": "minor",
    "population": "",
    "population_proper": ""
  },
  {
    "city": "Eidfjord",
    "lat": 60.466667,
    "lng": 7.083333,
    "country": "Norway",
    "iso2": "NO",
    "admin": "Hordaland",
    "capital": "minor",
    "population": "",
    "population_proper": ""
  },
  {
    "city": "Skjærhalden",
    "lat": 59.033333,
    "lng": 11.033333,
    "country": "Norway",
    "iso2": "NO",
    "admin": "Østfold",
    "capital": "minor",
    "population": "",
    "population_proper": ""
  },
  {
    "city": "Lakselv",
    "lat": 70.05,
    "lng": 24.933333,
    "country": "Norway",
    "iso2": "NO",
    "admin": "Finnmark",
    "capital": "minor",
    "population": "",
    "population_proper": ""
  },
  {
    "city": "Siljan",
    "lat": 59.3,
    "lng": 9.7,
    "country": "Norway",
    "iso2": "NO",
    "admin": "Telemark",
    "capital": "minor",
    "population": "",
    "population_proper": ""
  },
  {
    "city": "Hønefoss",
    "lat": 60.166667,
    "lng": 10.3,
    "country": "Norway",
    "iso2": "NO",
    "admin": "Buskerud",
    "capital": "minor",
    "population": "",
    "population_proper": ""
  },
  {
    "city": "Rakkestad",
    "lat": 59.433333,
    "lng": 11.35,
    "country": "Norway",
    "iso2": "NO",
    "admin": "Østfold",
    "capital": "minor",
    "population": "",
    "population_proper": ""
  },
  {
    "city": "Måløy",
    "lat": 61.938333,
    "lng": 5.113333,
    "country": "Norway",
    "iso2": "NO",
    "admin": "Sogn og Fjordane",
    "capital": "minor",
    "population": "",
    "population_proper": ""
  },
  {
    "city": "Hardbakke",
    "lat": 61.083333,
    "lng": 4.85,
    "country": "Norway",
    "iso2": "NO",
    "admin": "Sogn og Fjordane",
    "capital": "minor",
    "population": "",
    "population_proper": ""
  },
  {
    "city": "Mehamn",
    "lat": 71.033333,
    "lng": 27.85,
    "country": "Norway",
    "iso2": "NO",
    "admin": "Finnmark",
    "capital": "minor",
    "population": "",
    "population_proper": ""
  },
  {
    "city": "Aure",
    "lat": 63.266667,
    "lng": 8.533333,
    "country": "Norway",
    "iso2": "NO",
    "admin": "Møre og Romsdal",
    "capital": "minor",
    "population": "",
    "population_proper": ""
  },
  {
    "city": "Vinstra",
    "lat": 61.6,
    "lng": 9.75,
    "country": "Norway",
    "iso2": "NO",
    "admin": "Oppland",
    "capital": "minor",
    "population": "",
    "population_proper": ""
  },
  {
    "city": "Ranemsletta",
    "lat": 64.5,
    "lng": 11.95,
    "country": "Norway",
    "iso2": "NO",
    "admin": "Nord-Trøndelag",
    "capital": "minor",
    "population": "",
    "population_proper": ""
  },
  {
    "city": "Leknes",
    "lat": 68.14524,
    "lng": 13.59928,
    "country": "Norway",
    "iso2": "NO",
    "admin": "Nordland",
    "capital": "minor",
    "population": "",
    "population_proper": ""
  },
  {
    "city": "Straumsjøen",
    "lat": 68.6944,
    "lng": 14.4718,
    "country": "Norway",
    "iso2": "NO",
    "admin": "Nordland",
    "capital": "minor",
    "population": "",
    "population_proper": ""
  },
  {
    "city": "Vangsvik",
    "lat": 69.166667,
    "lng": 17.733333,
    "country": "Norway",
    "iso2": "NO",
    "admin": "Troms",
    "capital": "minor",
    "population": "",
    "population_proper": ""
  },
  {
    "city": "Risør",
    "lat": 58.716667,
    "lng": 9.233333,
    "country": "Norway",
    "iso2": "NO",
    "admin": "Aust-Agder",
    "capital": "minor",
    "population": "",
    "population_proper": ""
  },
  {
    "city": "Tolga",
    "lat": 62.416667,
    "lng": 11,
    "country": "Norway",
    "iso2": "NO",
    "admin": "Hedmark",
    "capital": "minor",
    "population": "",
    "population_proper": ""
  },
  {
    "city": "Dalen",
    "lat": 59.45,
    "lng": 8,
    "country": "Norway",
    "iso2": "NO",
    "admin": "Telemark",
    "capital": "minor",
    "population": "",
    "population_proper": ""
  },
  {
    "city": "Leinesfjord",
    "lat": 67.77654,
    "lng": 15.0147,
    "country": "Norway",
    "iso2": "NO",
    "admin": "Nordland",
    "capital": "minor",
    "population": "",
    "population_proper": ""
  },
  {
    "city": "Træna",
    "lat": 66.50167,
    "lng": 12.09632,
    "country": "Norway",
    "iso2": "NO",
    "admin": "Nordland",
    "capital": "minor",
    "population": "",
    "population_proper": ""
  },
  {
    "city": "Stange",
    "lat": 60.716667,
    "lng": 11.183333,
    "country": "Norway",
    "iso2": "NO",
    "admin": "Hedmark",
    "capital": "minor",
    "population": "",
    "population_proper": ""
  },
  {
    "city": "Porsgrunn",
    "lat": 59.15,
    "lng": 9.666667,
    "country": "Norway",
    "iso2": "NO",
    "admin": "Telemark",
    "capital": "minor",
    "population": "",
    "population_proper": ""
  },
  {
    "city": "Nesbyen",
    "lat": 60.566667,
    "lng": 9.1,
    "country": "Norway",
    "iso2": "NO",
    "admin": "Buskerud",
    "capital": "minor",
    "population": "",
    "population_proper": ""
  },
  {
    "city": "Nordfjordeid",
    "lat": 61.9,
    "lng": 6,
    "country": "Norway",
    "iso2": "NO",
    "admin": "Sogn og Fjordane",
    "capital": "minor",
    "population": "",
    "population_proper": ""
  },
  {
    "city": "Fitjar",
    "lat": 59.9175,
    "lng": 5.322778,
    "country": "Norway",
    "iso2": "NO",
    "admin": "Hordaland",
    "capital": "minor",
    "population": "",
    "population_proper": ""
  },
  {
    "city": "Båtsfjord",
    "lat": 70.632222,
    "lng": 29.699722,
    "country": "Norway",
    "iso2": "NO",
    "admin": "Finnmark",
    "capital": "minor",
    "population": "",
    "population_proper": ""
  },
  {
    "city": "Prestfoss",
    "lat": 60.033333,
    "lng": 9.633333,
    "country": "Norway",
    "iso2": "NO",
    "admin": "Buskerud",
    "capital": "minor",
    "population": "",
    "population_proper": ""
  },
  {
    "city": "Dun",
    "lat": 64.666667,
    "lng": 11.25,
    "country": "Norway",
    "iso2": "NO",
    "admin": "Nord-Trøndelag",
    "capital": "minor",
    "population": "",
    "population_proper": ""
  },
  {
    "city": "Melhus",
    "lat": 63.283333,
    "lng": 10.266667,
    "country": "Norway",
    "iso2": "NO",
    "admin": "Sør-Trøndelag",
    "capital": "minor",
    "population": "",
    "population_proper": ""
  },
  {
    "city": "Hopen",
    "lat": 63.466667,
    "lng": 8.016667,
    "country": "Norway",
    "iso2": "NO",
    "admin": "Møre og Romsdal",
    "capital": "minor",
    "population": "",
    "population_proper": ""
  },
  {
    "city": "Sistranda",
    "lat": 63.716667,
    "lng": 8.833333,
    "country": "Norway",
    "iso2": "NO",
    "admin": "Sør-Trøndelag",
    "capital": "minor",
    "population": "",
    "population_proper": ""
  },
  {
    "city": "Rindal",
    "lat": 63.05,
    "lng": 9.216667,
    "country": "Norway",
    "iso2": "NO",
    "admin": "Møre og Romsdal",
    "capital": "minor",
    "population": "",
    "population_proper": ""
  },
  {
    "city": "Kjøpsvik",
    "lat": 68.1025,
    "lng": 16.350556,
    "country": "Norway",
    "iso2": "NO",
    "admin": "Nordland",
    "capital": "minor",
    "population": "",
    "population_proper": ""
  },
  {
    "city": "Lier",
    "lat": 59.79253,
    "lng": 10.25246,
    "country": "Norway",
    "iso2": "NO",
    "admin": "Buskerud",
    "capital": "minor",
    "population": "",
    "population_proper": ""
  },
  {
    "city": "Bokn",
    "lat": 59.22356,
    "lng": 5.44522,
    "country": "Norway",
    "iso2": "NO",
    "admin": "Rogaland",
    "capital": "minor",
    "population": "",
    "population_proper": ""
  },
  {
    "city": "Kvitsøy",
    "lat": 59.06319,
    "lng": 5.41613,
    "country": "Norway",
    "iso2": "NO",
    "admin": "Rogaland",
    "capital": "minor",
    "population": "",
    "population_proper": ""
  },
  {
    "city": "Forsand",
    "lat": 58.90242,
    "lng": 6.09638,
    "country": "Norway",
    "iso2": "NO",
    "admin": "Rogaland",
    "capital": "minor",
    "population": "",
    "population_proper": ""
  },
  {
    "city": "Skotterud",
    "lat": 59.983333,
    "lng": 12.116667,
    "country": "Norway",
    "iso2": "NO",
    "admin": "Hedmark",
    "capital": "minor",
    "population": "",
    "population_proper": ""
  },
  {
    "city": "Hyllestad",
    "lat": 61.166667,
    "lng": 5.3,
    "country": "Norway",
    "iso2": "NO",
    "admin": "Sogn og Fjordane",
    "capital": "minor",
    "population": "",
    "population_proper": ""
  },
  {
    "city": "Moldjord",
    "lat": 67,
    "lng": 14.583333,
    "country": "Norway",
    "iso2": "NO",
    "admin": "Nordland",
    "capital": "minor",
    "population": "",
    "population_proper": ""
  },
  {
    "city": "Engerdal",
    "lat": 61.75836,
    "lng": 11.95937,
    "country": "Norway",
    "iso2": "NO",
    "admin": "Hedmark",
    "capital": "minor",
    "population": "",
    "population_proper": ""
  },
  {
    "city": "Bergset",
    "lat": 61.8897,
    "lng": 11.07732,
    "country": "Norway",
    "iso2": "NO",
    "admin": "Hedmark",
    "capital": "minor",
    "population": "",
    "population_proper": ""
  },
  {
    "city": "Jørpeland",
    "lat": 59.016667,
    "lng": 6.05,
    "country": "Norway",
    "iso2": "NO",
    "admin": "Rogaland",
    "capital": "minor",
    "population": "",
    "population_proper": ""
  },
  {
    "city": "Stjørdal",
    "lat": 63.47025,
    "lng": 10.91215,
    "country": "Norway",
    "iso2": "NO",
    "admin": "Nord-Trøndelag",
    "capital": "minor",
    "population": "",
    "population_proper": ""
  },
  {
    "city": "Sogndal",
    "lat": 61.23155,
    "lng": 7.10268,
    "country": "Norway",
    "iso2": "NO",
    "admin": "Sogn og Fjordane",
    "capital": "minor",
    "population": "",
    "population_proper": ""
  },
  {
    "city": "Askvoll",
    "lat": 61.34651,
    "lng": 5.05971,
    "country": "Norway",
    "iso2": "NO",
    "admin": "Sogn og Fjordane",
    "capital": "minor",
    "population": "",
    "population_proper": ""
  },
  {
    "city": "Hornindal",
    "lat": 61.96927,
    "lng": 6.52245,
    "country": "Norway",
    "iso2": "NO",
    "admin": "Sogn og Fjordane",
    "capital": "minor",
    "population": "",
    "population_proper": ""
  },
  {
    "city": "Skei",
    "lat": 61.57156,
    "lng": 6.47895,
    "country": "Norway",
    "iso2": "NO",
    "admin": "Sogn og Fjordane",
    "capital": "minor",
    "population": "",
    "population_proper": ""
  },
  {
    "city": "Stryn",
    "lat": 61.916667,
    "lng": 6.783333,
    "country": "Norway",
    "iso2": "NO",
    "admin": "Sogn og Fjordane",
    "capital": "minor",
    "population": "",
    "population_proper": ""
  },
  {
    "city": "Lørenskog",
    "lat": 59.940794,
    "lng": 10.960957,
    "country": "Norway",
    "iso2": "NO",
    "admin": "Akershus",
    "capital": "minor",
    "population": "",
    "population_proper": ""
  },
  {
    "city": "Trøgstad",
    "lat": 59.64589,
    "lng": 11.294485,
    "country": "Norway",
    "iso2": "NO",
    "admin": "Østfold",
    "capital": "minor",
    "population": "",
    "population_proper": ""
  },
  {
    "city": "Skiptvet",
    "lat": 59.460016,
    "lng": 11.160108,
    "country": "Norway",
    "iso2": "NO",
    "admin": "Østfold",
    "capital": "minor",
    "population": "",
    "population_proper": ""
  },
  {
    "city": "Folldal",
    "lat": 62.133333,
    "lng": 10.05,
    "country": "Norway",
    "iso2": "NO",
    "admin": "Hedmark",
    "capital": "minor",
    "population": "",
    "population_proper": ""
  },
  {
    "city": "Straumen",
    "lat": 63.866667,
    "lng": 11.3,
    "country": "Norway",
    "iso2": "NO",
    "admin": "Nord-Trøndelag",
    "capital": "minor",
    "population": "",
    "population_proper": ""
  },
  {
    "city": "Hurdal",
    "lat": 60.396226,
    "lng": 11.027743,
    "country": "Norway",
    "iso2": "NO",
    "admin": "Akershus",
    "capital": "minor",
    "population": "",
    "population_proper": ""
  },
  {
    "city": "Storebø",
    "lat": 60.1,
    "lng": 5.233333,
    "country": "Norway",
    "iso2": "NO",
    "admin": "Hordaland",
    "capital": "minor",
    "population": "",
    "population_proper": ""
  },
  {
    "city": "Røros",
    "lat": 62.583333,
    "lng": 11.4,
    "country": "Norway",
    "iso2": "NO",
    "admin": "Sør-Trøndelag",
    "capital": "minor",
    "population": "",
    "population_proper": ""
  },
  {
    "city": "Nesoddtangen",
    "lat": 59.866667,
    "lng": 10.65,
    "country": "Norway",
    "iso2": "NO",
    "admin": "Akershus",
    "capital": "minor",
    "population": "",
    "population_proper": ""
  },
  {
    "city": "Ørsta",
    "lat": 62.2,
    "lng": 6.15,
    "country": "Norway",
    "iso2": "NO",
    "admin": "Møre og Romsdal",
    "capital": "minor",
    "population": "",
    "population_proper": ""
  },
  {
    "city": "Åmli",
    "lat": 58.783333,
    "lng": 8.5,
    "country": "Norway",
    "iso2": "NO",
    "admin": "Aust-Agder",
    "capital": "minor",
    "population": "",
    "population_proper": ""
  },
  {
    "city": "Havøysund",
    "lat": 71.000556,
    "lng": 24.696111,
    "country": "Norway",
    "iso2": "NO",
    "admin": "Finnmark",
    "capital": "minor",
    "population": "",
    "population_proper": ""
  },
  {
    "city": "Vikøyri",
    "lat": 61.083333,
    "lng": 6.583333,
    "country": "Norway",
    "iso2": "NO",
    "admin": "Sogn og Fjordane",
    "capital": "minor",
    "population": "",
    "population_proper": ""
  },
  {
    "city": "Egersund",
    "lat": 58.45,
    "lng": 6,
    "country": "Norway",
    "iso2": "NO",
    "admin": "Rogaland",
    "capital": "minor",
    "population": "",
    "population_proper": ""
  },
  {
    "city": "Vardø",
    "lat": 70.366667,
    "lng": 31.1,
    "country": "Norway",
    "iso2": "NO",
    "admin": "Finnmark",
    "capital": "minor",
    "population": "",
    "population_proper": ""
  },
  {
    "city": "Solfjellsjøen",
    "lat": 66.116667,
    "lng": 12.483333,
    "country": "Norway",
    "iso2": "NO",
    "admin": "Nordland",
    "capital": "minor",
    "population": "",
    "population_proper": ""
  },
  {
    "city": "Tingvatn",
    "lat": 58.4,
    "lng": 7.233333,
    "country": "Norway",
    "iso2": "NO",
    "admin": "Vest-Agder",
    "capital": "minor",
    "population": "",
    "population_proper": ""
  },
  {
    "city": "Moi",
    "lat": 58.466667,
    "lng": 6.533333,
    "country": "Norway",
    "iso2": "NO",
    "admin": "Rogaland",
    "capital": "minor",
    "population": "",
    "population_proper": ""
  },
  {
    "city": "Elverum",
    "lat": 60.883333,
    "lng": 11.566667,
    "country": "Norway",
    "iso2": "NO",
    "admin": "Hedmark",
    "capital": "minor",
    "population": "",
    "population_proper": ""
  },
  {
    "city": "Roan",
    "lat": 64.17286,
    "lng": 10.22503,
    "country": "Norway",
    "iso2": "NO",
    "admin": "Sør-Trøndelag",
    "capital": "minor",
    "population": "",
    "population_proper": ""
  },
  {
    "city": "Steinsdalen",
    "lat": 64.24292,
    "lng": 10.69261,
    "country": "Norway",
    "iso2": "NO",
    "admin": "Sør-Trøndelag",
    "capital": "minor",
    "population": "",
    "population_proper": ""
  },
  {
    "city": "Fossby",
    "lat": 59.216667,
    "lng": 11.7,
    "country": "Norway",
    "iso2": "NO",
    "admin": "Østfold",
    "capital": "minor",
    "population": "",
    "population_proper": ""
  },
  {
    "city": "Roa",
    "lat": 60.283333,
    "lng": 10.616667,
    "country": "Norway",
    "iso2": "NO",
    "admin": "Oppland",
    "capital": "minor",
    "population": "",
    "population_proper": ""
  },
  {
    "city": "Børsa",
    "lat": 63.32768,
    "lng": 10.06833,
    "country": "Norway",
    "iso2": "NO",
    "admin": "Sør-Trøndelag",
    "capital": "minor",
    "population": "",
    "population_proper": ""
  },
  {
    "city": "Vinje",
    "lat": 59.62009,
    "lng": 7.84126,
    "country": "Norway",
    "iso2": "NO",
    "admin": "Telemark",
    "capital": "minor",
    "population": "",
    "population_proper": ""
  },
  {
    "city": "Sauland",
    "lat": 59.62027,
    "lng": 8.92781,
    "country": "Norway",
    "iso2": "NO",
    "admin": "Telemark",
    "capital": "minor",
    "population": "",
    "population_proper": ""
  },
  {
    "city": "Akkerhaugen",
    "lat": 59.39399,
    "lng": 9.24708,
    "country": "Norway",
    "iso2": "NO",
    "admin": "Telemark",
    "capital": "minor",
    "population": "",
    "population_proper": ""
  },
  {
    "city": "Vigeland",
    "lat": 58.083333,
    "lng": 7.3,
    "country": "Norway",
    "iso2": "NO",
    "admin": "Vest-Agder",
    "capital": "minor",
    "population": "",
    "population_proper": ""
  },
  {
    "city": "Oppeid",
    "lat": 68.085556,
    "lng": 15.611667,
    "country": "Norway",
    "iso2": "NO",
    "admin": "Nordland",
    "capital": "minor",
    "population": "",
    "population_proper": ""
  },
  {
    "city": "Kolbotn",
    "lat": 59.811389,
    "lng": 10.798333,
    "country": "Norway",
    "iso2": "NO",
    "admin": "Akershus",
    "capital": "minor",
    "population": "",
    "population_proper": ""
  },
  {
    "city": "Lødingen",
    "lat": 68.407222,
    "lng": 15.991944,
    "country": "Norway",
    "iso2": "NO",
    "admin": "Nordland",
    "capital": "minor",
    "population": "",
    "population_proper": ""
  },
  {
    "city": "Ballangen",
    "lat": 68.335278,
    "lng": 16.821111,
    "country": "Norway",
    "iso2": "NO",
    "admin": "Nordland",
    "capital": "minor",
    "population": "",
    "population_proper": ""
  },
  {
    "city": "Hattfjelldal",
    "lat": 65.59768,
    "lng": 13.98925,
    "country": "Norway",
    "iso2": "NO",
    "admin": "Nordland",
    "capital": "minor",
    "population": "",
    "population_proper": ""
  },
  {
    "city": "Ulsteinvik",
    "lat": 62.333333,
    "lng": 5.883333,
    "country": "Norway",
    "iso2": "NO",
    "admin": "Møre og Romsdal",
    "capital": "minor",
    "population": "",
    "population_proper": ""
  },
  {
    "city": "Gol",
    "lat": 60.7,
    "lng": 8.95,
    "country": "Norway",
    "iso2": "NO",
    "admin": "Buskerud",
    "capital": "minor",
    "population": "",
    "population_proper": ""
  },
  {
    "city": "Varangerbotn",
    "lat": 70.166667,
    "lng": 28.55,
    "country": "Norway",
    "iso2": "NO",
    "admin": "Finnmark",
    "capital": "minor",
    "population": "",
    "population_proper": ""
  },
  {
    "city": "Rollag",
    "lat": 60.02268,
    "lng": 9.26946,
    "country": "Norway",
    "iso2": "NO",
    "admin": "Buskerud",
    "capital": "minor",
    "population": "",
    "population_proper": ""
  },
  {
    "city": "Vikeså",
    "lat": 58.633333,
    "lng": 6.1,
    "country": "Norway",
    "iso2": "NO",
    "admin": "Rogaland",
    "capital": "minor",
    "population": "",
    "population_proper": ""
  },
  {
    "city": "Vikersund",
    "lat": 59.983333,
    "lng": 10.033333,
    "country": "Norway",
    "iso2": "NO",
    "admin": "Buskerud",
    "capital": "minor",
    "population": "",
    "population_proper": ""
  },
  {
    "city": "Hol",
    "lat": 68.533333,
    "lng": 16.4,
    "country": "Norway",
    "iso2": "NO",
    "admin": "Nordland",
    "capital": "minor",
    "population": "",
    "population_proper": ""
  },
  {
    "city": "Moen",
    "lat": 69.133333,
    "lng": 18.616667,
    "country": "Norway",
    "iso2": "NO",
    "admin": "Troms",
    "capital": "minor",
    "population": "",
    "population_proper": ""
  },
  {
    "city": "Levanger",
    "lat": 63.75,
    "lng": 11.3,
    "country": "Norway",
    "iso2": "NO",
    "admin": "Nord-Trøndelag",
    "capital": "minor",
    "population": "",
    "population_proper": ""
  },
  {
    "city": "Hjelmeland",
    "lat": 59.233333,
    "lng": 6.183333,
    "country": "Norway",
    "iso2": "NO",
    "admin": "Rogaland",
    "capital": "minor",
    "population": "",
    "population_proper": ""
  },
  {
    "city": "Vegårshei",
    "lat": 58.766667,
    "lng": 8.8,
    "country": "Norway",
    "iso2": "NO",
    "admin": "Aust-Agder",
    "capital": "minor",
    "population": "",
    "population_proper": ""
  },
  {
    "city": "Lillestrøm",
    "lat": 59.95,
    "lng": 11.083333,
    "country": "Norway",
    "iso2": "NO",
    "admin": "Akershus",
    "capital": "minor",
    "population": "",
    "population_proper": ""
  },
  {
    "city": "Lillesand",
    "lat": 58.252222,
    "lng": 8.378333,
    "country": "Norway",
    "iso2": "NO",
    "admin": "Aust-Agder",
    "capital": "minor",
    "population": "",
    "population_proper": ""
  },
  {
    "city": "Vevelstad",
    "lat": 65.716667,
    "lng": 12.466667,
    "country": "Norway",
    "iso2": "NO",
    "admin": "Nordland",
    "capital": "minor",
    "population": "",
    "population_proper": ""
  },
  {
    "city": "Askim",
    "lat": 59.583333,
    "lng": 11.166667,
    "country": "Norway",
    "iso2": "NO",
    "admin": "Østfold",
    "capital": "minor",
    "population": "",
    "population_proper": ""
  },
  {
    "city": "Sortland",
    "lat": 68.701944,
    "lng": 15.423889,
    "country": "Norway",
    "iso2": "NO",
    "admin": "Nordland",
    "capital": "minor",
    "population": "",
    "population_proper": ""
  },
  {
    "city": "Valle",
    "lat": 59.2,
    "lng": 7.533333,
    "country": "Norway",
    "iso2": "NO",
    "admin": "Aust-Agder",
    "capital": "minor",
    "population": "",
    "population_proper": ""
  },
  {
    "city": "Fjerdingby",
    "lat": 59.925506,
    "lng": 11.086483,
    "country": "Norway",
    "iso2": "NO",
    "admin": "Akershus",
    "capital": "minor",
    "population": "",
    "population_proper": ""
  },
  {
    "city": "Kleppestø",
    "lat": 60.409444,
    "lng": 5.228611,
    "country": "Norway",
    "iso2": "NO",
    "admin": "Hordaland",
    "capital": "minor",
    "population": "",
    "population_proper": ""
  }
]
